,Creation Date,Status,Completion Date,Service Request Number,Type of Service Request,Street Address,ZIP Code,X Coordinate,Y Coordinate,Ward,Police District,Community Area,Latitude,Longitude,Location,date
23797,04/01/2013,Completed - Dup,04/01/2013,13-00361420,Alley Light Out,1456 W BALMORAL AVE,60640.0,1165482.48647242,1935958.788995,48.0,20.0,77.0,41.9798676050445,-87.6667900790391,"(41.979867605044504, -87.6667900790391)",2013-04-01
23798,04/01/2013,Completed - Dup,04/01/2013,13-00362294,Alley Light Out,2739 N CAMPBELL AVE,60647.0,1159224.59997571,1918121.62000579,1.0,14.0,22.0,41.931052725444715,-87.69029634919121,"(41.93105272544471, -87.69029634919121)",2013-04-01
23799,04/01/2013,Completed - Dup,04/01/2013,13-00362836,Alley Light Out,5914 W 64TH ST,60638.0,1138091.38597755,1861502.70148851,13.0,8.0,64.0,41.7760908802264,-87.76932430839655,"(41.7760908802264, -87.76932430839655)",2013-04-01
23800,04/01/2013,Completed - Dup,04/01/2013,13-00362899,Alley Light Out,6042 S KOLMAR AVE,60629.0,1147072.39889876,1864153.74669978,13.0,8.0,65.0,41.783199433170225,-87.73633257104065,"(41.78319943317023, -87.73633257104066)",2013-04-01
23801,04/01/2013,Completed - Dup,04/01/2013,13-00363192,Alley Light Out,5429 S TALMAN AVE,60632.0,1159627.52833389,1868561.9657203997,14.0,9.0,63.0,41.795047756539844,-87.69018002270029,"(41.79504775653984, -87.69018002270029)",2013-04-01
23802,04/01/2013,Completed - Dup,04/02/2013,13-00362876,Alley Light Out,3645 W 66TH ST,60629.0,1153082.00009188,1860596.43649166,13.0,8.0,65.0,41.773321013482,-87.71439299913574,"(41.77332101348199, -87.71439299913574)",2013-04-01
23803,04/01/2013,Completed - Dup,04/03/2013,13-00360213,Alley Light Out,10943 S AVENUE D,60617.0,1204128.48619166,1833011.46999667,10.0,4.0,52.0,41.69646561007743,-87.52821758748625,"(41.69646561007743, -87.52821758748625)",2013-04-01
23804,04/01/2013,Completed - Dup,04/03/2013,13-00364559,Alley Light Out,820 S MILLER ST,60607.0,1169743.619275,1896472.239,25.0,12.0,28.0,41.87142250383899,-87.65227279131076,"(41.87142250383899, -87.65227279131076)",2013-04-01
23805,04/01/2013,Completed - Dup,04/04/2013,13-00362893,Alley Light Out,6436 S KOSTNER AVE,60629.0,1148147.56512393,1861559.71560856,13.0,8.0,65.0,41.77606043717321,-87.73245705713833,"(41.7760604371732, -87.73245705713833)",2013-04-01
23806,04/01/2013,Completed - Dup,04/04/2013,13-00364453,Alley Light Out,6644 S HONORE ST,60636.0,1165158.39369663,1860616.53751942,15.0,7.0,67.0,41.77312914729849,-87.67012297651075,"(41.77312914729849, -87.67012297651075)",2013-04-01
23807,04/01/2013,Completed - Dup,04/04/2013,13-00364619,Alley Light Out,9730 S DOBSON AVE,60628.0,1184925.99947981,1840688.67051899,8.0,5.0,50.0,41.71800384687892,-87.59828439694158,"(41.718003846878915, -87.59828439694158)",2013-04-01
23808,04/01/2013,Completed - Dup,04/04/2013,13-00364676,Alley Light Out,7634 S LAFAYETTE AVE,60620.0,1177169.08000022,1854271.3400072,6.0,6.0,69.0,41.75545461505818,-87.62628611270942,"(41.75545461505817, -87.62628611270942)",2013-04-01
23809,04/01/2013,Completed,04/01/2013,13-00362222,Alley Light Out,2739 N CAMPBELL AVE,60647.0,1159224.59997571,1918121.62000579,1.0,14.0,22.0,41.931052725444715,-87.69029634919121,"(41.93105272544471, -87.69029634919121)",2013-04-01
23810,04/01/2013,Completed,04/02/2013,13-00360689,Alley Light Out,5200 N NATOMA AVE,60656.0,1131251.3967256001,1934167.17968085,41.0,16.0,10.0,41.975613169269906,-87.79272192975424,"(41.97561316926991, -87.79272192975424)",2013-04-01
23811,04/01/2013,Completed,04/02/2013,13-00361264,Alley Light Out,3107 N NEWCASTLE AVE,60634.0,1130212.46880655,1919891.75089825,36.0,25.0,18.0,41.93645776733671,-87.79687114980038,"(41.936457767336705, -87.79687114980038)",2013-04-01
23812,04/01/2013,Completed,04/02/2013,13-00362826,Alley Light Out,5311 W CUYLER AVE,60641.0,1140224.17271172,1926414.45149478,38.0,16.0,15.0,41.95417887914892,-87.75991605541817,"(41.95417887914892, -87.75991605541817)",2013-04-01
23813,04/01/2013,Completed,04/02/2013,13-00362865,Alley Light Out,3858 W 69TH ST,60629.0,1151834.05419964,1858570.49743412,13.0,8.0,65.0,41.767786066729315,-87.71902077661841,"(41.76778606672931, -87.71902077661841)",2013-04-01
23814,04/01/2013,Completed,04/02/2013,13-00363571,Alley Light Out,1344 W 97TH PL,60643.0,1169092.32408632,1840174.41757136,21.0,22.0,73.0,41.716948987200816,-87.65629174393258,"(41.716948987200816, -87.6562917439326)",2013-04-01
23815,04/01/2013,Completed,04/02/2013,13-00363666,Alley Light Out,4624 W MONTANA ST,60639.0,1145071.49028458,1915920.11000981,31.0,25.0,19.0,41.92529106968863,-87.74236242886839,"(41.925291069688626, -87.74236242886839)",2013-04-01
23816,04/01/2013,Completed,04/03/2013,13-00360952,Alley Light Out,9027 S LOWE AVE,60620.0,1173555.39880733,1844991.04460394,21.0,22.0,71.0,41.73006901119575,-87.63980338429428,"(41.730069011195745, -87.63980338429428)",2013-04-01
23817,04/01/2013,Completed,04/03/2013,13-00361211,Alley Light Out,9100 S HARVARD AVE,60620.0,1176112.6523817,1844228.60432446,21.0,6.0,49.0,41.727919851097404,-87.63045823774708,"(41.727919851097404, -87.63045823774708)",2013-04-01
23818,04/01/2013,Completed,04/03/2013,13-00361341,Alley Light Out,4849 N HAMLIN AVE,60625.0,1150181.26848484,1931955.75687401,39.0,17.0,14.0,41.96919596119866,-87.72316707093641,"(41.96919596119866, -87.72316707093641)",2013-04-01
23819,04/01/2013,Completed,04/03/2013,13-00362649,Alley Light Out,8742 S MARQUETTE AVE,60617.0,1195772.22002251,1847531.94998666,7.0,4.0,46.0,41.736521428917705,-87.55833391385805,"(41.736521428917705, -87.55833391385805)",2013-04-01
23820,04/01/2013,Completed,04/03/2013,13-00364449,Alley Light Out,3343 N OZANAM AVE,60634.0,1123502.53302228,1921241.05277659,36.0,16.0,17.0,41.94027299602855,-87.82150188696698,"(41.94027299602855, -87.82150188696698)",2013-04-01
23821,04/01/2013,Completed,04/03/2013,13-00364481,Alley Light Out,5315 N OLCOTT AVE,60656.0,1125346.95797466,1934432.5869318,41.0,16.0,10.0,41.976441670989814,-87.81442926563373,"(41.976441670989814, -87.81442926563373)",2013-04-01
23822,04/01/2013,Completed,04/04/2013,13-00360632,Alley Light Out,6608 N FAIRFIELD AVE,60645.0,1156796.20540738,1943726.68512447,50.0,24.0,2.0,42.001364087122795,-87.69852309031332,"(42.0013640871228, -87.69852309031333)",2013-04-01
23823,04/01/2013,Completed,04/04/2013,13-00361913,Alley Light Out,822 S MILLER ST,60607.0,1169743.919275,1896462.239,25.0,12.0,28.0,41.87139505654999,-87.65227198120019,"(41.871395056549986, -87.65227198120019)",2013-04-01
23824,04/01/2013,Completed,04/04/2013,13-00362341,Alley Light Out,2528 W BERTEAU AVE,60618.0,1158645.70002666,1927809.0700299998,47.0,19.0,5.0,41.957647592089096,-87.69215740279965,"(41.957647592089096, -87.69215740279964)",2013-04-01
23825,04/01/2013,Completed,04/04/2013,13-00362394,Alley Light Out,2447 W DIVERSEY AVE,60647.0,1159457.80008585,1918525.13719742,1.0,14.0,22.0,41.93215520127385,-87.68942824741873,"(41.93215520127385, -87.68942824741872)",2013-04-01
23826,04/01/2013,Completed,04/04/2013,13-00362850,Alley Light Out,6930 S PULASKI RD,60629.0,1150897.37742737,1858223.91986823,13.0,8.0,65.0,41.7668533081294,-87.7224631846612,"(41.7668533081294, -87.7224631846612)",2013-04-01
23827,04/01/2013,Completed,04/04/2013,13-00362856,Alley Light Out,6959 S PULASKI RD,60629.0,1150901.07742737,1858076.11986823,13.0,8.0,65.0,41.76644764859093,-87.722453470111,"(41.76644764859093, -87.722453470111)",2013-04-01
23828,04/01/2013,Completed,04/04/2013,13-00362942,Alley Light Out,6834 S KOMENSKY AVE,60629.0,1150546.01200263,1858972.18070285,13.0,8.0,65.0,41.76891349916386,-87.72373165652051,"(41.76891349916386, -87.72373165652051)",2013-04-01
23829,04/01/2013,Completed,04/04/2013,13-00364461,Alley Light Out,7325 S RHODES AVE,60619.0,1181173.44161589,1856567.10150195,6.0,3.0,69.0,41.76166318256155,-87.61154067226623,"(41.76166318256155, -87.61154067226623)",2013-04-01
23979,04/02/2013,Completed - Dup,04/02/2013,13-00365147,Alley Light Out,2041 N WESTERN AVE,60647.0,1160033.17551961,1913645.17991125,32.0,14.0,22.0,41.918752382922335,-87.68744889831329,"(41.918752382922335, -87.68744889831329)",2013-04-02
23980,04/02/2013,Completed - Dup,04/03/2013,13-00364991,Alley Light Out,10909 S AVENUE M,60617.0,1201536.43688062,1833231.37306871,10.0,4.0,52.0,41.69713514032733,-87.5377004135015,"(41.69713514032733, -87.53770041350148)",2013-04-02
23981,04/02/2013,Completed - Dup,04/03/2013,13-00366642,Alley Light Out,8423 S WOLCOTT AVE,60620.0,1165151.63032937,1848810.01479237,18.0,6.0,71.0,41.74073053013716,-87.67048123880829,"(41.74073053013716, -87.67048123880829)",2013-04-02
23982,04/02/2013,Completed - Dup,04/03/2013,13-00367013,Alley Light Out,7711 S SOUTH CHICAGO AVE,60619.0,1187150.78182198,1853999.13101326,5.0,4.0,43.0,41.75447671361622,-87.58971475675408,"(41.75447671361622, -87.58971475675408)",2013-04-02
23983,04/02/2013,Completed - Dup,04/03/2013,13-00367293,Alley Light Out,8136 S CORNELL AVE,60617.0,1188678.87020799,1851428.30358569,8.0,4.0,45.0,41.74738574454695,-87.5841968985863,"(41.74738574454695, -87.5841968985863)",2013-04-02
23984,04/02/2013,Completed - Dup,04/03/2013,13-00370282,Alley Light Out,3818 N SAWYER AVE,60618.0,1154042.03921392,1925205.53220356,33.0,17.0,16.0,41.95059658210143,-87.70915175843922,"(41.950596582101426, -87.70915175843922)",2013-04-02
23985,04/02/2013,Completed - Dup,04/03/2013,13-00370501,Alley Light Out,9328 S PARNELL AVE,60620.0,1174270.653479,1843032.70768994,21.0,22.0,73.0,41.7246792237369,-87.63724121193623,"(41.7246792237369, -87.63724121193623)",2013-04-02
23986,04/02/2013,Completed,04/02/2013,13-00365947,Alley Light Out,2830 S EMERALD AVE,60616.0,1171757.71599663,1886119.42523336,11.0,9.0,60.0,41.84296948149935,-87.64518295207195,"(41.842969481499345, -87.64518295207196)",2013-04-02
23987,04/02/2013,Completed,04/02/2013,13-00369369,Alley Light Out,1559 W 100TH PL,60643.0,1167773.31409323,1838105.23909758,19.0,22.0,72.0,41.711299200158344,-87.66118186195314,"(41.71129920015834, -87.66118186195314)",2013-04-02
23988,04/02/2013,Completed,04/03/2013,13-00365486,Alley Light Out,434 W 97TH ST,60628.0,1175022.90047064,1840581.70327591,21.0,22.0,73.0,41.71793660556105,-87.63455861759114,"(41.71793660556105, -87.63455861759113)",2013-04-02
23989,04/02/2013,Completed,04/03/2013,13-00365874,Alley Light Out,10414 S WENTWORTH AVE,60628.0,1176793.56372544,1835843.37716649,34.0,5.0,49.0,41.70489436296077,-87.62821551061644,"(41.70489436296077, -87.62821551061644)",2013-04-02
23990,04/02/2013,Completed,04/03/2013,13-00367068,Alley Light Out,4100 N BELL AVE,60618.0,1160629.61558186,1927185.63736797,47.0,19.0,5.0,41.95589589550825,-87.68488121367821,"(41.95589589550825, -87.6848812136782)",2013-04-02
23991,04/02/2013,Completed,04/03/2013,13-00368337,Alley Light Out,10747 S PULASKI RD,60655.0,1151587.44427283,1832985.39549066,19.0,22.0,74.0,41.69758079515813,-87.72059236188788,"(41.69758079515813, -87.72059236188788)",2013-04-02
23992,04/02/2013,Completed,04/03/2013,13-00369096,Alley Light Out,5850 W HENDERSON ST,60634.0,1137115.26730321,1921684.08152089,38.0,16.0,15.0,41.9412547779991,-87.77145897307436,"(41.9412547779991, -87.77145897307436)",2013-04-02
23993,04/02/2013,Completed,04/03/2013,13-00369199,Alley Light Out,29 E 118TH ST,60628.0,1178538.01777913,1826734.38099439,9.0,5.0,53.0,41.679858593487204,-87.62210299626507,"(41.679858593487204, -87.62210299626506)",2013-04-02
23994,04/02/2013,Completed,04/03/2013,13-00369815,Alley Light Out,6111 N HARLEM AVE,60631.0,1127373.10353343,1940296.94001731,41.0,16.0,10.0,41.992500119763115,-87.80684556454916,"(41.99250011976312, -87.80684556454915)",2013-04-02
23995,04/02/2013,Completed,04/03/2013,13-00369945,Alley Light Out,6149 N LAWNDALE AVE,60659.0,1150595.19612455,1940572.37192588,50.0,17.0,13.0,41.992832376261795,-87.7214187067181,"(41.992832376261795, -87.7214187067181)",2013-04-02
23996,04/02/2013,Completed,04/03/2013,13-00370257,Alley Light Out,6542 W FOSTER AVE,60656.0,1131531.52310886,1934172.05921014,41.0,16.0,10.0,41.975621703513454,-87.79169166972484,"(41.975621703513454, -87.79169166972484)",2013-04-02
23997,04/02/2013,Completed,04/03/2013,13-00370458,Alley Light Out,2901 S LOWE AVE,60616.0,1172429.58550197,1885667.61201855,11.0,9.0,60.0,41.841714869192344,-87.64273070612529,"(41.84171486919234, -87.64273070612529)",2013-04-02
23998,04/02/2013,Completed,04/04/2013,13-00365001,Alley Light Out,6316 S CHAMPLAIN AVE,60637.0,1181653.73406605,1863272.8902173,20.0,3.0,42.0,41.78005345733632,-87.60957354527667,"(41.780053457336315, -87.60957354527669)",2013-04-02
23999,04/02/2013,Completed,04/04/2013,13-00365042,Alley Light Out,7431 S MICHIGAN AVE,60619.0,1178445.8555291,1855771.90087077,6.0,3.0,69.0,41.75954343309924,-87.62156158683142,"(41.75954343309924, -87.62156158683142)",2013-04-02
24000,04/02/2013,Completed,04/04/2013,13-00365084,Alley Light Out,1921 W HOOD AVE,60660.0,1162410.74227311,1940764.24687888,40.0,24.0,2.0,41.993118984103724,-87.67795149380129,"(41.99311898410373, -87.67795149380129)",2013-04-02
24001,04/02/2013,Completed,04/04/2013,13-00365126,Alley Light Out,2043 N WESTERN AVE,60647.0,1160032.37551961,1913669.57991125,32.0,14.0,22.0,41.91881935482624,-87.68745116241797,"(41.91881935482624, -87.68745116241797)",2013-04-02
24002,04/02/2013,Completed,04/04/2013,13-00365549,Alley Light Out,3501 W PALMER ST,60647.0,1152892.44698626,1914405.41531178,26.0,14.0,22.0,41.920983112905844,-87.7136645561167,"(41.92098311290584, -87.71366455611671)",2013-04-02
24003,04/02/2013,Completed,04/04/2013,13-00367734,Alley Light Out,7220 N HAMILTON AVE,60645.0,1160443.83996839,1947846.89997047,49.0,24.0,2.0,42.012595081662774,-87.6849892052816,"(42.012595081662774, -87.6849892052816)",2013-04-02
24004,04/02/2013,Completed,04/04/2013,13-00370267,Alley Light Out,1434 W CATALPA AVE,60640.0,1165660.92830287,1936629.93601515,48.0,20.0,77.0,41.981705441222026,-87.66611461602587,"(41.981705441222026, -87.66611461602588)",2013-04-02
24005,04/02/2013,Completed,04/04/2013,13-00370278,Alley Light Out,7809 S MARYLAND AVE,60619.0,1183255.92818484,1853412.57121234,6.0,6.0,69.0,41.752958626179755,-87.6040062464801,"(41.75295862617975, -87.60400624648011)",2013-04-02
24006,04/02/2013,Completed,04/04/2013,13-00370478,Alley Light Out,7014 S INDIANA AVE,60637.0,1178806.95382263,1858556.61889296,6.0,3.0,69.0,41.76717679597756,-87.62015356133165,"(41.767176795977555, -87.62015356133165)",2013-04-02
24140,04/03/2013,Completed - Dup,04/03/2013,13-00370745,Alley Light Out,8431 S WOLCOTT AVE,60620.0,1165152.93032937,1848756.41479237,18.0,6.0,71.0,41.74058341629145,-87.67047798838072,"(41.740583416291464, -87.67047798838072)",2013-04-03
24141,04/03/2013,Completed - Dup,04/03/2013,13-00373591,Alley Light Out,10943 S AVENUE D,60617.0,1204128.48619166,1833011.46999667,10.0,4.0,52.0,41.69646561007743,-87.52821758748625,"(41.69646561007743, -87.52821758748625)",2013-04-03
24142,04/03/2013,Completed - Dup,04/03/2013,13-00373909,Alley Light Out,6831 S KARLOV AVE,60629.0,1150212.39451129,1858984.36159023,13.0,8.0,65.0,41.76895340769123,-87.72495423665104,"(41.76895340769123, -87.72495423665104)",2013-04-03
24143,04/03/2013,Completed - Dup,04/03/2013,13-00374843,Alley Light Out,7429 S MICHIGAN AVE,60619.0,1178445.5555291001,1855785.30087077,6.0,3.0,69.0,41.759580211003865,-87.62156227997555,"(41.759580211003865, -87.62156227997554)",2013-04-03
24144,04/03/2013,Completed - Dup,04/04/2013,13-00371293,Alley Light Out,3116 S PRINCETON AVE,60616.0,1174793.6053781,1884299.13110855,11.0,9.0,34.0,41.83790715851539,-87.63409646250467,"(41.83790715851539, -87.63409646250467)",2013-04-03
24145,04/03/2013,Completed - Dup,04/04/2013,13-00372209,Alley Light Out,7325 S RHODES AVE,60619.0,1181173.44161589,1856567.10150195,6.0,3.0,69.0,41.76166318256155,-87.61154067226623,"(41.76166318256155, -87.61154067226623)",2013-04-03
24146,04/03/2013,Completed,04/03/2013,13-00373616,Alley Light Out,9359 S CREGIER AVE,60617.0,1189815.22998798,1843269.63999443,8.0,4.0,48.0,41.72497035392289,-87.58029459373282,"(41.72497035392289, -87.58029459373282)",2013-04-03
24147,04/03/2013,Completed,04/03/2013,13-00376231,Alley Light Out,146 E 107TH ST,60628.0,1179207.88992373,1834053.42957089,9.0,5.0,49.0,41.69992791334414,-87.61942894715388,"(41.69992791334414, -87.61942894715388)",2013-04-03
24148,04/03/2013,Completed,04/04/2013,13-00370563,Alley Light Out,8507 S THROOP ST,60620.0,1169143.7324106002,1848359.65361041,21.0,6.0,71.0,41.73940936449192,-87.65586751185053,"(41.73940936449192, -87.65586751185053)",2013-04-03
24149,04/03/2013,Completed,04/04/2013,13-00370588,Alley Light Out,7435 W PALATINE AVE,60631.0,1125811.47448983,1941358.77689301,41.0,16.0,10.0,41.99544010539321,-87.81256613666838,"(41.99544010539321, -87.81256613666838)",2013-04-03
24150,04/03/2013,Completed,04/04/2013,13-00370589,Alley Light Out,7513 S EVANS AVE,60619.0,1182525.26418958,1855360.22419241,6.0,6.0,69.0,41.75832015461227,-87.60662352384855,"(41.75832015461227, -87.60662352384855)",2013-04-03
24151,04/03/2013,Completed,04/04/2013,13-00370643,Alley Light Out,413 E 115TH ST,60628.0,1181128.31003212,1828786.6980917,9.0,5.0,53.0,41.685431376924065,-87.61255857929397,"(41.68543137692406, -87.61255857929399)",2013-04-03
24152,04/03/2013,Completed,04/04/2013,13-00371110,Alley Light Out,2840 W 85TH PL,60652.0,1158804.9000751998,1847964.0086799,18.0,8.0,70.0,41.738540749282016,-87.69375827418129,"(41.738540749282016, -87.69375827418129)",2013-04-03
24153,04/03/2013,Completed,04/04/2013,13-00372154,Alley Light Out,4819 S CHAMPLAIN AVE,60615.0,1181411.65498915,1873204.34652871,4.0,2.0,38.0,41.80731183825888,-87.61015474446009,"(41.807311838258876, -87.61015474446008)",2013-04-03
24154,04/03/2013,Completed,04/04/2013,13-00372269,Alley Light Out,127 E 120TH ST,60628.0,1179198.9342982,1825422.28969153,9.0,5.0,53.0,41.676243021996754,-87.61972353680098,"(41.67624302199676, -87.61972353680099)",2013-04-03
24155,04/03/2013,Completed,04/04/2013,13-00372571,Alley Light Out,2206 N MOODY AVE,60639.0,1135044.98797852,1914034.75472355,29.0,25.0,19.0,41.920301146673616,-87.77924987195952,"(41.92030114667362, -87.77924987195952)",2013-04-03
24156,04/03/2013,Completed,04/04/2013,13-00372870,Alley Light Out,3447 W MONTROSE AVE,60618.0,1152514.54948141,1929025.78519779,33.0,17.0,16.0,41.96111000971553,-87.7146653473364,"(41.961110009715526, -87.7146653473364)",2013-04-03
24157,04/03/2013,Completed,04/04/2013,13-00373431,Alley Light Out,3911 N PONTIAC AVE,60634.0,1119693.97100187,1924927.36892418,36.0,16.0,17.0,41.950450276722286,-87.83542127547373,"(41.95045027672229, -87.83542127547373)",2013-04-03
24158,04/03/2013,Completed,04/04/2013,13-00375295,Alley Light Out,2078 W LUNT AVE,60645.0,1160956.06238041,1946506.78106749,50.0,24.0,2.0,42.008907099453815,-87.68314193855332,"(42.00890709945381, -87.68314193855332)",2013-04-03
24159,04/03/2013,Completed,04/04/2013,13-00375962,Alley Light Out,6734 S DORCHESTER AVE,60637.0,1186704.40723107,1860473.97988642,5.0,3.0,43.0,41.77225486473442,-87.59114582648554,"(41.77225486473442, -87.59114582648553)",2013-04-03
24160,04/03/2013,Completed,04/04/2013,13-00376180,Alley Light Out,4841 N LOWELL AVE,60630.0,1146504.91319085,1931822.65503396,39.0,17.0,14.0,41.96890177061925,-87.73668854096752,"(41.968901770619254, -87.73668854096752)",2013-04-03
24161,04/03/2013,Completed,04/04/2013,13-00376223,Alley Light Out,2646 W 83RD PL,60652.0,1160178.47479577,1849170.69011889,18.0,8.0,70.0,41.74182395235562,-87.68869263851889,"(41.741823952355624, -87.68869263851889)",2013-04-03
24518,04/04/2013,Completed - Dup,04/04/2013,13-00377794,Alley Light Out,2840 W 85TH PL,60652.0,1158804.9000751998,1847964.0086799,18.0,8.0,70.0,41.738540749282016,-87.69375827418129,"(41.738540749282016, -87.69375827418129)",2013-04-04
24519,04/04/2013,Completed - Dup,04/04/2013,13-00381093,Alley Light Out,7325 S RHODES AVE,60619.0,1181173.44161589,1856567.10150195,6.0,3.0,69.0,41.76166318256155,-87.61154067226623,"(41.76166318256155, -87.61154067226623)",2013-04-04
24520,04/04/2013,Completed - Dup,04/04/2013,13-00381254,Alley Light Out,8145 S HERMITAGE AVE,60620.0,1166096.16330386,1850678.96787657,18.0,6.0,71.0,41.74583919273013,-87.6669675193837,"(41.74583919273013, -87.6669675193837)",2013-04-04
24521,04/04/2013,Completed,04/04/2013,13-00376586,Alley Light Out,2600 N LARAMIE AVE,60639.0,1141277.36389158,1916800.51628413,31.0,25.0,19.0,41.92777790473117,-87.75628224698325,"(41.92777790473117, -87.75628224698323)",2013-04-04
24522,04/04/2013,Completed,04/04/2013,13-00376587,Alley Light Out,2620 N LARAMIE AVE,60639.0,1141269.92382792,1917028.01022766,31.0,25.0,19.0,41.92840230902421,-87.75630396094391,"(41.92840230902421, -87.7563039609439)",2013-04-04
24523,04/04/2013,Completed,04/04/2013,13-00376589,Alley Light Out,5301 W DIVERSEY AVE,60639.0,1140557.02806737,1918104.12767384,31.0,25.0,19.0,41.931368422165434,-87.75889714658912,"(41.931368422165434, -87.75889714658912)",2013-04-04
24524,04/04/2013,Completed,04/04/2013,13-00376593,Alley Light Out,5219 W DIVERSEY AVE,60639.0,1141102.92521316,1918116.96737271,31.0,25.0,19.0,41.93139360169747,-87.75689072778441,"(41.93139360169747, -87.7568907277844)",2013-04-04
24525,04/04/2013,Completed,04/04/2013,13-00376600,Alley Light Out,5201 W DIVERSEY AVE,60639.0,1141224.22521316,1918119.76737271,31.0,25.0,19.0,41.931399046411144,-87.75644489659605,"(41.93139904641115, -87.75644489659605)",2013-04-04
24526,04/04/2013,Completed,04/04/2013,13-00376607,Alley Light Out,5004 W NELSON ST,60641.0,1142481.66492714,1919816.01818831,31.0,25.0,19.0,41.93603041584633,-87.7517816863455,"(41.93603041584633, -87.7517816863455)",2013-04-04
24527,04/04/2013,Completed,04/04/2013,13-00376610,Alley Light Out,4901 W BELMONT AVE,60641.0,1143124.45942965,1920827.63158086,31.0,25.0,19.0,41.938794390035284,-87.74939400661215,"(41.938794390035284, -87.74939400661214)",2013-04-04
24528,04/04/2013,Completed,04/04/2013,13-00376612,Alley Light Out,4928 W BARRY AVE,60641.0,1142974.88569367,1920159.18451926,31.0,25.0,19.0,41.936962901913034,-87.74996045183947,"(41.936962901913034, -87.74996045183947)",2013-04-04
24529,04/04/2013,Completed,04/04/2013,13-00376615,Alley Light Out,5201 W OAKDALE AVE,60641.0,1141190.14686635,1919117.91059767,31.0,25.0,19.0,41.93413868161901,-87.75654545343288,"(41.93413868161901, -87.75654545343288)",2013-04-04
24530,04/04/2013,Completed,04/04/2013,13-00376616,Alley Light Out,5300 W WELLINGTON AVE,60641.0,1140521.59122247,1919434.99446708,31.0,25.0,19.0,41.935021108129156,-87.75899460937397,"(41.93502110812916, -87.75899460937397)",2013-04-04
24531,04/04/2013,Completed,04/04/2013,13-00376617,Alley Light Out,3046 N LUNA AVE,60641.0,1138838.1412185,1919704.79648386,31.0,25.0,19.0,41.93579225365118,-87.7651748592708,"(41.93579225365118, -87.76517485927079)",2013-04-04
24532,04/04/2013,Completed,04/04/2013,13-00376620,Alley Light Out,2954 N LUNA AVE,60641.0,1138858.1412185,1919093.29648386,31.0,25.0,19.0,41.93411387013384,-87.76511625158146,"(41.934113870133835, -87.76511625158145)",2013-04-04
24533,04/04/2013,Completed,04/04/2013,13-00376621,Alley Light Out,2444 N LUNA AVE,60639.0,1138969.59987578,1915702.76279922,30.0,25.0,19.0,41.92480785589118,-87.76478926040846,"(41.92480785589118, -87.76478926040846)",2013-04-04
24534,04/04/2013,Completed,04/04/2013,13-00376622,Alley Light Out,1 W LAKE,,,,42.0,1.0,32.0,,,,2013-04-04
24535,04/04/2013,Completed,04/04/2013,13-00376764,Alley Light Out,2757 N LAMON AVE,60639.0,1143241.51841937,1917969.64762689,31.0,25.0,19.0,41.93094961722826,-87.7490353687039,"(41.93094961722826, -87.74903536870389)",2013-04-04
24536,04/04/2013,Completed,04/04/2013,13-00376767,Alley Light Out,2748 N CICERO AVE,60639.0,1143913.63282331,1917936.00007895,31.0,25.0,19.0,41.930844689579686,-87.7465663018277,"(41.930844689579686, -87.7465663018277)",2013-04-04
24537,04/04/2013,Completed,04/04/2013,13-00376768,Alley Light Out,2648 N CICERO AVE,60639.0,1143935.04701116,1917369.70987371,31.0,25.0,19.0,41.929290331789424,-87.7465018513382,"(41.92929033178942, -87.7465018513382)",2013-04-04
24538,04/04/2013,Completed,04/04/2013,13-00376769,Alley Light Out,2632 N CICERO AVE,60639.0,1143940.94701116,1917207.70987371,31.0,25.0,19.0,41.92884567708521,-87.74648424484491,"(41.92884567708521, -87.74648424484492)",2013-04-04
24539,04/04/2013,Completed,04/04/2013,13-00376771,Alley Light Out,2624 N CICERO AVE,60639.0,1143943.60693436,1917135.83987752,31.0,25.0,19.0,41.928648408795965,-87.74647627799419,"(41.92864840879597, -87.7464762779942)",2013-04-04
24540,04/04/2013,Completed,04/04/2013,13-00376777,Alley Light Out,2618 N CICERO AVE,60639.0,1143945.10693436,1917094.63987752,31.0,25.0,19.0,41.92853532377204,-87.74647180216539,"(41.92853532377204, -87.74647180216539)",2013-04-04
24541,04/04/2013,Completed,04/04/2013,13-00376778,Alley Light Out,2606 N CICERO AVE,60639.0,1143949.75501809,1916971.11013273,31.0,25.0,19.0,41.928196258692324,-87.74645782883259,"(41.928196258692324, -87.7464578288326)",2013-04-04
24542,04/04/2013,Completed,04/04/2013,13-00376779,Alley Light Out,2448 N CICERO AVE,60639.0,1143988.25412473,1915961.35008645,31.0,25.0,19.0,41.92542465385968,-87.74634175819729,"(41.92542465385968, -87.7463417581973)",2013-04-04
24543,04/04/2013,Completed,04/04/2013,13-00376786,Alley Light Out,2434 N CICERO AVE,60639.0,1143990.85412473,1915894.45008645,31.0,25.0,19.0,41.925241024740295,-87.74633388726325,"(41.9252410247403, -87.74633388726325)",2013-04-04
24544,04/04/2013,Completed,04/04/2013,13-00376789,Alley Light Out,2418 N CICERO AVE,60639.0,1143995.7471283001,1915734.95998538,31.0,25.0,19.0,41.924803276042425,-87.74631991978913,"(41.924803276042425, -87.74631991978912)",2013-04-04
24545,04/04/2013,Completed,04/04/2013,13-00376791,Alley Light Out,2407 N LAVERGNE AVE,60639.0,1142659.53938035,1915580.38799616,31.0,25.0,19.0,41.92440411072042,-87.75123365644575,"(41.924404110720424, -87.75123365644575)",2013-04-04
24546,04/04/2013,Completed,04/04/2013,13-00376796,Alley Light Out,5058 W FULLERTON AVE,60639.0,1142270.47698943,1915487.09678163,31.0,25.0,19.0,41.92415534849345,-87.75266557501106,"(41.924155348493464, -87.75266557501106)",2013-04-04
24547,04/04/2013,Completed,04/04/2013,13-00376797,Alley Light Out,5104 W FULLERTON AVE,60639.0,1141966.67698943,1915479.39678163,31.0,25.0,19.0,41.92413985867343,-87.7537820654968,"(41.92413985867343, -87.75378206549678)",2013-04-04
24548,04/04/2013,Completed,04/04/2013,13-00376801,Alley Light Out,2455 N LARAMIE AVE,60639.0,1141307.52802672,1915929.45951933,31.0,25.0,19.0,41.92538707724103,-87.7561929480884,"(41.92538707724102, -87.75619294808841)",2013-04-04
24549,04/04/2013,Completed,04/04/2013,13-00376803,Alley Light Out,2541 N LARAMIE AVE,60639.0,1141287.20568652,1916522.88201468,31.0,25.0,19.0,41.9270158657533,-87.75625294791847,"(41.9270158657533, -87.75625294791847)",2013-04-04
24550,04/04/2013,Completed,04/04/2013,13-00376805,Alley Light Out,2615 N LARAMIE AVE,60639.0,1141271.72382792,1916971.11022766,31.0,25.0,19.0,41.92824613630828,-87.75629875361606,"(41.92824613630828, -87.75629875361606)",2013-04-04
24551,04/04/2013,Completed,04/04/2013,13-00376810,Alley Light Out,5102 W DRUMMOND PL,60639.0,1141921.45490224,1917146.90943308,31.0,25.0,19.0,41.92871652374327,-87.75390682787243,"(41.92871652374327, -87.75390682787244)",2013-04-04
24552,04/04/2013,Completed,04/04/2013,13-00376812,Alley Light Out,5145 W WRIGHTWOOD AVE,60639.0,1141642.52510261,1916809.62591244,31.0,25.0,19.0,41.92779615101928,-87.75494017659689,"(41.92779615101928, -87.75494017659689)",2013-04-04
24553,04/04/2013,Completed,04/04/2013,13-00376813,Alley Light Out,1 W LAKE,,,,42.0,1.0,32.0,,,,2013-04-04
24554,04/04/2013,Completed,04/04/2013,13-00377914,Alley Light Out,1427 N BOSWORTH AVE,60642.0,1165807.10493422,1909590.7717123001,1.0,14.0,24.0,41.90750554087739,-87.66635081598896,"(41.90750554087739, -87.66635081598896)",2013-04-04
24555,04/04/2013,Completed,04/04/2013,13-00379208,Alley Light Out,2850 E 87TH ST,60617.0,1196721.86981453,1847838.54312179,10.0,4.0,46.0,41.73733922601897,-87.554844626142,"(41.73733922601897, -87.554844626142)",2013-04-04
24556,04/04/2013,Completed,04/04/2013,13-00379253,Alley Light Out,508 W 107TH ST,60628.0,1174772.20489519,1833942.01052656,34.0,22.0,49.0,41.6997219123871,-87.63567384275719,"(41.6997219123871, -87.63567384275719)",2013-04-04
70839,04/01/2013,Completed - Dup,04/05/2013,13-00361837,Alley Light Out,5135 S CALIFORNIA AVE,60632.0,1158576.21519377,1870484.09157846,14.0,9.0,63.0,41.800343846801866,-87.69398279480768,"(41.800343846801866, -87.69398279480768)",2013-04-01
70840,04/01/2013,Completed,04/05/2013,13-00359951,Alley Light Out,5135 S CALIFORNIA AVE,60632.0,1158576.21519377,1870484.09157846,14.0,9.0,63.0,41.800343846801866,-87.69398279480768,"(41.800343846801866, -87.69398279480768)",2013-04-01
70841,04/01/2013,Completed,04/05/2013,13-00364480,Alley Light Out,8158 S JUSTINE ST,60620.0,1167423.56807928,1850626.51493114,21.0,6.0,71.0,41.745666942869256,-87.66210513332086,"(41.74566694286926, -87.66210513332088)",2013-04-01
70842,04/02/2013,Completed,04/05/2013,13-00367781,Alley Light Out,1410 N NORTH PARK AVE,60610.0,1173914.90827817,1909765.35471303,27.0,18.0,8.0,41.90780774549445,-87.636562220867,"(41.907807745494445, -87.636562220867)",2013-04-02
70843,04/03/2013,Completed,04/05/2013,13-00371828,Alley Light Out,3809 W 45TH PL,60632.0,1151674.49747304,1874199.62993167,14.0,8.0,57.0,41.81067790035896,-87.71919641104063,"(41.81067790035896, -87.71919641104063)",2013-04-03
70844,04/03/2013,Completed,04/05/2013,13-00373821,Alley Light Out,4442 N DRAKE AVE,60625.0,1151923.0839071001,1929293.94382166,33.0,17.0,14.0,41.96185755267969,-87.71683280786525,"(41.96185755267969, -87.71683280786523)",2013-04-03
70845,04/03/2013,Completed,04/05/2013,13-00374237,Alley Light Out,4915 W HUBBARD ST,60644.0,1143518.93687124,1902561.51288361,28.0,15.0,25.0,41.88866283598222,-87.7484020325349,"(41.88866283598222, -87.7484020325349)",2013-04-03
70846,04/03/2013,Completed,04/05/2013,13-00374343,Alley Light Out,5012 W HURON ST,60644.0,1142817.0488834998,1904180.12122795,28.0,15.0,25.0,41.893117589580285,-87.75093931305084,"(41.89311758958029, -87.75093931305084)",2013-04-03
70847,04/03/2013,Completed,04/05/2013,13-00376292,Alley Light Out,4916 W HUBBARD ST,60644.0,1143512.23687124,1902561.41288361,28.0,15.0,25.0,41.88866268689539,-87.74842664022906,"(41.88866268689539, -87.74842664022906)",2013-04-03
70848,04/04/2013,Completed,04/05/2013,13-00376472,Alley Light Out,7420 S PRAIRIE AVE,60619.0,1179323.7411106,1855875.06587689,6.0,3.0,69.0,41.75980655178153,-87.61834103592598,"(41.75980655178153, -87.61834103592598)",2013-04-04
70849,04/04/2013,Completed,04/05/2013,13-00377488,Alley Light Out,3328 W EVERGREEN AVE,60651.0,1153927.17457075,1908783.29052405,26.0,14.0,23.0,41.905534932055424,-87.71001283998632,"(41.905534932055424, -87.71001283998633)",2013-04-04
70850,04/04/2013,Completed,04/05/2013,13-00378044,Alley Light Out,42 N LATROBE AVE,60644.0,1141382.93989756,1899824.69258919,28.0,15.0,25.0,41.88119234886506,-87.75631389166159,"(41.88119234886506, -87.75631389166158)",2013-04-04
70851,04/04/2013,Completed,04/05/2013,13-00378879,Alley Light Out,3246 W BEACH AVE,60651.0,1154451.39232603,1909454.72007766,26.0,14.0,23.0,41.90736692592346,-87.70806922330189,"(41.90736692592346, -87.70806922330189)",2013-04-04
70852,04/04/2013,Completed,04/05/2013,13-00379280,Alley Light Out,2711 S CROWELL ST,60608.0,1168375.71400829,1886683.16353063,11.0,9.0,60.0,41.84459012062067,-87.65757772829558,"(41.84459012062067, -87.65757772829558)",2013-04-04
70853,04/04/2013,Completed,04/05/2013,13-00380810,Alley Light Out,321 W CONCORD PL,60614.0,1173754.17999505,1911331.34001805,43.0,18.0,7.0,41.91210846628823,-87.63710595147566,"(41.91210846628823, -87.63710595147565)",2013-04-04
70854,04/04/2013,Completed,04/05/2013,13-00381315,Alley Light Out,6111 W MELROSE ST,60634.0,1135081.92843185,1920969.55316652,36.0,16.0,17.0,41.93933036433753,-87.77894939425506,"(41.93933036433753, -87.77894939425506)",2013-04-04
70855,04/04/2013,Completed,04/05/2013,13-00381471,Alley Light Out,6515 N SAYRE AVE,60631.0,1128746.54000974,1943118.8450029998,41.0,16.0,10.0,42.0002204043434,-87.80172905622877,"(42.000220404343395, -87.80172905622877)",2013-04-04
70856,04/05/2013,Completed - Dup,04/05/2013,13-00387216,Alley Light Out,7513 S EVANS AVE,60619.0,1182525.26418958,1855360.22419241,6.0,6.0,69.0,41.75832015461227,-87.60662352384855,"(41.75832015461227, -87.60662352384855)",2013-04-05
70857,04/05/2013,Completed,04/05/2013,13-00381727,Alley Light Out,3135 N HARDING AVE,60618.0,1149509.33997032,1920557.12010589,31.0,25.0,21.0,41.93793034037202,-87.72593482210722,"(41.93793034037202, -87.72593482210722)",2013-04-05
70858,04/05/2013,Completed,04/05/2013,13-00381729,Alley Light Out,1 W LAKE,,,,42.0,1.0,32.0,,,,2013-04-05
70859,04/05/2013,Completed,04/05/2013,13-00382711,Alley Light Out,318 W CONCORD PL,60614.0,1173769.97999505,1911331.84001805,43.0,18.0,7.0,41.91210948635736,-87.63704789241741,"(41.91210948635736, -87.6370478924174)",2013-04-05
70860,04/05/2013,Completed,04/07/2013,13-00387571,Alley Light Out,5676 N RIDGE AVE,60660.0,1166628.18433349,1937884.41221253,48.0,20.0,77.0,41.98512702837819,-87.66252120692722,"(41.985127028378194, -87.66252120692722)",2013-04-05
70865,04/01/2013,Completed,04/08/2013,13-00360879,Alley Light Out,5554 S WHIPPLE ST,60629.0,1156992.34509995,1867646.61280823,14.0,8.0,63.0,41.79258959546379,-87.69986805941059,"(41.79258959546379, -87.6998680594106)",2013-04-01
70866,04/01/2013,Completed,04/08/2013,13-00361139,Alley Light Out,6623 S CAMPBELL AVE,60629.0,1160848.78179435,1860659.72652722,15.0,8.0,66.0,41.77333777589053,-87.68591984227129,"(41.77333777589053, -87.68591984227129)",2013-04-01
70867,04/01/2013,Completed,04/08/2013,13-00363988,Alley Light Out,6053 S SACRAMENTO AVE,60629.0,1157419.29798106,1864348.21571971,15.0,8.0,66.0,41.78352968481319,-87.69839178890844,"(41.78352968481319, -87.69839178890844)",2013-04-01
70868,04/02/2013,Completed,04/08/2013,13-00368931,Alley Light Out,4002 S ARCHER AVE,60632.0,1158805.67947296,1878023.19169373,12.0,9.0,58.0,41.82102741134905,-87.69293524474108,"(41.82102741134905, -87.69293524474108)",2013-04-02
70869,04/02/2013,Completed,04/08/2013,13-00369778,Alley Light Out,3222 W 65TH ST,60629.0,1156023.8406943998,1861344.11629137,15.0,8.0,66.0,41.775314154587456,-87.70358872531712,"(41.77531415458745, -87.70358872531713)",2013-04-02
70870,04/03/2013,Completed,04/08/2013,13-00373440,Alley Light Out,2930 W 40TH ST,60632.0,1157475.99512846,1877978.76056891,14.0,9.0,58.0,41.82093257872962,-87.69781441592353,"(41.82093257872962, -87.69781441592355)",2013-04-03
70871,04/03/2013,Completed,04/08/2013,13-00374695,Alley Light Out,5246 W HARRISON ST,60644.0,1141424.92777567,1896814.09127274,29.0,15.0,25.0,41.87293009936502,-87.75623404370869,"(41.87293009936502, -87.75623404370869)",2013-04-03
70872,04/03/2013,Completed,04/08/2013,13-00375310,Alley Light Out,2078 W LUNT AVE,60645.0,1160956.06238041,1946506.78106749,50.0,24.0,2.0,42.008907099453815,-87.68314193855332,"(42.00890709945381, -87.68314193855332)",2013-04-03
70873,04/03/2013,Completed,04/08/2013,13-00376182,Alley Light Out,4939 W VAN BUREN ST,60644.0,1143653.3281202,1897560.69262471,24.0,15.0,25.0,41.874937462619855,-87.74803374191038,"(41.874937462619855, -87.74803374191038)",2013-04-03
70874,04/03/2013,Completed,04/08/2013,13-00376246,Alley Light Out,810 S INDEPENDENCE BLVD,60624.0,1151388.03149041,1896078.08701121,24.0,11.0,26.0,41.87072078119317,-87.71967379210268,"(41.870720781193164, -87.71967379210268)",2013-04-03
70875,04/03/2013,Completed,04/08/2013,13-00376407,Alley Light Out,3819 W ARTHINGTON ST,60624.0,1151099.80780723,1895763.63007344,24.0,11.0,26.0,41.86986352506233,-87.72074020702698,"(41.86986352506233, -87.72074020702699)",2013-04-03
70876,04/04/2013,Completed,04/08/2013,13-00377672,Alley Light Out,5410 S FAIRFIELD AVE,60632.0,1158959.97928063,1868668.3650708,14.0,9.0,63.0,41.795353409565976,-87.69262503640147,"(41.79535340956598, -87.69262503640145)",2013-04-04
70877,04/04/2013,Completed,04/08/2013,13-00377920,Alley Light Out,5401 S WESTERN BLVD,60609.0,1161443.25197265,1868737.41213047,16.0,9.0,63.0,41.795491733994275,-87.68351685700688,"(41.79549173399427, -87.68351685700688)",2013-04-04
70878,04/05/2013,Completed,04/08/2013,13-00381813,Alley Light Out,1642 N MONTICELLO AVE,60647.0,1151796.81717272,1910669.98748483,26.0,25.0,23.0,41.91075441737729,-87.71778867783941,"(41.91075441737729, -87.71778867783941)",2013-04-05
70879,04/05/2013,Completed,04/08/2013,13-00382805,Alley Light Out,10059 S RHODES AVE,60628.0,1181683.13800056,1838383.21340272,9.0,5.0,49.0,41.7117527438931,-87.61023255516892,"(41.7117527438931, -87.6102325551689)",2013-04-05
70880,04/05/2013,Completed,04/08/2013,13-00383714,Alley Light Out,5214 W PARKER AVE,60639.0,1141147.93830315,1917787.73251029,31.0,25.0,19.0,41.930489317004174,-87.7567334470519,"(41.93048931700417, -87.75673344705191)",2013-04-05
70881,04/05/2013,Completed,04/08/2013,13-00383749,Alley Light Out,6959 S CLAREMONT AVE,60636.0,1161937.29790846,1858399.8212099997,17.0,8.0,66.0,41.76711372209504,-87.68199231346027,"(41.76711372209504, -87.68199231346026)",2013-04-05
70882,04/05/2013,Completed,04/08/2013,13-00385085,Alley Light Out,6950 N OCTAVIA AVE,60631.0,1126720.45252578,1945706.73901724,41.0,16.0,9.0,42.00735609830251,-87.80912445919229,"(42.00735609830251, -87.8091244591923)",2013-04-05
70883,04/05/2013,Completed,04/08/2013,13-00387504,Alley Light Out,3354 W WARNER AVE,60618.0,1153282.79519579,1927395.24967354,33.0,17.0,16.0,41.9566204568471,-87.7118843286447,"(41.95662045684709, -87.71188432864469)",2013-04-05
70884,04/05/2013,Completed,04/08/2013,13-00387681,Alley Light Out,4259 W WRIGHTWOOD AVE,60639.0,1147471.21001356,1916935.10178425,31.0,25.0,20.0,41.92803057906335,-87.73351854992931,"(41.928030579063346, -87.73351854992931)",2013-04-05
70885,04/06/2013,Completed,04/08/2013,13-00387921,Alley Light Out,5845 W BYRON ST,60634.0,1136690.19763094,1925326.88967174,38.0,16.0,15.0,41.95125865219203,-87.77293375720022,"(41.95125865219203, -87.77293375720022)",2013-04-06
70886,04/06/2013,Completed,04/08/2013,13-00388443,Alley Light Out,3624 N LOTUS AVE,60641.0,1139382.19020514,1923561.94512205,38.0,16.0,15.0,41.94636674548949,-87.76308110903273,"(41.946366745489485, -87.76308110903274)",2013-04-06
70887,04/06/2013,Completed,04/08/2013,13-00388696,Alley Light Out,420 E 87TH ST,60619.0,1180435.02037218,1847392.13926803,6.0,6.0,44.0,41.73650302791872,-87.61452795931898,"(41.73650302791872, -87.61452795931898)",2013-04-06
70888,04/07/2013,Completed - Dup,04/08/2013,13-00392431,Alley Light Out,5026 S ASHLAND AVE,60609.0,1166523.41380729,1871389.22507399,16.0,9.0,61.0,41.802661731554814,-87.66481208127277,"(41.80266173155481, -87.66481208127276)",2013-04-07
70889,04/07/2013,Completed,04/08/2013,13-00392072,Alley Light Out,715 E 87TH PL,60619.0,1182530.7823132,1847119.77428191,6.0,6.0,44.0,41.735707337995905,-87.60685827877205,"(41.73570733799591, -87.60685827877204)",2013-04-07
70890,04/07/2013,Completed,04/08/2013,13-00392368,Alley Light Out,3447 W MONTROSE AVE,60618.0,1152514.54948141,1929025.78519779,33.0,17.0,16.0,41.96111000971553,-87.7146653473364,"(41.961110009715526, -87.7146653473364)",2013-04-07
70891,04/08/2013,Completed - Dup,04/08/2013,13-00393586,Alley Light Out,444 W 42ND ST,60609.0,1173982.9143991,1877085.87911254,11.0,9.0,61.0,41.818131433037784,-87.63728568901364,"(41.81813143303778, -87.63728568901362)",2013-04-08
70892,04/08/2013,Completed,04/08/2013,13-00392855,Alley Light Out,2904 N KILBOURN AVE,60641.0,1145880.6649953001,1918927.49909911,31.0,25.0,20.0,41.933528287630274,-87.73931254800458,"(41.933528287630274, -87.73931254800458)",2013-04-08
70893,04/08/2013,Completed,04/08/2013,13-00392857,Alley Light Out,2951 N KOLMAR AVE,60641.0,1145481.16212517,1919237.24498846,31.0,25.0,20.0,41.934385845387176,-87.74077284698406,"(41.93438584538718, -87.74077284698406)",2013-04-08
70894,04/08/2013,Completed,04/08/2013,13-00392858,Alley Light Out,3100 N KILBOURN AVE,60641.0,1145838.18290346,1920229.95152774,31.0,25.0,20.0,41.9371031440405,-87.73943551102103,"(41.9371031440405, -87.73943551102103)",2013-04-08
70895,04/08/2013,Completed,04/08/2013,13-00392859,Alley Light Out,4501 W BELMONT AVE,60641.0,1145805.26160566,1920894.67820484,31.0,25.0,20.0,41.9389278398998,-87.73953958145327,"(41.9389278398998, -87.73953958145327)",2013-04-08
70896,04/08/2013,Completed,04/08/2013,13-00392861,Alley Light Out,2820 N KEATING AVE,60641.0,1144243.18002865,1918329.7686192002,31.0,25.0,19.0,41.931919033286974,-87.74534534713614,"(41.93191903328698, -87.74534534713614)",2013-04-08
70897,04/08/2013,Completed,04/08/2013,13-00392862,Alley Light Out,2949 N KEATING AVE,60641.0,1144213.28381757,1919189.02902091,31.0,25.0,19.0,41.934277488596976,-87.74543355983059,"(41.934277488596976, -87.74543355983059)",2013-04-08
70898,04/08/2013,Completed,04/08/2013,13-00392863,Alley Light Out,2859 N KILPATRICK AVE,60641.0,1144556.43586781,1918599.45252439,31.0,25.0,19.0,41.93265317071524,-87.74418735496033,"(41.93265317071524, -87.74418735496033)",2013-04-08
70899,04/08/2013,Completed,04/08/2013,13-00392866,Alley Light Out,1 W LAKE ST,60601.0,1176328.02369789,1901746.25869844,42.0,1.0,32.0,41.885748819072866,-87.62794001091278,"(41.885748819072866, -87.62794001091278)",2013-04-08
70900,04/08/2013,Completed,04/08/2013,13-00392879,Alley Light Out,3013 N KILBOURN AVE,60641.0,1145857.1382793998,1919652.87048389,31.0,25.0,20.0,41.935519220707945,-87.73938054029115,"(41.935519220707945, -87.73938054029115)",2013-04-08
70901,04/08/2013,Completed,04/08/2013,13-00392880,Alley Light Out,2954 N KILPATRICK AVE,60641.0,1144534.42807765,1919230.72110574,31.0,25.0,19.0,41.9343858465561,-87.74425229240082,"(41.934385846556104, -87.74425229240082)",2013-04-08
70902,04/08/2013,Completed,04/08/2013,13-00392910,Alley Light Out,4183 W FLETCHER ST,60641.0,1147743.46276716,1920610.49012495,31.0,25.0,21.0,41.93811094203895,-87.73242345196249,"(41.938110942038946, -87.73242345196248)",2013-04-08
70903,04/08/2013,Completed,04/08/2013,13-00392911,Alley Light Out,4115 W FLETCHER ST,60641.0,1148368.49127815,1920626.01000919,31.0,25.0,21.0,41.93814148459289,-87.73012592057805,"(41.93814148459289, -87.73012592057805)",2013-04-08
70904,04/08/2013,Completed,04/08/2013,13-00392916,Alley Light Out,4183 W FLETCHER ST,60641.0,1147743.46276716,1920610.49012495,31.0,25.0,21.0,41.93811094203895,-87.73242345196249,"(41.938110942038946, -87.73242345196248)",2013-04-08
70905,04/08/2013,Completed,04/08/2013,13-00392919,Alley Light Out,4115 W FLETCHER ST,60641.0,1148368.49127815,1920626.01000919,31.0,25.0,21.0,41.93814148459289,-87.73012592057805,"(41.93814148459289, -87.73012592057805)",2013-04-08
70906,04/08/2013,Completed,04/08/2013,13-00392922,Alley Light Out,3050 N PULASKI RD,60641.0,1149192.11150977,1920069.21999386,31.0,25.0,21.0,41.936597663041574,-87.72711338887375,"(41.936597663041574, -87.72711338887375)",2013-04-08
70907,04/08/2013,Completed,04/08/2013,13-00392924,Alley Light Out,3024 N PULASKI RD,60641.0,1149196.91150977,1919903.71999386,31.0,25.0,21.0,41.936143423845095,-87.72710004926607,"(41.936143423845095, -87.72710004926608)",2013-04-08
70908,04/08/2013,Completed,04/08/2013,13-00392930,Alley Light Out,4045 W NELSON ST,60641.0,1148890.41150977,1919972.71999386,31.0,25.0,21.0,41.93633870772034,-87.72822468536181,"(41.93633870772034, -87.7282246853618)",2013-04-08
70909,04/08/2013,Completed,04/08/2013,13-00392932,Alley Light Out,3017 N LOWELL AVE,60641.0,1146796.4454292,1919792.75993013,31.0,25.0,20.0,41.93588518059094,-87.73592491410184,"(41.93588518059094, -87.73592491410184)",2013-04-08
70910,04/08/2013,Completed,04/08/2013,13-00392937,Alley Light Out,2839 N LOWELL AVE,60641.0,1146894.86992197,1918524.21220579,31.0,25.0,20.0,41.93240228848468,-87.73559569673475,"(41.93240228848468, -87.73559569673475)",2013-04-08
70911,04/08/2013,Completed,04/08/2013,13-00392938,Alley Light Out,3122 N LOWELL AVE,60641.0,1146777.4253278999,1920405.86626726,31.0,25.0,20.0,41.93756796276949,-87.73597911482092,"(41.937567962769485, -87.73597911482092)",2013-04-08
70912,04/08/2013,Completed,04/08/2013,13-00392940,Alley Light Out,1 W LAKE,,,,42.0,1.0,32.0,,,,2013-04-08
70913,04/08/2013,Completed,04/08/2013,13-00392955,Alley Light Out,3050 N PULASKI RD,60641.0,1149192.11150977,1920069.21999386,31.0,25.0,21.0,41.936597663041574,-87.72711338887375,"(41.936597663041574, -87.72711338887375)",2013-04-08
70914,04/08/2013,Completed,04/08/2013,13-00392957,Alley Light Out,1 W LAKE,,,,42.0,1.0,32.0,,,,2013-04-08
70915,04/08/2013,Completed,04/08/2013,13-00394031,Alley Light Out,7800 S YATES BLVD,60649.0,1193551.25161471,1853716.18322331,7.0,4.0,43.0,41.75354607924256,-87.56626867818139,"(41.75354607924256, -87.56626867818139)",2013-04-08
70916,04/08/2013,Completed,04/08/2013,13-00394044,Alley Light Out,7608 S YATES BLVD,60649.0,1193522.55229982,1854979.23409281,7.0,4.0,43.0,41.7570126930744,-87.56633258347296,"(41.7570126930744, -87.56633258347296)",2013-04-08
70917,04/08/2013,Completed,04/08/2013,13-00394062,Alley Light Out,1 S YATES,,,,,,,,,,2013-04-08
70918,04/08/2013,Completed,04/08/2013,13-00395962,Alley Light Out,4610 S ROCKWELL ST,60632.0,1159808.33009713,1873967.75658962,12.0,9.0,58.0,41.80987823242764,-87.68936850163992,"(41.80987823242764, -87.68936850163992)",2013-04-08
70919,04/08/2013,Completed,04/08/2013,13-00396582,Alley Light Out,7536 S HAMLIN AVE,60652.0,1152029.7727031,1854248.52001288,18.0,8.0,70.0,41.755922013163406,-87.71841661756413,"(41.75592201316341, -87.71841661756412)",2013-04-08
70927,04/02/2013,Completed,04/09/2013,13-00365051,Alley Light Out,2047 W 47TH ST,60609.0,1163409.22011626,1873494.3556903,12.0,9.0,61.0,41.808504363058226,-87.67617419755048,"(41.80850436305823, -87.67617419755048)",2013-04-02
70928,04/02/2013,Completed,04/09/2013,13-00365881,Alley Light Out,9400 S LOOMIS ST,60620.0,1168646.62680129,1842412.14603003,21.0,22.0,73.0,41.72309925931161,-87.65785983287611,"(41.72309925931161, -87.65785983287611)",2013-04-02
70929,04/02/2013,Completed,04/09/2013,13-00370229,Alley Light Out,1110 W POLK ST,60607.0,1169105.21011144,1896610.87802066,25.0,12.0,28.0,41.871816815750435,-87.65461259821353,"(41.87181681575043, -87.65461259821353)",2013-04-02
70930,04/03/2013,Completed,04/09/2013,13-00370684,Alley Light Out,1351 S CALIFORNIA BLVD,60608.0,1157903.77238035,1893518.94008092,28.0,10.0,29.0,41.86356790774441,-87.69582194805936,"(41.86356790774441, -87.69582194805936)",2013-04-03
70931,04/03/2013,Completed,04/09/2013,13-00371651,Alley Light Out,9357 S BISHOP ST,60620.0,1168308.06349733,1842685.93398274,21.0,22.0,73.0,41.72385785787989,-87.65909210545189,"(41.72385785787989, -87.65909210545189)",2013-04-03
70932,04/03/2013,Completed,04/09/2013,13-00376110,Alley Light Out,2338 W 23RD ST,60608.0,1161138.70806762,1888685.3531856004,25.0,10.0,31.0,41.85023752741978,-87.68408087061239,"(41.85023752741978, -87.68408087061239)",2013-04-03
70933,04/04/2013,Completed,04/09/2013,13-00376591,Alley Light Out,10643 S PARNELL AVE,60628.0,1174518.21562182,1834311.3733861,34.0,22.0,49.0,41.700741141171434,-87.63659290026663,"(41.700741141171434, -87.63659290026662)",2013-04-04
70934,04/04/2013,Completed,04/09/2013,13-00376841,Alley Light Out,2711 N MASON AVE,60639.0,1136262.96881356,1917405.6034660998,30.0,25.0,19.0,41.929529456792395,-87.77469402083166,"(41.929529456792395, -87.77469402083165)",2013-04-04
70935,04/04/2013,Completed,04/09/2013,13-00378349,Alley Light Out,2433 W 21ST PL,60608.0,1160526.78466936,1889666.10039763,25.0,10.0,31.0,41.85294147359692,-87.6862996141507,"(41.85294147359692, -87.68629961415068)",2013-04-04
70936,04/04/2013,Completed,04/09/2013,13-00379304,Alley Light Out,4900 S KARLOV AVE,60632.0,1149856.39927725,1871819.07121552,14.0,8.0,57.0,41.80418075873361,-87.7259268014871,"(41.80418075873361, -87.72592680148709)",2013-04-04
70937,04/04/2013,Completed,04/09/2013,13-00379722,Alley Light Out,633 N SAWYER AVE,60624.0,1154595.56066597,1904035.3718315,27.0,11.0,23.0,41.892492848935106,-87.70768480917887,"(41.89249284893511, -87.70768480917886)",2013-04-04
70938,04/04/2013,Completed,04/09/2013,13-00381187,Alley Light Out,2233 W FULLERTON AVE,60647.0,1160883.44159104,1915909.24969884,32.0,14.0,22.0,41.92494753278229,-87.68426197555573,"(41.92494753278229, -87.68426197555573)",2013-04-04
70939,04/04/2013,Completed,04/09/2013,13-00381225,Alley Light Out,1605 N DAMEN AVE,60647.0,1162743.81848325,1910705.64219595,32.0,14.0,24.0,41.910629636178015,-87.67757231919478,"(41.910629636178015, -87.67757231919477)",2013-04-04
70940,04/04/2013,Completed,04/09/2013,13-00381248,Alley Light Out,8149 S HERMITAGE AVE,60620.0,1166096.86330386,1850652.16787657,18.0,6.0,71.0,41.74576563478906,-87.66696571491661,"(41.74576563478906, -87.66696571491661)",2013-04-04
70941,04/04/2013,Completed,04/09/2013,13-00381306,Alley Light Out,10205 S AVENUE M,60617.0,1201494.0689706998,1837900.37726817,10.0,4.0,52.0,41.70994836035555,-87.53769759896555,"(41.709948360355554, -87.53769759896554)",2013-04-04
70942,04/05/2013,Completed - Dup,04/09/2013,13-00386334,Alley Light Out,10643 S PARNELL AVE,60628.0,1174518.21562182,1834311.3733861,34.0,22.0,49.0,41.700741141171434,-87.63659290026663,"(41.700741141171434, -87.63659290026662)",2013-04-05
70943,04/05/2013,Completed,04/09/2013,13-00381642,Alley Light Out,3800 N NORA AVE,60634.0,1128728.83999558,1924451.27939229,38.0,16.0,17.0,41.948994996691454,-87.80221994184019,"(41.94899499669145, -87.80221994184018)",2013-04-05
70944,04/05/2013,Completed,04/09/2013,13-00382428,Alley Light Out,446 W 37TH PL,60609.0,1173784.30003394,1880060.99998461,11.0,9.0,60.0,41.826299848250116,-87.63792593512144,"(41.82629984825012, -87.63792593512144)",2013-04-05
70945,04/05/2013,Completed,04/09/2013,13-00383862,Alley Light Out,7324 N HONORE ST,60626.0,1162690.16002241,1948419.64827172,49.0,24.0,1.0,42.01411973257827,-87.67670773070319,"(42.01411973257827, -87.67670773070319)",2013-04-05
70946,04/05/2013,Completed,04/09/2013,13-00384909,Alley Light Out,6028 W CORNELIA AVE,60634.0,1135569.52192733,1922650.4804031001,38.0,16.0,17.0,41.943934341273376,-87.77711723526676,"(41.943934341273376, -87.77711723526676)",2013-04-05
70947,04/05/2013,Completed,04/09/2013,13-00385050,Alley Light Out,2062 N LEAVITT ST,60647.0,1161359.94631075,1913861.98396843,32.0,14.0,22.0,41.919319784882134,-87.6825681697413,"(41.91931978488213, -87.68256816974132)",2013-04-05
70948,04/05/2013,Completed,04/09/2013,13-00385065,Alley Light Out,2074 N LEAVITT ST,60647.0,1161357.54631075,1913935.78396843,32.0,14.0,22.0,41.9195223471946,-87.68257493006183,"(41.9195223471946, -87.68257493006183)",2013-04-05
70949,04/05/2013,Completed,04/09/2013,13-00387488,Alley Light Out,647 N WESTERN AVE,60612.0,1160288.63401286,1904335.83470196,1.0,12.0,24.0,41.89320152772122,-87.6867681265061,"(41.89320152772122, -87.6867681265061)",2013-04-05
70950,04/05/2013,Completed,04/09/2013,13-00387498,Alley Light Out,732 N CHRISTIANA AVE,60624.0,1153911.58263264,1904681.54681487,27.0,11.0,23.0,41.89427967400169,-87.71017955783415,"(41.89427967400169, -87.71017955783414)",2013-04-05
70951,04/05/2013,Completed,04/09/2013,13-00387527,Alley Light Out,7806 S RIDGELAND AVE,60649.0,1189224.51929804,1853565.74619614,8.0,4.0,43.0,41.75323802954394,-87.5821291333276,"(41.75323802954394, -87.5821291333276)",2013-04-05
70952,04/05/2013,Completed,04/09/2013,13-00387550,Alley Light Out,1500 W NORWOOD ST,60660.0,1165220.87990726,1940280.08308602,48.0,24.0,77.0,41.99173094581215,-87.66762863915285,"(41.991730945812144, -87.66762863915285)",2013-04-05
70953,04/05/2013,Completed,04/09/2013,13-00387609,Alley Light Out,3828 N NEVA AVE,60634.0,1127716.05460179,1924606.67409881,38.0,16.0,17.0,41.94943857924354,-87.80593933750934,"(41.94943857924354, -87.80593933750934)",2013-04-05
70954,04/05/2013,Completed,04/09/2013,13-00387631,Alley Light Out,3547 S WOOD ST,60609.0,1164930.48322414,1881185.85969031,11.0,9.0,59.0,41.82957864866303,-87.67037687637517,"(41.82957864866303, -87.67037687637517)",2013-04-05
70955,04/05/2013,Completed,04/09/2013,13-00387694,Alley Light Out,5410 S KENNETH AVE,60632.0,1147614.93737991,1868369.63998832,23.0,8.0,62.0,41.79475816157015,-87.73423570934669,"(41.79475816157015, -87.73423570934668)",2013-04-05
70956,04/06/2013,Completed - Dup,04/09/2013,13-00390009,Alley Light Out,3547 S WOOD ST,60609.0,1164930.48322414,1881185.85969031,11.0,9.0,59.0,41.82957864866303,-87.67037687637517,"(41.82957864866303, -87.67037687637517)",2013-04-06
70957,04/06/2013,Completed,04/09/2013,13-00387956,Alley Light Out,6818 W 64TH PL,60638.0,1132080.42257615,1860989.61756748,23.0,8.0,64.0,41.77478894728547,-87.79137241984098,"(41.774788947285465, -87.79137241984098)",2013-04-06
70958,04/06/2013,Completed,04/09/2013,13-00388553,Alley Light Out,2509 W LE MOYNE ST,60622.0,1159376.64923218,1909890.79728831,26.0,14.0,24.0,41.90846361320871,-87.68996451502382,"(41.90846361320871, -87.68996451502383)",2013-04-06
70959,04/06/2013,Completed,04/09/2013,13-00390091,Alley Light Out,7811 S EAST END AVE,60649.0,1188892.38307245,1853524.06921235,8.0,4.0,43.0,41.75313161557921,-87.58334759896591,"(41.75313161557921, -87.58334759896591)",2013-04-06
70960,04/06/2013,Completed,04/09/2013,13-00390431,Alley Light Out,3343 N ALBANY AVE,60618.0,1155128.98207324,1922003.69903063,33.0,17.0,21.0,41.941788739661405,-87.70524246758511,"(41.94178873966141, -87.70524246758511)",2013-04-06
70961,04/06/2013,Completed,04/09/2013,13-00390512,Alley Light Out,1409 W JUNEWAY TER,60626.0,1165308.66501628,1951395.94999382,49.0,24.0,1.0,42.02223122398379,-87.66698750147421,"(42.02223122398379, -87.66698750147421)",2013-04-06
70962,04/07/2013,Completed,04/09/2013,13-00391728,Alley Light Out,3064 N SACRAMENTO AVE,60618.0,1155841.85089348,1920342.29971012,33.0,14.0,21.0,41.93721537929756,-87.7026672901982,"(41.937215379297555, -87.7026672901982)",2013-04-07
70963,04/07/2013,Completed,04/09/2013,13-00392295,Alley Light Out,4351 W 30TH ST,60623.0,1147771.69777471,1884354.40762961,22.0,10.0,30.0,41.838619690759884,-87.73325151829084,"(41.83861969075988, -87.73325151829084)",2013-04-07
70964,04/07/2013,Completed,04/09/2013,13-00392325,Alley Light Out,5249 W WRIGHTWOOD AVE,60639.0,1140946.16389158,1916792.61628413,31.0,25.0,19.0,41.92776233630836,-87.75749949089264,"(41.92776233630837, -87.75749949089264)",2013-04-07
70965,04/07/2013,Completed,04/09/2013,13-00392360,Alley Light Out,5546 W WARWICK AVE,60641.0,1138710.03001163,1924383.3200878997,38.0,16.0,15.0,41.94863292399473,-87.76553179248616,"(41.94863292399473, -87.76553179248616)",2013-04-07
70966,04/07/2013,Completed,04/09/2013,13-00392540,Alley Light Out,2827 E 77TH ST,60649.0,1196396.85208201,1854519.57171261,7.0,4.0,43.0,41.75568054271749,-87.55581419662832,"(41.755680542717485, -87.55581419662833)",2013-04-07
70967,04/08/2013,Completed,04/09/2013,13-00394917,Alley Light Out,4141 W LAKE ST,60624.0,1148732.38647455,1901502.66496997,28.0,11.0,26.0,41.8856581245452,-87.72928349388597,"(41.8856581245452, -87.72928349388599)",2013-04-08
70968,04/08/2013,Completed,04/09/2013,13-00394932,Alley Light Out,4345 W LAKE ST,60624.0,1147364.56867067,1901598.66741686,28.0,11.0,26.0,41.88594787684242,-87.73430398022549,"(41.88594787684242, -87.73430398022549)",2013-04-08
70969,04/08/2013,Completed,04/09/2013,13-00394944,Alley Light Out,4355 W LAKE ST,60624.0,1147296.86232955,1901603.4232961002,28.0,11.0,26.0,41.8859622241876,-87.73455249309673,"(41.8859622241876, -87.73455249309674)",2013-04-08
70970,04/08/2013,Completed,04/09/2013,13-00394963,Alley Light Out,4359 W LAKE ST,60624.0,1147269.76232955,1901605.2232961003,28.0,11.0,26.0,41.885967682445006,-87.73465196503089,"(41.885967682445006, -87.7346519650309)",2013-04-08
70971,04/08/2013,Completed,04/09/2013,13-00394973,Alley Light Out,4736 W CARROLL AVE,60644.0,1144735.3372311,1901979.48011184,28.0,11.0,25.0,41.88704282977845,-87.74394958727899,"(41.887042829778444, -87.743949587279)",2013-04-08
70972,04/08/2013,Completed,04/09/2013,13-00394987,Alley Light Out,4754 W CARROLL AVE,60644.0,1144613.28449592,1901983.04992979,28.0,11.0,25.0,41.887054925280644,-87.74439771413559,"(41.88705492528065, -87.74439771413559)",2013-04-08
70973,04/08/2013,Completed,04/09/2013,13-00394994,Alley Light Out,4758 W CARROLL AVE,60644.0,1144586.18449592,1901983.74992979,28.0,11.0,25.0,41.887057356496186,-87.74449721641882,"(41.88705735649619, -87.74449721641882)",2013-04-08
70974,04/08/2013,Completed,04/09/2013,13-00395872,Alley Light Out,3845 N NOTTINGHAM AVE,60634.0,1128047.90768707,1924732.33852451,38.0,16.0,17.0,41.94977780697415,-87.80471661706959,"(41.94977780697415, -87.8047166170696)",2013-04-08
70975,04/08/2013,Completed,04/09/2013,13-00396247,Alley Light Out,31 E 100TH PL,60628.0,1178329.41332448,1838348.21008841,9.0,5.0,49.0,41.711733320206974,-87.6225157441392,"(41.71173332020698, -87.62251574413922)",2013-04-08
70976,04/08/2013,Completed,04/09/2013,13-00398178,Alley Light Out,2321 N CAMPBELL AVE,60647.0,1159497.40682521,1915511.03718224,1.0,14.0,22.0,41.923883486079134,-87.68936588634655,"(41.923883486079134, -87.68936588634655)",2013-04-08
70977,04/08/2013,Completed,04/09/2013,13-00398728,Alley Light Out,3134 N LONG AVE,60641.0,1139815.61529806,1920436.89992505,30.0,25.0,19.0,41.93778338767103,-87.76156457204681,"(41.93778338767103, -87.76156457204681)",2013-04-08
70978,04/09/2013,Completed,04/09/2013,13-00399473,Alley Light Out,10145 S PAXTON AVE,60617.0,1192833.0978972,1838196.42029036,7.0,4.0,51.0,41.710975960327595,-87.56940519114326,"(41.71097596032759, -87.56940519114326)",2013-04-09
70979,04/09/2013,Completed,04/09/2013,13-00399478,Alley Light Out,10055 S PAXTON AVE,60617.0,1192827.3978972,1838733.82029036,7.0,4.0,51.0,41.71245077957925,-87.56940860479288,"(41.71245077957925, -87.56940860479288)",2013-04-09
70980,04/09/2013,Completed,04/09/2013,13-00399486,Alley Light Out,9933 S OGLESBY AVE,60617.0,1193802.48738925,1839571.57982938,7.0,4.0,51.0,41.71472587938747,-87.56581025126533,"(41.714725879387466, -87.56581025126533)",2013-04-09
70981,04/09/2013,Completed,04/09/2013,13-00399503,Alley Light Out,2245 E 79TH ST,60649.0,1192634.51852727,1853030.60780134,7.0,4.0,46.0,41.751687183113376,-87.56965041015579,"(41.751687183113376, -87.56965041015579)",2013-04-09
70982,04/09/2013,Completed,04/09/2013,13-00399506,Alley Light Out,1 E 79TH ST,60619.0,1177657.48317697,1852637.49032066,6.0,6.0,44.0,41.75096011297345,-87.62454557795229,"(41.75096011297345, -87.6245455779523)",2013-04-09
70983,04/09/2013,Completed,04/09/2013,13-00400838,Alley Light Out,4331 N WOLCOTT AVE,60613.0,1163043.87541696,1928787.91986646,47.0,19.0,5.0,41.960242162643404,-87.67596066477655,"(41.960242162643404, -87.67596066477654)",2013-04-09
70984,04/09/2013,Completed,04/09/2013,13-00400893,Alley Light Out,4350 N ASHLAND AVE,60613.0,1164882.70346898,1928629.52137925,47.0,19.0,6.0,41.95976860197094,-87.66920478300972,"(41.95976860197094, -87.66920478300972)",2013-04-09
70985,04/09/2013,Completed,04/09/2013,13-00400906,Alley Light Out,1711 W MONTROSE AVE,60613.0,1164318.02703167,1929279.6075912,47.0,19.0,6.0,41.961564457252415,-87.67126231686458,"(41.961564457252415, -87.6712623168646)",2013-04-09
70988,04/02/2013,Completed,04/10/2013,13-00370506,Alley Light Out,5555 S MELVINA AVE,60638.0,1135989.32477632,1867077.03618561,23.0,8.0,56.0,41.791425444346864,-87.77689823037498,"(41.791425444346864, -87.77689823037498)",2013-04-02
70989,04/03/2013,Completed,04/10/2013,13-00372767,Alley Light Out,6024 W 64TH PL,60638.0,1137368.95367987,1861146.34369564,13.0,8.0,64.0,41.775125940250895,-87.77198127430471,"(41.77512594025089, -87.77198127430472)",2013-04-03
70990,04/03/2013,Completed,04/10/2013,13-00372974,Alley Light Out,11115 S CAMPBELL AVE,60655.0,1161696.07597386,1830832.29691332,19.0,22.0,75.0,41.69146900288625,-87.68363918767925,"(41.69146900288625, -87.68363918767925)",2013-04-03
70991,04/03/2013,Completed,04/10/2013,13-00374355,Alley Light Out,4906 W SUPERIOR ST,60644.0,1143513.99552181,1904518.41777518,37.0,15.0,25.0,41.894032904661024,-87.74837118595569,"(41.89403290466102, -87.74837118595568)",2013-04-03
70992,04/04/2013,Completed,04/10/2013,13-00377334,Alley Light Out,9550 S CLAREMONT AVE,60643.0,1162380.8948936001,1841583.30433291,19.0,22.0,72.0,41.72095740374765,-87.68083373454334,"(41.72095740374765, -87.68083373454334)",2013-04-04
70993,04/04/2013,Completed,04/10/2013,13-00381405,Alley Light Out,417 W 38TH ST,60609.0,1174139.10089537,1879737.53122182,11.0,9.0,60.0,41.82540433324192,-87.63663387577364,"(41.82540433324192, -87.63663387577364)",2013-04-04
70994,04/04/2013,Completed,04/10/2013,13-00381533,Alley Light Out,10211 S AVENUE M,60617.0,1201494.2689707,1837860.07726817,10.0,4.0,52.0,41.70983776876855,-87.53769823021436,"(41.70983776876855, -87.53769823021436)",2013-04-04
70995,04/05/2013,Completed,04/10/2013,13-00384243,Alley Light Out,5024 S ASHLAND AVE,60609.0,1166523.01380729,1871402.72507399,16.0,9.0,61.0,41.8026987856549,-87.66481316316828,"(41.8026987856549, -87.66481316316828)",2013-04-05
70996,04/05/2013,Completed,04/10/2013,13-00384361,Alley Light Out,745 E 75TH ST,60619.0,1182588.46418958,1855449.42419241,6.0,6.0,69.0,41.75856346331897,-87.60638914149418,"(41.75856346331897, -87.60638914149419)",2013-04-05
70997,04/05/2013,Completed,04/10/2013,13-00385912,Alley Light Out,3104 W 107TH ST,60655.0,1157512.29860786,1833513.60912471,19.0,22.0,74.0,41.69891259487354,-87.69888428361399,"(41.69891259487354, -87.69888428361399)",2013-04-05
70998,04/06/2013,Completed,04/10/2013,13-00389512,Alley Light Out,5132 N BERNARD ST,60625.0,1152455.39328832,1933909.07258434,39.0,17.0,13.0,41.97451123240258,-87.71475321482889,"(41.974511232402584, -87.71475321482889)",2013-04-06
70999,04/07/2013,Completed - Dup,04/10/2013,13-00391995,Alley Light Out,10211 S AVENUE M,60617.0,1201494.2689707,1837860.07726817,10.0,4.0,52.0,41.70983776876855,-87.53769823021436,"(41.70983776876855, -87.53769823021436)",2013-04-07
71000,04/07/2013,Completed - Dup,04/10/2013,13-00392049,Alley Light Out,10211 S AVENUE M,60617.0,1201494.2689707,1837860.07726817,10.0,4.0,52.0,41.70983776876855,-87.53769823021436,"(41.70983776876855, -87.53769823021436)",2013-04-07
71001,04/08/2013,Completed - Dup,04/10/2013,13-00393633,Alley Light Out,448 W 42ND ST,60609.0,1173959.4143991,1877085.17911254,11.0,9.0,61.0,41.818130034512,-87.6373719149692,"(41.818130034512, -87.63737191496921)",2013-04-08
71002,04/08/2013,Completed,04/10/2013,13-00393546,Alley Light Out,448 W 42ND ST,60609.0,1173959.4143991,1877085.17911254,11.0,9.0,61.0,41.818130034512,-87.6373719149692,"(41.818130034512, -87.63737191496921)",2013-04-08
71003,04/08/2013,Completed,04/10/2013,13-00394794,Alley Light Out,4059 W WASHINGTON BLVD,60624.0,1149318.07928215,1900167.65098624,28.0,11.0,26.0,41.881983365815685,-87.72716732313705,"(41.881983365815685, -87.72716732313705)",2013-04-08
71004,04/08/2013,Completed,04/10/2013,13-00394810,Alley Light Out,4049 W WASHINGTON BLVD,60624.0,1149385.52008441,1900165.22769649,28.0,11.0,26.0,41.881975408624136,-87.72691974205526,"(41.88197540862414, -87.72691974205526)",2013-04-08
71005,04/08/2013,Completed,04/10/2013,13-00394820,Alley Light Out,4043 W WASHINGTON BLVD,60624.0,1149425.92008441,1900163.82769649,28.0,11.0,26.0,41.88197078341403,-87.72677142881466,"(41.88197078341403, -87.72677142881466)",2013-04-08
71006,04/08/2013,Completed,04/10/2013,13-00394835,Alley Light Out,4006 W WEST END AVE,60624.0,1149635.17080144,1900671.1300261002,28.0,11.0,26.0,41.88335881591913,-87.72598987310812,"(41.88335881591913, -87.72598987310813)",2013-04-08
71007,04/08/2013,Completed,04/10/2013,13-00394841,Alley Light Out,206 N PULASKI RD,60624.0,1149700.67080144,1900709.6300261002,28.0,11.0,26.0,41.88346319185669,-87.72574834977941,"(41.88346319185669, -87.72574834977942)",2013-04-08
71008,04/08/2013,Completed,04/10/2013,13-00394881,Alley Light Out,3945 W LAKE ST,60624.0,1149935.38067447,1901426.08550869,28.0,11.0,26.0,41.885424660376955,-87.72486781698784,"(41.885424660376955, -87.72486781698785)",2013-04-08
71009,04/08/2013,Completed,04/10/2013,13-00394905,Alley Light Out,4001 W LAKE ST,60624.0,1149673.31963064,1901440.04251033,28.0,11.0,26.0,41.885468054791104,-87.72582979886762,"(41.88546805479111, -87.72582979886762)",2013-04-08
71010,04/08/2013,Completed,04/10/2013,13-00395523,Alley Light Out,11153 S ST LOUIS AVE,60655.0,1155015.67131932,1830396.63831547,19.0,22.0,74.0,41.69040913685346,-87.70810870790122,"(41.69040913685346, -87.7081087079012)",2013-04-08
71011,04/08/2013,Completed,04/10/2013,13-00395611,Alley Light Out,6311 N TRIPP AVE,60646.0,1146903.6867756,1941537.13081151,39.0,17.0,12.0,41.99555131287257,-87.73497271008503,"(41.99555131287257, -87.73497271008503)",2013-04-08
71012,04/08/2013,Completed,04/10/2013,13-00397285,Alley Light Out,6459 S HAMILTON AVE,60636.0,1163140.27407536,1861790.2049021,15.0,7.0,67.0,41.77639231872834,-87.67748812460003,"(41.77639231872834, -87.67748812460003)",2013-04-08
71013,04/08/2013,Completed,04/10/2013,13-00397975,Alley Light Out,4101 N BELL AVE,60618.0,1160629.41558186,1927192.33736797,47.0,19.0,5.0,41.95591428481856,-87.68488176254797,"(41.955914284818554, -87.68488176254797)",2013-04-08
71014,04/08/2013,Completed,04/10/2013,13-00398294,Alley Light Out,10908 S AVENUE J,60617.0,1202526.29122831,1833242.41437754,10.0,4.0,52.0,41.69714028948947,-87.53407584952913,"(41.69714028948947, -87.53407584952913)",2013-04-08
71015,04/08/2013,Completed,04/10/2013,13-00398375,Alley Light Out,2524 W ARGYLE ST,60625.0,1158799.32089838,1932996.71092561,47.0,20.0,4.0,41.97187959668607,-87.69144976767893,"(41.971879596686065, -87.69144976767892)",2013-04-08
71016,04/08/2013,Completed,04/10/2013,13-00398785,Alley Light Out,6610 S KIMBARK AVE,60637.0,1185774.54409735,1861423.46473084,5.0,3.0,42.0,41.77488230447352,-87.59452448345333,"(41.77488230447352, -87.59452448345333)",2013-04-08
71017,04/08/2013,Completed,04/10/2013,13-00398789,Alley Light Out,7330 S ROCKWELL ST,60629.0,1160310.25360856,1855955.45920947,18.0,8.0,66.0,41.760439688891736,-87.68802335200175,"(41.76043968889174, -87.68802335200175)",2013-04-08
71018,04/08/2013,Completed,04/10/2013,13-00399004,Alley Light Out,10527 S EWING AVE,60617.0,1202172.91496766,1835762.71982055,10.0,4.0,52.0,41.70406521354421,-87.53528417092414,"(41.70406521354421, -87.53528417092414)",2013-04-08
71019,04/09/2013,Completed - Dup,04/10/2013,13-00402671,Alley Light Out,10211 S AVENUE M,60617.0,1201494.2689707,1837860.07726817,10.0,4.0,52.0,41.70983776876855,-87.53769823021436,"(41.70983776876855, -87.53769823021436)",2013-04-09
71020,04/09/2013,Completed,04/10/2013,13-00399073,Alley Light Out,4500 N KEOKUK AVE,60630.0,1147179.61997779,1929627.57002231,45.0,17.0,16.0,41.96286537384635,-87.73426406959301,"(41.96286537384635, -87.73426406959301)",2013-04-09
71021,04/09/2013,Completed,04/10/2013,13-00399190,Alley Light Out,855 W BUCKINGHAM PL,60657.0,1169821.50007393,1922406.78997225,44.0,19.0,6.0,41.942586727231436,-87.65122971464862,"(41.94258672723144, -87.65122971464862)",2013-04-09
71022,04/09/2013,Completed,04/10/2013,13-00399218,Alley Light Out,10833 S TRUMBULL AVE,60655.0,1155262.28379531,1832559.80232937,19.0,22.0,74.0,41.69634035687847,-87.70714826489449,"(41.69634035687848, -87.70714826489449)",2013-04-09
71023,04/09/2013,Completed,04/10/2013,13-00399317,Alley Light Out,5115 S LAVERGNE AVE,60638.0,1143891.86932996,1870247.08201331,23.0,8.0,56.0,41.799980554885614,-87.74784148798729,"(41.799980554885614, -87.7478414879873)",2013-04-09
71024,04/09/2013,Completed,04/10/2013,13-00401491,Alley Light Out,3600 W 83RD ST,60652.0,1153970.39997182,1849317.46001775,18.0,8.0,70.0,41.742352079256975,-87.71143519144381,"(41.742352079256975, -87.71143519144381)",2013-04-09
71025,04/09/2013,Completed,04/10/2013,13-00403981,Alley Light Out,6722 N NEWGARD AVE,60626.0,1165378.2749977,1944756.54218185,40.0,24.0,1.0,42.00401109542171,-87.66692154825111,"(42.00401109542171, -87.66692154825111)",2013-04-09
71026,04/09/2013,Completed,04/10/2013,13-00405218,Alley Light Out,1249 W ARDMORE AVE,60660.0,1166775.62438293,1938979.31013007,48.0,20.0,77.0,41.988128286663255,-87.66194737050434,"(41.98812828666326, -87.66194737050434)",2013-04-09
71027,04/09/2013,Completed,04/10/2013,13-00405285,Alley Light Out,9328 S PARNELL AVE,60620.0,1174270.653479,1843032.70768994,21.0,22.0,73.0,41.7246792237369,-87.63724121193623,"(41.7246792237369, -87.63724121193623)",2013-04-09
71028,04/10/2013,Completed - Dup,04/10/2013,13-00405873,Alley Light Out,9532 S BISHOP ST,60643.0,1168338.52660882,1841530.46289444,21.0,22.0,73.0,41.72068641590437,-87.65901367290351,"(41.72068641590437, -87.65901367290351)",2013-04-10
71029,04/10/2013,Completed - Dup,04/10/2013,13-00406289,Alley Light Out,10115 S LUELLA AVE,60617.0,1193165.35148202,1838348.23572222,7.0,4.0,51.0,41.71138446192344,-87.5681834882157,"(41.711384461923444, -87.5681834882157)",2013-04-10
71030,04/10/2013,Completed - Dup,04/10/2013,13-00407209,Alley Light Out,315 W 115TH ST,60628.0,1176340.51939253,1828675.01989983,34.0,5.0,53.0,41.68523350197764,-87.63008881021341,"(41.68523350197764, -87.63008881021341)",2013-04-10
71031,04/10/2013,Completed,04/10/2013,13-00405455,Alley Light Out,1251 W ARTHUR AVE,60626.0,1166639.30998131,1943458.28183011,40.0,24.0,1.0,42.000421617144134,-87.66231965495335,"(42.00042161714413, -87.66231965495335)",2013-04-10
71032,04/10/2013,Completed,04/10/2013,13-00407851,Alley Light Out,2800 W MADISON ST,60612.0,1157729.25983159,1899898.1532873001,2.0,12.0,27.0,41.881076658669755,-87.69628877632674,"(41.881076658669755, -87.69628877632674)",2013-04-10
71033,04/10/2013,Completed,04/10/2013,13-00409403,Alley Light Out,7005 W 64TH ST,60638.0,1130811.34968156,1861288.65829309,23.0,8.0,64.0,41.77563142581124,-87.79601791890661,"(41.77563142581124, -87.79601791890661)",2013-04-10
71034,04/10/2013,Completed,04/10/2013,13-00410230,Alley Light Out,3551 W 107TH ST,60655.0,1154480.05569469,1833426.22212759,19.0,22.0,74.0,41.69873354805797,-87.70998937840481,"(41.69873354805798, -87.70998937840481)",2013-04-10
71036,04/01/2013,Completed,04/11/2013,13-00360895,Alley Light Out,5006 S SPAULDING AVE,60632.0,1155226.11998121,1871207.51999618,14.0,8.0,63.0,41.802396756654666,-87.70624937290779,"(41.802396756654666, -87.7062493729078)",2013-04-01
71037,04/01/2013,Completed,04/11/2013,13-00360902,Alley Light Out,5012 S CHRISTIANA AVE,60632.0,1154888.42392803,1871197.06390525,14.0,8.0,63.0,41.80237481775024,-87.70748813843745,"(41.80237481775024, -87.70748813843747)",2013-04-01
71038,04/01/2013,Completed,04/11/2013,13-00362829,Alley Light Out,3645 W 60TH ST,60629.0,1153069.94290588,1864579.64523038,13.0,8.0,65.0,41.78425178958909,-87.71433209186165,"(41.784251789589085, -87.71433209186166)",2013-04-01
71039,04/02/2013,Completed - Dup,04/11/2013,13-00370424,Alley Light Out,7328 S CLYDE AVE,60649.0,1191489.99989004,1856789.30231408,5.0,3.0,43.0,41.76202915443671,-87.57372284248981,"(41.76202915443671, -87.57372284248981)",2013-04-02
71040,04/02/2013,Completed,04/11/2013,13-00365508,Alley Light Out,3230 W CARROLL AVE,60624.0,1154771.32367649,1902221.21948728,28.0,11.0,27.0,41.88751112058098,-87.70708792678909,"(41.887511120580974, -87.7070879267891)",2013-04-02
71041,04/02/2013,Completed,04/11/2013,13-00366175,Alley Light Out,3633 W 57TH PL,60629.0,1153095.81998439,1866238.65001239,14.0,8.0,62.0,41.788803836568476,-87.71419341466299,"(41.78880383656848, -87.71419341466299)",2013-04-02
71042,04/02/2013,Completed,04/11/2013,13-00370500,Alley Light Out,5125 S PARKSIDE AVE,60638.0,1139560.89999336,1870075.08348879,23.0,8.0,56.0,41.799588416333314,-87.76372887399421,"(41.799588416333314, -87.76372887399422)",2013-04-02
71043,04/03/2013,Completed,04/11/2013,13-00371737,Alley Light Out,4409 W WEST END AVE,60624.0,1146935.3111114,1900609.60897495,28.0,11.0,26.0,41.88324199934586,-87.7359056078017,"(41.88324199934586, -87.73590560780171)",2013-04-03
71044,04/03/2013,Completed,04/11/2013,13-00374041,Alley Light Out,1752 E 83RD ST,60617.0,1189453.69987555,1850295.89422775,8.0,4.0,45.0,41.74425976087768,-87.58139400495978,"(41.74425976087769, -87.58139400495976)",2013-04-03
71045,04/03/2013,Completed,04/11/2013,13-00374227,Alley Light Out,4950 W FERDINAND ST,60644.0,1143608.11128873,1902883.87867213,37.0,15.0,25.0,41.88954577723312,-87.74806647230854,"(41.88954577723312, -87.74806647230854)",2013-04-03
71046,04/04/2013,Completed,04/11/2013,13-00377075,Alley Light Out,11438 S CALUMET AVE,60628.0,1180624.23406892,1829043.21788919,9.0,5.0,49.0,41.686146862109105,-87.61439603299404,"(41.686146862109105, -87.61439603299404)",2013-04-04
71047,04/04/2013,Completed,04/11/2013,13-00377722,Alley Light Out,915 N PULASKI RD,60651.0,1149555.58648366,1905815.239691,27.0,11.0,23.0,41.89747634591575,-87.7261484470307,"(41.89747634591575, -87.72614844703071)",2013-04-04
71048,04/04/2013,Completed,04/11/2013,13-00378368,Alley Light Out,8746 S DAUPHIN AVE,60619.0,1184010.91622328,1847089.5899096,8.0,6.0,44.0,41.735590096103856,-87.60143662533133,"(41.73559009610386, -87.60143662533133)",2013-04-04
71049,04/04/2013,Completed,04/11/2013,13-00378373,Alley Light Out,2127 S WESTERN AVE,60608.0,1160698.38466936,1889715.10039763,25.0,12.0,31.0,41.853072384705584,-87.68566842914322,"(41.853072384705584, -87.68566842914322)",2013-04-04
71050,04/04/2013,Completed,04/11/2013,13-00380814,Alley Light Out,3846 N WHIPPLE ST,60618.0,1155368.16762523,1925417.52427535,33.0,17.0,16.0,41.95115169676173,-87.70427127005028,"(41.95115169676173, -87.70427127005028)",2013-04-04
71051,04/04/2013,Completed,04/11/2013,13-00381347,Alley Light Out,3721 W 61ST PL,60629.0,1152623.05478893,1863571.83252064,13.0,8.0,65.0,41.781495014188486,-87.71599710466728,"(41.78149501418849, -87.71599710466728)",2013-04-04
71052,04/04/2013,Completed,04/11/2013,13-00381424,Alley Light Out,4633 W ERIE ST,60644.0,1145267.51603065,1903910.80989415,28.0,11.0,25.0,41.89233257354126,-87.74194637528255,"(41.89233257354126, -87.74194637528257)",2013-04-04
71053,04/06/2013,Completed,04/11/2013,13-00387876,Alley Light Out,5069 W MADISON ST,60644.0,1142592.92008785,1899549.04589881,28.0,15.0,25.0,41.880413530177115,-87.75187771182159,"(41.880413530177115, -87.7518777118216)",2013-04-06
71054,04/08/2013,Completed - Dup,04/11/2013,13-00397227,Alley Light Out,11438 S CALUMET AVE,60628.0,1180624.23406892,1829043.21788919,9.0,5.0,49.0,41.686146862109105,-87.61439603299404,"(41.686146862109105, -87.61439603299404)",2013-04-08
71055,04/08/2013,Completed,04/11/2013,13-00392581,Alley Light Out,10129 S AVENUE M,60617.0,1201489.84682431,1838427.01373128,10.0,4.0,52.0,41.71139360100179,-87.5376952402016,"(41.71139360100179, -87.53769524020161)",2013-04-08
71056,04/08/2013,Completed,04/11/2013,13-00395700,Alley Light Out,113 W 113TH ST,60628.0,1177449.57400124,1830026.3062089002,34.0,5.0,49.0,41.688916717470605,-87.6259882347324,"(41.6889167174706, -87.62598823473239)",2013-04-08
71057,04/08/2013,Completed,04/11/2013,13-00396023,Alley Light Out,4418 W FULTON ST,60624.0,1146884.01002118,1901384.72999627,28.0,11.0,26.0,41.885369999978174,-87.73607418087187,"(41.88536999997817, -87.73607418087187)",2013-04-08
71058,04/08/2013,Completed,04/11/2013,13-00398740,Alley Light Out,1151 W GRAND AVE,60642.0,1168605.82650916,1903631.49041448,27.0,12.0,24.0,41.891092711116,-87.6562426708157,"(41.891092711115995, -87.6562426708157)",2013-04-08
71059,04/08/2013,Completed,04/11/2013,13-00398775,Alley Light Out,4916 W HUBBARD ST,60644.0,1143512.23687124,1902561.41288361,28.0,15.0,25.0,41.88866268689539,-87.74842664022906,"(41.88866268689539, -87.74842664022906)",2013-04-08
71060,04/08/2013,Completed,04/11/2013,13-00398887,Alley Light Out,332 W 29TH ST,60616.0,1174431.94390968,1885466.53060687,11.0,9.0,34.0,41.84111866909553,-87.63538874539982,"(41.84111866909552, -87.63538874539981)",2013-04-08
71061,04/09/2013,Completed - Dup,04/11/2013,13-00405333,Alley Light Out,5119 S PRAIRIE AVE,60615.0,1178908.56993399,1871136.55899795,3.0,2.0,40.0,41.80169507591182,-87.61939823338308,"(41.80169507591182, -87.61939823338308)",2013-04-09
71062,04/09/2013,Completed - Dup,04/11/2013,13-00405358,Alley Light Out,5119 S PRAIRIE AVE,60615.0,1178908.56993399,1871136.55899795,3.0,2.0,40.0,41.80169507591182,-87.61939823338308,"(41.80169507591182, -87.61939823338308)",2013-04-09
71063,04/09/2013,Completed - Dup,04/11/2013,13-00405359,Alley Light Out,5119 S PRAIRIE AVE,60615.0,1178908.56993399,1871136.55899795,3.0,2.0,40.0,41.80169507591182,-87.61939823338308,"(41.80169507591182, -87.61939823338308)",2013-04-09
71064,04/09/2013,Completed,04/11/2013,13-00404533,Alley Light Out,5458 S EVERETT AVE,60615.0,1188973.49072111,1869085.16559407,5.0,2.0,41.0,41.795830576768545,-87.58255254419319,"(41.79583057676855, -87.58255254419318)",2013-04-09
71065,04/09/2013,Completed,04/11/2013,13-00405043,Alley Light Out,4524 W GRENSHAW ST,60624.0,1146446.23957128,1894650.33473143,24.0,11.0,29.0,41.866898366359614,-87.73785334538816,"(41.866898366359614, -87.73785334538817)",2013-04-09
71066,04/09/2013,Completed,04/11/2013,13-00405250,Alley Light Out,2921 W 40TH ST,60632.0,1157537.09512846,1877981.86056891,14.0,9.0,58.0,41.82093984516715,-87.6975901858541,"(41.820939845167146, -87.6975901858541)",2013-04-09
71067,04/09/2013,Completed,04/11/2013,13-00405266,Alley Light Out,5119 S PRAIRIE AVE,60615.0,1178908.56993399,1871136.55899795,3.0,2.0,40.0,41.80169507591182,-87.61939823338308,"(41.80169507591182, -87.61939823338308)",2013-04-09
71068,04/09/2013,Completed,04/11/2013,13-00405378,Alley Light Out,1508 S KENNETH AVE,60623.0,1146965.93973026,1892282.60386892,24.0,10.0,29.0,41.86039111031557,-87.73600592009136,"(41.86039111031557, -87.73600592009136)",2013-04-09
71069,04/10/2013,Completed,04/11/2013,13-00405569,Alley Light Out,4939 N LAMON AVE,60630.0,1142795.54777161,1932508.29020995,45.0,16.0,12.0,41.97085328337503,-87.75031079634773,"(41.97085328337503, -87.75031079634773)",2013-04-10
71070,04/10/2013,Completed,04/11/2013,13-00407556,Alley Light Out,200 W 23RD PL,60616.0,1175341.94548583,1888734.02993097,25.0,9.0,34.0,41.850064596083456,-87.63195146539425,"(41.85006459608345, -87.63195146539425)",2013-04-10
71071,04/10/2013,Completed,04/11/2013,13-00407899,Alley Light Out,2044 N NEW ENGLAND AVE,60707.0,1130096.90932249,1912834.12959394,36.0,25.0,25.0,41.91709276892367,-87.79745795355673,"(41.917092768923666, -87.79745795355673)",2013-04-10
71072,04/10/2013,Completed,04/11/2013,13-00408881,Alley Light Out,10200 S ELIZABETH ST,60643.0,1169806.46408338,1837294.9601307,21.0,22.0,73.0,41.70903187648863,-87.65375940071532,"(41.70903187648863, -87.65375940071532)",2013-04-10
71073,04/10/2013,Completed,04/11/2013,13-00410449,Alley Light Out,1536 W 56TH ST,60636.0,1166943.79270604,1867588.50158636,16.0,7.0,67.0,41.79222311737012,-87.66337900137906,"(41.79222311737012, -87.66337900137904)",2013-04-10
71074,04/10/2013,Completed,04/11/2013,13-00410511,Alley Light Out,6146 N AUSTIN AVE,60646.0,1135255.82677917,1940521.10950303,45.0,16.0,10.0,41.99297861306051,-87.77784438152064,"(41.99297861306051, -87.77784438152064)",2013-04-10
71075,04/10/2013,Completed,04/11/2013,13-00410560,Alley Light Out,6033 N MASON AVE,60646.0,1135583.34987953,1939729.14338202,45.0,16.0,11.0,41.99079955657318,-87.77665854896836,"(41.99079955657318, -87.77665854896836)",2013-04-10
71076,04/10/2013,Completed,04/11/2013,13-00410934,Alley Light Out,10058 S ST LAWRENCE AVE,60628.0,1182016.96390074,1838322.7201279,9.0,5.0,49.0,41.71157904317192,-87.60901187221769,"(41.71157904317192, -87.60901187221768)",2013-04-10
71077,04/10/2013,Completed,04/11/2013,13-00411296,Alley Light Out,10138 S AVENUE L,60617.0,1201820.19628776,1838369.14226929,10.0,4.0,52.0,41.711226414205214,-87.53648741355823,"(41.711226414205214, -87.53648741355823)",2013-04-10
71078,04/11/2013,Completed - Dup,04/11/2013,13-00412221,Alley Light Out,5128 S UNION AVE,60609.0,1172504.70001607,1870871.72631337,3.0,9.0,61.0,41.801111907577535,-87.64289137130156,"(41.80111190757754, -87.64289137130156)",2013-04-11
71079,04/11/2013,Completed - Dup,04/11/2013,13-00413373,Alley Light Out,6031 S MASON AVE,60638.0,1137764.88541448,1863951.46998193,13.0,8.0,64.0,41.78281661510079,-87.7704624991833,"(41.782816615100785, -87.7704624991833)",2013-04-11
71080,04/11/2013,Completed - Dup,04/11/2013,13-00413493,Alley Light Out,6026 S MASON AVE,60638.0,1137763.68541448,1863985.16998193,13.0,8.0,64.0,41.782909115514585,-87.77046609004472,"(41.782909115514585, -87.77046609004474)",2013-04-11
71081,04/11/2013,Completed,04/11/2013,13-00411402,Alley Light Out,9100 S UNION AVE,60620.0,1173235.68281504,1844525.51818716,21.0,22.0,73.0,41.728798605890326,-87.64098831463635,"(41.728798605890326, -87.64098831463635)",2013-04-11
71082,04/11/2013,Completed,04/11/2013,13-00413615,Alley Light Out,248 E 35TH ST,60616.0,1178584.74270328,1881839.95452417,2.0,2.0,35.0,41.83107346180285,-87.62026008412974,"(41.831073461802845, -87.62026008412973)",2013-04-11
71083,04/11/2013,Completed,04/11/2013,13-00415051,Alley Light Out,10147 S AVENUE N,60617.0,1201160.92238174,1838294.86996924,10.0,4.0,52.0,41.71103932164021,-87.5389042749265,"(41.7110393216402, -87.5389042749265)",2013-04-11
71088,04/02/2013,Completed - Dup,04/12/2013,13-00370234,Alley Light Out,13120 S MUSKEGON AVE,60633.0,1197102.8196818,1818559.66219507,10.0,4.0,55.0,41.65698561089022,-87.55441904698314,"(41.65698561089022, -87.55441904698314)",2013-04-02
71089,04/03/2013,Completed - Dup,04/12/2013,13-00376356,Alley Light Out,13120 S MUSKEGON AVE,60633.0,1197102.8196818,1818559.66219507,10.0,4.0,55.0,41.65698561089022,-87.55441904698314,"(41.65698561089022, -87.55441904698314)",2013-04-03
71090,04/05/2013,Completed,04/12/2013,13-00381908,Alley Light Out,2846 E 130TH ST,60633.0,1197166.16098037,1819361.94418571,10.0,4.0,55.0,41.65918559639609,-87.55416073926074,"(41.659185596396085, -87.55416073926074)",2013-04-05
71091,04/07/2013,Completed,04/12/2013,13-00392152,Alley Light Out,4300 S PAULINA ST,60609.0,1165728.01991359,1876188.75378307,12.0,9.0,61.0,41.81584912563565,-87.66759279151772,"(41.815849125635644, -87.66759279151772)",2013-04-07
71092,04/07/2013,Completed,04/12/2013,13-00392216,Alley Light Out,3656 W 108TH PL,60655.0,1153647.2971836,1832348.16989168,19.0,22.0,74.0,41.6957916642309,-87.71306700599058,"(41.695791664230896, -87.71306700599058)",2013-04-07
71093,04/08/2013,Completed - Dup,04/12/2013,13-00398659,Alley Light Out,3656 W 108TH PL,60655.0,1153647.2971836,1832348.16989168,19.0,22.0,74.0,41.6957916642309,-87.71306700599058,"(41.695791664230896, -87.71306700599058)",2013-04-08
71094,04/08/2013,Completed,04/12/2013,13-00398811,Alley Light Out,10111 S LUELLA AVE,60617.0,1193164.75148202,1838375.03572222,7.0,4.0,51.0,41.71145801847392,-87.5681848133679,"(41.71145801847392, -87.5681848133679)",2013-04-08
71095,04/09/2013,Completed - Dup,04/12/2013,13-00404155,Alley Light Out,3841 W 67TH PL,60629.0,1151924.14708945,1859568.92318171,13.0,8.0,65.0,41.77052414127819,-87.71866438726957,"(41.770524141278194, -87.71866438726958)",2013-04-09
71096,04/09/2013,Completed,04/12/2013,13-00399266,Alley Light Out,3001 S KOSTNER AVE,60623.0,1147534.47210401,1884337.79308448,22.0,10.0,30.0,41.838578642890255,-87.7341224537546,"(41.838578642890255, -87.7341224537546)",2013-04-09
71097,04/09/2013,Completed,04/12/2013,13-00404925,Alley Light Out,2501 E 92ND ST,60617.0,1194447.72169447,1844449.95758099,7.0,4.0,48.0,41.728096796527055,-87.56328735915744,"(41.728096796527055, -87.56328735915746)",2013-04-09
71098,04/09/2013,Completed,04/12/2013,13-00405371,Alley Light Out,7244 S OAKLEY AVE,60636.0,1162325.19312143,1856575.09616982,18.0,8.0,66.0,41.76209834669285,-87.68062126371817,"(41.762098346692845, -87.68062126371817)",2013-04-09
71099,04/10/2013,Completed,04/12/2013,13-00406097,Alley Light Out,849 W BUCKINGHAM PL,60657.0,1169877.07652206,1922412.12458852,44.0,19.0,6.0,41.94260015190726,-87.6510252906795,"(41.94260015190726, -87.65102529067948)",2013-04-10
71100,04/10/2013,Completed,04/12/2013,13-00407948,Alley Light Out,1431 N CALIFORNIA AVE,60622.0,1157469.76667632,1909396.9698816002,26.0,14.0,24.0,41.90714754401245,-87.6969829339198,"(41.90714754401245, -87.6969829339198)",2013-04-10
71101,04/10/2013,Completed,04/12/2013,13-00408431,Alley Light Out,7247 S TALMAN AVE,60629.0,1159962.1038788,1856488.14201015,18.0,8.0,66.0,41.76190860961681,-87.6892847232696,"(41.76190860961681, -87.6892847232696)",2013-04-10
71102,04/10/2013,Completed,04/12/2013,13-00408801,Alley Light Out,12640 S EMERALD AVE,60628.0,1173624.64828759,1821042.58442152,34.0,5.0,53.0,41.664349262421176,-87.6402556599298,"(41.664349262421176, -87.64025565992982)",2013-04-10
71103,04/10/2013,Completed,04/12/2013,13-00409832,Alley Light Out,3219 W DICKENS AVE,60647.0,1154496.01879813,1913773.37461336,35.0,14.0,22.0,41.919216792863885,-87.70778958363917,"(41.91921679286389, -87.70778958363915)",2013-04-10
71104,04/10/2013,Completed,04/12/2013,13-00410204,Alley Light Out,2437 W 34TH PL,60608.0,1160726.29539617,1881736.27980569,12.0,9.0,59.0,41.831177058694884,-87.68578678263692,"(41.83117705869488, -87.68578678263694)",2013-04-10
71105,04/11/2013,Completed - Dup,04/12/2013,13-00417193,Alley Light Out,1749 E 84TH PL,60617.0,1189360.10137349,1849297.50770505,8.0,4.0,45.0,41.74152233728983,-87.58176890433245,"(41.74152233728983, -87.58176890433245)",2013-04-11
71106,04/11/2013,Completed,04/12/2013,13-00411537,Alley Light Out,6401 S SACRAMENTO AVE,60629.0,1157483.74233031,1862043.29192781,15.0,8.0,66.0,41.777203334319246,-87.69821792769369,"(41.777203334319246, -87.69821792769368)",2013-04-11
71107,04/11/2013,Completed,04/12/2013,13-00414734,Alley Light Out,4355 W CORTEZ ST,60651.0,1147122.47598921,1906640.45347316,37.0,11.0,23.0,41.899787725487315,-87.73506390912728,"(41.899787725487315, -87.73506390912726)",2013-04-11
71108,04/11/2013,Completed,04/12/2013,13-00415944,Alley Light Out,2744 S ST LOUIS AVE,60623.0,1153478.06701378,1885544.63399949,22.0,10.0,30.0,41.841774510224646,-87.71228022308055,"(41.841774510224646, -87.71228022308057)",2013-04-11
71109,04/11/2013,Completed,04/12/2013,13-00416030,Alley Light Out,1801 N PULASKI RD,60639.0,1149432.2898253,1911693.33951429,30.0,25.0,20.0,41.91360882978879,-87.72644856118961,"(41.9136088297888, -87.72644856118961)",2013-04-11
71110,04/11/2013,Completed,04/12/2013,13-00416193,Alley Light Out,5308 W VAN BUREN ST,60644.0,1141033.45440216,1897498.89999632,29.0,15.0,25.0,41.87481651706117,-87.7576544836692,"(41.87481651706117, -87.75765448366921)",2013-04-11
71111,04/11/2013,Completed,04/12/2013,13-00417411,Alley Light Out,5609 W BLOOMINGDALE AVE,60639.0,1138721.7146213,1911276.45007135,29.0,25.0,25.0,41.912666062806686,-87.76580774714618,"(41.91266606280669, -87.76580774714618)",2013-04-11
71112,04/11/2013,Completed,04/12/2013,13-00417556,Alley Light Out,4516 W GRENSHAW ST,60624.0,1146483.43957128,1894651.33473143,24.0,11.0,29.0,41.86690040230189,-87.73771675262829,"(41.86690040230188, -87.7377167526283)",2013-04-11
71113,04/11/2013,Completed,04/12/2013,13-00417577,Alley Light Out,4425 N TROY ST,60625.0,1154587.30157764,1929239.83659605,33.0,17.0,14.0,41.96165606174017,-87.70703902520823,"(41.961656061740165, -87.70703902520822)",2013-04-11
71114,04/11/2013,Completed,04/12/2013,13-00417632,Alley Light Out,4937 W AUGUSTA BLVD,60651.0,1143261.51060257,1906198.08290267,37.0,15.0,25.0,41.89864681910594,-87.74925649729236,"(41.89864681910594, -87.74925649729236)",2013-04-11
71115,04/11/2013,Completed,04/12/2013,13-00417672,Alley Light Out,3430 N MARSHFIELD AVE,60657.0,1164711.95610483,1922837.62549782,32.0,19.0,6.0,41.943878996482724,-87.6699973357755,"(41.94387899648272, -87.6699973357755)",2013-04-11
71116,04/11/2013,Completed,04/12/2013,13-00417723,Alley Light Out,2901 W 40TH ST,60632.0,1157672.89512846,1877988.56056891,14.0,9.0,58.0,41.8209554724514,-87.69709182025741,"(41.8209554724514, -87.6970918202574)",2013-04-11
71117,04/11/2013,Completed,04/12/2013,13-00417800,Alley Light Out,5676 N RIDGE AVE,60660.0,1166628.18433349,1937884.41221253,48.0,20.0,77.0,41.98512702837819,-87.66252120692722,"(41.985127028378194, -87.66252120692722)",2013-04-11
71118,04/11/2013,Completed,04/12/2013,13-00417847,Alley Light Out,4148 N WHIPPLE ST,60618.0,1155308.67950541,1927418.06490268,33.0,17.0,16.0,41.9566425078362,-87.70443598111132,"(41.9566425078362, -87.70443598111132)",2013-04-11
71119,04/12/2013,Completed - Dup,04/12/2013,13-00418148,Alley Light Out,7800 S RIDGELAND AVE,60649.0,1189223.41929804,1853605.94619614,8.0,4.0,43.0,41.7533483683286,-87.58213187807682,"(41.753348368328595, -87.58213187807681)",2013-04-12
71120,04/12/2013,Completed,04/12/2013,13-00418572,Alley Light Out,8424 S COLFAX AVE,60617.0,1194964.47071215,1849618.884387,7.0,4.0,46.0,41.742268073357415,-87.56122458216116,"(41.742268073357415, -87.56122458216116)",2013-04-12
71121,04/12/2013,Completed,04/12/2013,13-00418575,Alley Light Out,8929 S COLFAX AVE,60617.0,1195293.98677797,1846164.83651769,7.0,4.0,48.0,41.73278175728991,-87.56013096205189,"(41.73278175728991, -87.56013096205189)",2013-04-12
71122,04/12/2013,Completed,04/12/2013,13-00418580,Alley Light Out,8100 S SAGINAW AVE,60617.0,1195248.46700447,1851775.25597827,7.0,4.0,46.0,41.74817833267304,-87.56011304645217,"(41.74817833267304, -87.56011304645219)",2013-04-12
71123,04/12/2013,Completed,04/12/2013,13-00418582,Alley Light Out,1 W LAKE ST,60601.0,1176328.02369789,1901746.25869844,42.0,1.0,32.0,41.885748819072866,-87.62794001091278,"(41.885748819072866, -87.62794001091278)",2013-04-12
71124,04/12/2013,Completed,04/12/2013,13-00420119,Alley Light Out,6248 N BELL AVE,60659.0,1160181.66167119,1941542.48009217,50.0,24.0,2.0,41.995301003162865,-87.68612924219376,"(41.99530100316287, -87.68612924219377)",2013-04-12
71125,04/12/2013,Completed,04/12/2013,13-00422302,Alley Light Out,248 E 35TH ST,60616.0,1178584.74270328,1881839.95452417,2.0,2.0,35.0,41.83107346180285,-87.62026008412974,"(41.831073461802845, -87.62026008412973)",2013-04-12
71126,04/12/2013,Completed - Dup,04/13/2013,13-00420404,Alley Light Out,1708 S RACINE AVE,60608.0,1168642.09848207,1891858.910012,25.0,12.0,31.0,41.85878706655489,-87.65645041916899,"(41.85878706655489, -87.65645041916899)",2013-04-12
71127,04/13/2013,Completed,04/13/2013,13-00424018,Alley Light Out,6529 S ARTESIAN AVE,60629.0,1161163.6031978,1861291.83380605,15.0,8.0,66.0,41.77506585778127,-87.68474829876574,"(41.77506585778127, -87.68474829876574)",2013-04-13
71128,04/05/2013,Completed,04/15/2013,13-00382056,Alley Light Out,13414 S AVENUE K,60633.0,1202419.58906736,1816638.26818982,10.0,4.0,55.0,41.651579612677466,-87.5350297491666,"(41.65157961267747, -87.5350297491666)",2013-04-05
71129,04/08/2013,Completed,04/15/2013,13-00396362,Alley Light Out,4600 S KILPATRICK AVE,60632.0,1145798.67791166,1873722.77562732,23.0,8.0,56.0,41.809482542716786,-87.74076068300953,"(41.80948254271679, -87.74076068300953)",2013-04-08
71130,04/08/2013,Completed,04/15/2013,13-00398959,Alley Light Out,3329 W CRYSTAL ST,60651.0,1153941.60821723,1908123.16040924,26.0,14.0,23.0,41.90372318692107,-87.70997744102728,"(41.90372318692107, -87.70997744102728)",2013-04-08
71131,04/09/2013,Completed,04/15/2013,13-00401142,Alley Light Out,751 W MELROSE ST,60657.0,1170653.19502523,1921864.53991693,44.0,19.0,6.0,41.94108057030967,-87.64818880085916,"(41.94108057030967, -87.64818880085916)",2013-04-09
71132,04/11/2013,Completed,04/15/2013,13-00411543,Alley Light Out,3714 S EMERALD AVE,60609.0,1171910.40036986,1880249.9280272,11.0,9.0,60.0,41.826859701012026,-87.64479529650184,"(41.82685970101202, -87.64479529650185)",2013-04-11
71133,04/11/2013,Completed,04/15/2013,13-00413351,Alley Light Out,4200 S UNION AVE,60609.0,1172337.08851839,1876877.76189663,11.0,9.0,61.0,41.81759676508275,-87.64332921563695,"(41.81759676508275, -87.64332921563695)",2013-04-11
71134,04/11/2013,Completed,04/15/2013,13-00414156,Alley Light Out,5855 N ELSTON AVE,60646.0,1136360.01028171,1938663.36049939,45.0,16.0,11.0,41.987861071711066,-87.77382737171897,"(41.987861071711066, -87.77382737171897)",2013-04-11
71135,04/11/2013,Completed,04/15/2013,13-00417586,Alley Light Out,1040 N DAMEN AVE,60622.0,1162877.35997062,1907046.13002019,32.0,12.0,24.0,41.90058486400637,-87.6771845705763,"(41.90058486400637, -87.67718457057629)",2013-04-11
71136,04/11/2013,Completed,04/15/2013,13-00417753,Alley Light Out,2624 S KEELER AVE,60623.0,1148808.07839477,1886227.44701338,22.0,10.0,30.0,41.84373962559976,-87.72940014655184,"(41.84373962559976, -87.72940014655185)",2013-04-11
71137,04/12/2013,Completed - Dup,04/15/2013,13-00422880,Alley Light Out,1040 N DAMEN AVE,60622.0,1162877.35997062,1907046.13002019,32.0,12.0,24.0,41.90058486400637,-87.6771845705763,"(41.90058486400637, -87.67718457057629)",2013-04-12
71138,04/12/2013,Completed - Dup,04/15/2013,13-00422943,Alley Light Out,7332 S CLYDE AVE,60649.0,1191490.69989004,1856762.50231408,5.0,3.0,43.0,41.76195559610935,-87.57372114433029,"(41.76195559610935, -87.5737211443303)",2013-04-12
71139,04/12/2013,Completed,04/15/2013,13-00418478,Alley Light Out,2803 W BIRCHWOOD AVE,60645.0,1156435.98013368,1949608.44981984,50.0,24.0,2.0,42.01751118035293,-87.69968814802118,"(42.01751118035293, -87.69968814802118)",2013-04-12
71140,04/12/2013,Completed,04/15/2013,13-00419111,Alley Light Out,2849 S PULASKI RD,60623.0,1150174.17038955,1884748.10527972,22.0,10.0,30.0,41.83965365088907,-87.7244253079407,"(41.83965365088907, -87.72442530794072)",2013-04-12
71141,04/12/2013,Completed,04/15/2013,13-00422924,Alley Light Out,7720 W JARVIS AVE,60631.0,1124013.02169984,1948492.21746729,41.0,16.0,9.0,42.015044766401054,-87.81902427557564,"(42.015044766401054, -87.81902427557564)",2013-04-12
71142,04/13/2013,Completed,04/15/2013,13-00423315,Alley Light Out,4900 N MARINE DR,60640.0,1169957.65651885,1932995.67989279,48.0,20.0,3.0,41.971640023455954,-87.65041912862587,"(41.971640023455954, -87.65041912862587)",2013-04-13
71143,04/13/2013,Completed,04/15/2013,13-00424546,Alley Light Out,2246 W AINSLIE ST,60625.0,1160401.12042282,1932499.30722968,47.0,20.0,4.0,41.970481614172776,-87.68557353910968,"(41.97048161417277, -87.68557353910968)",2013-04-13
71144,04/13/2013,Completed,04/15/2013,13-00424666,Alley Light Out,6230 N ROCKWELL ST,60659.0,1157863.84260959,1941263.01068555,50.0,24.0,2.0,41.99458188176162,-87.69466301163202,"(41.99458188176162, -87.69466301163203)",2013-04-13
71145,04/13/2013,Completed,04/15/2013,13-00424823,Alley Light Out,3709 N MOZART ST,60618.0,1156724.06449741,1924520.62898908,33.0,17.0,16.0,41.94866314132255,-87.69931142520531,"(41.94866314132255, -87.69931142520532)",2013-04-13
71146,04/14/2013,Completed,04/15/2013,13-00424885,Alley Light Out,3445 N SHEFFIELD AVE,60657.0,1168993.94628935,1923146.84551361,44.0,19.0,6.0,41.94463550078054,-87.6542497912133,"(41.94463550078054, -87.6542497912133)",2013-04-14
71147,04/14/2013,Completed,04/15/2013,13-00426248,Alley Light Out,6754 N CAMPBELL AVE,60645.0,1158429.0070314,1944754.66187443,50.0,24.0,2.0,42.004151515274174,-87.69248794792574,"(42.004151515274174, -87.69248794792573)",2013-04-14
71148,04/14/2013,Completed,04/15/2013,13-00426260,Alley Light Out,9600 S LA SALLE ST,60628.0,1176969.27539297,1841297.56938919,21.0,5.0,49.0,41.71985746686066,-87.62740833573994,"(41.71985746686066, -87.62740833573994)",2013-04-14
71149,04/15/2013,Completed - Dup,04/15/2013,13-00428249,Alley Light Out,8502 S INGLESIDE AVE,60619.0,1184036.33783157,1848812.70161758,8.0,6.0,44.0,41.74031791010418,-87.60128979419169,"(41.74031791010418, -87.60128979419169)",2013-04-15
71150,04/15/2013,Completed,04/15/2013,13-00427702,Alley Light Out,12457 S EMERALD AVE,60628.0,1173584.03366577,1822256.47437274,34.0,5.0,53.0,41.66768127574628,-87.64036857261296,"(41.667681275746276, -87.64036857261296)",2013-04-15
71153,04/01/2013,Completed - Dup,04/16/2013,13-00362917,Alley Light Out,7424 S CLYDE AVE,60649.0,1191504.86619143,1856153.69702229,5.0,3.0,43.0,41.76028464168059,-87.5736889285095,"(41.76028464168059, -87.5736889285095)",2013-04-01
71154,04/01/2013,Completed,04/16/2013,13-00362911,Alley Light Out,7424 S CLYDE AVE,60649.0,1191504.86619143,1856153.69702229,5.0,3.0,43.0,41.76028464168059,-87.5736889285095,"(41.76028464168059, -87.5736889285095)",2013-04-01
71155,04/09/2013,Completed - Dup,04/16/2013,13-00405411,Alley Light Out,7806 S RIDGELAND AVE,60649.0,1189224.51929804,1853565.74619614,8.0,4.0,43.0,41.75323802954394,-87.5821291333276,"(41.75323802954394, -87.5821291333276)",2013-04-09
71156,04/10/2013,Completed - Dup,04/16/2013,13-00411134,Alley Light Out,7806 S RIDGELAND AVE,60649.0,1189224.51929804,1853565.74619614,8.0,4.0,43.0,41.75323802954394,-87.5821291333276,"(41.75323802954394, -87.5821291333276)",2013-04-10
71157,04/10/2013,Completed,04/16/2013,13-00408752,Alley Light Out,5545 S HOMAN AVE,60629.0,1154656.21219319,1867639.06088535,14.0,8.0,63.0,41.79261578931497,-87.708434623675,"(41.792615789314965, -87.708434623675)",2013-04-10
71158,04/11/2013,Completed - Dup,04/16/2013,13-00417852,Alley Light Out,7806 S RIDGELAND AVE,60649.0,1189224.51929804,1853565.74619614,8.0,4.0,43.0,41.75323802954394,-87.5821291333276,"(41.75323802954394, -87.5821291333276)",2013-04-11
71159,04/11/2013,Completed,04/16/2013,13-00415477,Alley Light Out,6747 W GRAND AVE,60707.0,1130951.75987761,1915213.23287792,36.0,25.0,18.0,41.92360662487094,-87.79426222201239,"(41.923606624870935, -87.79426222201239)",2013-04-11
71160,04/12/2013,Completed,04/16/2013,13-00420599,Alley Light Out,5847 W EDDY ST,60634.0,1136754.97559087,1923009.14302196,38.0,16.0,15.0,41.944897357350136,-87.7727513566666,"(41.944897357350136, -87.7727513566666)",2013-04-12
71161,04/12/2013,Completed,04/16/2013,13-00421254,Alley Light Out,3912 N NOTTINGHAM AVE,60634.0,1128031.81330288,1925183.49567091,38.0,16.0,17.0,41.951016106494066,-87.80476555155256,"(41.95101610649407, -87.80476555155256)",2013-04-12
71162,04/12/2013,Completed,04/16/2013,13-00422486,Alley Light Out,4914 W WRIGHTWOOD AVE,60639.0,1143187.09117448,1916849.01133367,31.0,25.0,19.0,41.927875497606784,-87.74926343302856,"(41.92787549760678, -87.74926343302857)",2013-04-12
71163,04/12/2013,Completed,04/16/2013,13-00423154,Alley Light Out,4159 N MOODY AVE,60634.0,1134608.34752451,1927024.76427857,38.0,16.0,15.0,41.95595489341935,-87.78054643530886,"(41.955954893419346, -87.78054643530886)",2013-04-12
71164,04/13/2013,Completed - Dup,04/16/2013,13-00424652,Alley Light Out,12336 S INDIANA AVE,60628.0,1179850.07693172,1823206.21368558,9.0,5.0,53.0,41.67014695322916,-87.61740760196287,"(41.67014695322916, -87.61740760196287)",2013-04-13
71165,04/13/2013,Completed,04/16/2013,13-00424650,Alley Light Out,4320 S MARSHFIELD AVE,60609.0,1166062.63357701,1876060.73461818,12.0,9.0,61.0,41.81549070653287,-87.66636900763322,"(41.81549070653287, -87.66636900763324)",2013-04-13
71166,04/14/2013,Completed,04/16/2013,13-00426332,Alley Light Out,2446 N DRAKE AVE,60647.0,1152301.3999215001,1916032.92319634,26.0,14.0,22.0,41.92546083281705,-87.71579314484148,"(41.925460832817045, -87.71579314484148)",2013-04-14
71167,04/14/2013,Completed,04/16/2013,13-00426409,Alley Light Out,2832 N HARDING AVE,60618.0,1149565.11247979,1918540.83099031,30.0,25.0,21.0,41.932396387479365,-87.72578235982624,"(41.932396387479365, -87.72578235982624)",2013-04-14
71168,04/15/2013,Completed - Dup,04/16/2013,13-00432644,Alley Light Out,7326 S CLYDE AVE,60649.0,1191489.59989004,1856802.60231408,5.0,3.0,43.0,41.76206566040357,-87.57372387805992,"(41.76206566040357, -87.57372387805992)",2013-04-15
71169,04/15/2013,Completed,04/16/2013,13-00426748,Alley Light Out,7000 W BELMONT AVE,60634.0,1129025.86090874,1920474.32952064,36.0,16.0,17.0,41.93807672587378,-87.80121886922356,"(41.93807672587377, -87.80121886922356)",2013-04-15
71170,04/15/2013,Completed,04/16/2013,13-00427669,Alley Light Out,4915 S HERMITAGE AVE,60609.0,1165509.07290787,1872074.92441171,16.0,9.0,61.0,41.804564960041816,-87.66851266942058,"(41.80456496004182, -87.66851266942058)",2013-04-15
