,Creation Date,Status,Completion Date,Service Request Number,Type of Service Request,What is the Nature of this Code Violation?,Street Address,ZIP Code,X Coordinate,Y Coordinate,Ward,Police District,Community Area,Latitude,Longitude,Location,date
47696,08/02/2013,Completed,08/02/2013,13-01075099,Sanitation Code Violation,Overflowing carts,4306 W IOWA ST,60651.0,1147481.96049965,1905647.93212323,37.0,11.0,23.0,41.89705725443997,-87.73376898362267,"(41.897057254439964, -87.73376898362267)",2013-08-02
47697,08/02/2013,Completed,08/02/2013,13-01075484,Sanitation Code Violation,Other,1255 N CLARK ST,60610.0,1175306.8866146998,1908733.5223095,42.0,18.0,8.0,41.904945207620905,-87.63147989874399,"(41.90494520762091, -87.63147989874398)",2013-08-02
47698,08/02/2013,Completed,08/02/2013,13-01075953,Sanitation Code Violation,Other,63 E RANDOLPH ST,60601.0,1176974.3699951,1901295.69082104,42.0,1.0,32.0,41.88449783285304,-87.62558016911913,"(41.884497832853036, -87.62558016911913)",2013-08-02
47699,08/02/2013,Completed,08/02/2013,13-01077065,Sanitation Code Violation,Garbage in yard,8540 W CARMEN AVE,60656.0,1118544.41761936,1932645.85999835,41.0,16.0,76.0,41.9716490284826,-87.83948352957546,"(41.971649028482595, -87.83948352957547)",2013-08-02
47700,08/02/2013,Completed,08/02/2013,13-01078212,Sanitation Code Violation,Garbage in alley,6321 W GRACE ST,60634.0,1133554.49289105,1924599.33591667,38.0,16.0,17.0,41.9493178521837,-87.7844778236539,"(41.949317852183704, -87.7844778236539)",2013-08-02
47701,08/01/2013,Completed - Dup,08/02/2013,13-01070891,Sanitation Code Violation,Dog feces in yard,6549 W 63RD PL,60638.0,1133846.0757207,1861704.93362199,23.0,8.0,64.0,41.77672119388568,-87.78488292191231,"(41.77672119388568, -87.78488292191231)",2013-08-01
47702,08/01/2013,Completed,08/02/2013,13-01067039,Sanitation Code Violation,Garbage in yard,3044 S KARLOV AVE,60623.0,1149529.30287718,1884096.43731878,22.0,10.0,30.0,41.83787790910014,-87.72680859904024,"(41.83787790910014, -87.72680859904025)",2013-08-01
47703,08/01/2013,Completed,08/02/2013,13-01067191,Sanitation Code Violation,Overflowing carts,1348 W 19TH ST,60608.0,1167681.81726811,1890864.74162059,25.0,12.0,31.0,41.856079702402546,-87.66000388708302,"(41.856079702402546, -87.66000388708301)",2013-08-01
47704,08/01/2013,Completed,08/02/2013,13-01067207,Sanitation Code Violation,Other,2200 N KENMORE AVE,60614.0,1168936.56970948,1914795.17980012,32.0,18.0,7.0,41.92171938114481,-87.65470366480325,"(41.92171938114481, -87.65470366480325)",2013-08-01
47705,08/01/2013,Completed,08/02/2013,13-01067891,Sanitation Code Violation,Garbage in alley,1808 N HARDING AVE,60647.0,1149760.31997337,1911809.51847445,30.0,25.0,20.0,41.91392126019312,-87.72524040771425,"(41.91392126019312, -87.72524040771425)",2013-08-01
47706,08/01/2013,Completed,08/02/2013,13-01068088,Sanitation Code Violation,Garbage in alley,1443 W 17TH ST,60608.0,1167020.65059666,1891837.73996991,25.0,12.0,31.0,41.85876389758691,-87.66240278599598,"(41.85876389758691, -87.66240278599598)",2013-08-01
47707,08/01/2013,Completed,08/02/2013,13-01069168,Sanitation Code Violation,Overflowing carts,1719 N LOTUS AVE,60639.0,1139801.24416938,1910895.93952744,37.0,25.0,25.0,41.91160222866443,-87.76185108405716,"(41.91160222866443, -87.76185108405716)",2013-08-01
47708,08/01/2013,Completed,08/02/2013,13-01069960,Sanitation Code Violation,Other,2317 W 23RD ST,60608.0,1161280.10806762,1888689.3531856004,25.0,10.0,31.0,41.85024556902341,-87.68356179703655,"(41.85024556902341, -87.68356179703655)",2013-08-01
47709,08/01/2013,Completed,08/02/2013,13-01070779,Sanitation Code Violation,Other,1656 W WRIGHTWOOD AVE,60614.0,1164774.26458203,1917326.21912411,32.0,19.0,7.0,41.9287540736376,-87.66992507880595,"(41.9287540736376, -87.66992507880593)",2013-08-01
47710,08/01/2013,Completed,08/02/2013,13-01070806,Sanitation Code Violation,Dog feces in yard,6549 W 63RD PL,60638.0,1133846.0757207,1861704.93362199,23.0,8.0,64.0,41.77672119388568,-87.78488292191231,"(41.77672119388568, -87.78488292191231)",2013-08-01
47711,08/01/2013,Completed,08/02/2013,13-01071040,Sanitation Code Violation,Other,3454 N CLAREMONT AVE,60618.0,1160094.13589196,1922884.8218981002,32.0,19.0,5.0,41.94410531312776,-87.6869689991778,"(41.944105313127764, -87.6869689991778)",2013-08-01
47712,08/01/2013,Completed,08/02/2013,13-01072085,Sanitation Code Violation,Other,300 W 24TH ST,60616.0,1174590.53178156,1888383.35201154,25.0,9.0,34.0,41.84911911734208,-87.6347197186492,"(41.849119117342084, -87.6347197186492)",2013-08-01
47713,08/01/2013,Completed,08/02/2013,13-01072137,Sanitation Code Violation,Other,719 S ABERDEEN ST,60607.0,1169176.47998252,1896934.84999761,25.0,12.0,28.0,41.872704272946464,-87.65434153026573,"(41.87270427294647, -87.65434153026574)",2013-08-01
47714,08/01/2013,Completed,08/02/2013,13-01072151,Sanitation Code Violation,Garbage in yard,2640 S KOMENSKY AVE,60623.0,1149804.97011866,1886144.16688001,22.0,10.0,30.0,41.84349179939268,-87.72574388339203,"(41.84349179939268, -87.72574388339203)",2013-08-01
47715,08/01/2013,Completed,08/02/2013,13-01072299,Sanitation Code Violation,Garbage in yard,2315 N LOCKWOOD AVE,60639.0,1140670.65563001,1914882.33162541,37.0,25.0,19.0,41.92252538575515,-87.75855894409516,"(41.92252538575515, -87.75855894409516)",2013-08-01
47771,08/02/2013,Completed,08/03/2013,13-01076835,Sanitation Code Violation,Other,1322 S CLAREMONT AVE,60608.0,1160803.81012842,1893906.94170789,25.0,12.0,28.0,41.8645730342053,-87.68516533369802,"(41.8645730342053, -87.68516533369802)",2013-08-02
47772,08/03/2013,Completed,08/04/2013,13-01081150,Sanitation Code Violation,Overflowing carts,1918 W NORTH AVE,60622.0,1163238.9599213002,1910667.06409192,32.0,14.0,24.0,41.910513372939135,-87.6757544416931,"(41.91051337293914, -87.6757544416931)",2013-08-03
47773,08/02/2013,Completed,08/04/2013,13-01077032,Sanitation Code Violation,Other,2132 W HADDON AVE,60622.0,1161979.93140728,1907628.70792728,32.0,12.0,24.0,41.90220229046836,-87.68046458732235,"(41.90220229046836, -87.68046458732235)",2013-08-02
47774,08/02/2013,Completed,08/04/2013,13-01079095,Sanitation Code Violation,Garbage in alley,1758 W WABANSIA AVE,60622.0,1164290.61571152,1911360.90831284,32.0,14.0,24.0,41.91239513906759,-87.67187140495926,"(41.91239513906759, -87.67187140495926)",2013-08-02
47775,08/02/2013,Completed,08/04/2013,13-01079262,Sanitation Code Violation,Garbage in alley,2638 N LINCOLN AVE,60614.0,1168890.56020173,1917722.78552471,32.0,19.0,7.0,41.92975387996067,-87.65478759286721,"(41.92975387996067, -87.65478759286721)",2013-08-02
47776,08/02/2013,Completed,08/04/2013,13-01080029,Sanitation Code Violation,Garbage in yard,2230 W MEDILL AVE,60647.0,1161099.57298344,1915634.4500961998,32.0,14.0,22.0,41.92418897203294,-87.6834754635826,"(41.92418897203294, -87.6834754635826)",2013-08-02
47777,08/02/2013,Completed,08/04/2013,13-01080051,Sanitation Code Violation,Other,1726 N HONORE ST,60622.0,1163746.00350647,1911621.04182544,32.0,14.0,24.0,41.913120471093094,-87.67386481198076,"(41.913120471093094, -87.67386481198076)",2013-08-02
47778,08/02/2013,Completed,08/04/2013,13-01080261,Sanitation Code Violation,Overflowing carts,2626 N LINCOLN AVE,60614.0,1168981.76020173,1917637.68552471,32.0,19.0,7.0,41.9295183803626,-87.65445493574221,"(41.929518380362595, -87.65445493574221)",2013-08-02
47779,08/02/2013,Completed,08/04/2013,13-01080285,Sanitation Code Violation,Other,3320 N HOYNE AVE,60618.0,1161768.74052205,1922032.99537924,32.0,19.0,5.0,41.94173303603704,-87.68083773783674,"(41.941733036037036, -87.68083773783674)",2013-08-02
47780,08/04/2013,Completed,08/05/2013,13-01083968,Sanitation Code Violation,Other,730 S DEARBORN ST,60605.0,1176034.27289961,1897113.99012706,2.0,1.0,32.0,41.87304422428245,-87.62915828087374,"(41.873044224282445, -87.62915828087374)",2013-08-04
47781,08/04/2013,Completed,08/05/2013,13-01084282,Sanitation Code Violation,Other,1652 N HONORE ST,60622.0,1163761.60350647,1911030.24182544,32.0,14.0,24.0,41.911498946432204,-87.67382419064094,"(41.9114989464322, -87.67382419064093)",2013-08-04
47782,08/04/2013,Completed,08/05/2013,13-01084342,Sanitation Code Violation,Overflowing carts,1014 W DICKENS AVE,60614.0,1169139.47901164,1914139.21479353,32.0,18.0,7.0,41.91991496965672,-87.65397721998106,"(41.91991496965672, -87.65397721998106)",2013-08-04
47783,08/04/2013,Completed,08/05/2013,13-01084434,Sanitation Code Violation,Garbage in alley,1253 W DICKENS AVE,60614.0,1167533.45822748,1914096.18249488,43.0,18.0,7.0,41.919831646992435,-87.65987921350063,"(41.91983164699244, -87.65987921350064)",2013-08-04
47784,08/04/2013,Completed,08/05/2013,13-01084571,Sanitation Code Violation,Other,4022 W EDDY ST,60641.0,1148986.51226721,1923351.55009403,30.0,17.0,16.0,41.94560863635984,-87.72778378233927,"(41.945608636359836, -87.72778378233926)",2013-08-04
47785,08/05/2013,Completed,08/05/2013,13-01088768,Sanitation Code Violation,Other,5 S WABASH AVE,60603.0,1176809.42743339,1900393.97500362,42.0,1.0,32.0,41.88202720643608,-87.62621313656557,"(41.88202720643608, -87.62621313656558)",2013-08-05
47786,08/05/2013,Completed,08/05/2013,13-01090064,Sanitation Code Violation,Other,6251 W TOUHY AVE,60646.0,1133687.96999516,1947443.89712133,41.0,16.0,12.0,42.01200306242321,-87.78344808491076,"(42.01200306242321, -87.78344808491075)",2013-08-05
47787,08/05/2013,Completed,08/05/2013,13-01090083,Sanitation Code Violation,Other,6259 W TOUHY AVE,60646.0,1133647.36999516,1947443.59712133,41.0,16.0,12.0,42.01200295474705,-87.78359748072306,"(42.01200295474705, -87.78359748072307)",2013-08-05
47788,08/05/2013,Completed,08/05/2013,13-01090113,Sanitation Code Violation,Other,6355 W TOUHY AVE,60646.0,1133087.87988413,1947437.75577582,41.0,16.0,12.0,42.01199676646885,-87.78565627672609,"(42.01199676646884, -87.78565627672609)",2013-08-05
47789,08/05/2013,Completed,08/05/2013,13-01090366,Sanitation Code Violation,Overflowing carts,5250 N SHERIDAN RD,60640.0,1168692.00309391,1935058.46009347,48.0,20.0,77.0,41.977327940165345,-87.65501301727555,"(41.97732794016534, -87.65501301727555)",2013-08-05
47790,08/02/2013,Completed,08/05/2013,13-01079673,Sanitation Code Violation,Garbage in alley,1533 W HIGHLAND AVE,60660.0,1164922.85788202,1942300.13249032,40.0,24.0,77.0,41.99728036562982,-87.66866717437496,"(41.99728036562982, -87.66866717437495)",2013-08-02
47791,08/02/2013,Completed,08/05/2013,13-01080220,Sanitation Code Violation,Other,7826 S KILBOURN AVE,60652.0,1147753.84742721,1852208.53798682,13.0,8.0,70.0,41.750406742752695,-87.73413921235895,"(41.750406742752695, -87.73413921235895)",2013-08-02
47792,08/02/2013,Completed,08/05/2013,13-01080222,Sanitation Code Violation,Other,7826 S KILBOURN AVE,60652.0,1147753.84742721,1852208.53798682,13.0,8.0,70.0,41.750406742752695,-87.73413921235895,"(41.750406742752695, -87.73413921235895)",2013-08-02
47793,08/03/2013,Completed - Dup,08/05/2013,13-01081112,Sanitation Code Violation,Garbage in yard,4160 W 24TH ST,60623.0,1149082.70001069,1887587.13997932,22.0,10.0,30.0,41.84746549496384,-87.72835718086029,"(41.847465494963835, -87.72835718086029)",2013-08-03
47794,08/03/2013,Completed - Dup,08/05/2013,13-01081363,Sanitation Code Violation,Other,7109 W SCHREIBER AVE,60631.0,1127845.1560128,1942545.15991076,41.0,16.0,10.0,41.99866146869618,-87.80505814163959,"(41.99866146869618, -87.8050581416396)",2013-08-03
47795,08/03/2013,Completed - Dup,08/05/2013,13-01082613,Sanitation Code Violation,Garbage in yard,4160 W 24TH ST,60623.0,1149082.70001069,1887587.13997932,22.0,10.0,30.0,41.84746549496384,-87.72835718086029,"(41.847465494963835, -87.72835718086029)",2013-08-03
47796,08/03/2013,Completed,08/05/2013,13-01080975,Sanitation Code Violation,Other,2470 N CLARK ST,60614.0,1172505.52716724,1916871.61872509,43.0,19.0,7.0,41.92733896999876,-87.64152891470732,"(41.92733896999876, -87.64152891470731)",2013-08-03
47797,08/03/2013,Completed,08/05/2013,13-01080976,Sanitation Code Violation,Other,1004 W 18TH ST,60608.0,1169931.97987965,1891589.43297715,25.0,12.0,31.0,41.858019597266996,-87.65172358258579,"(41.858019597266996, -87.65172358258579)",2013-08-03
47798,08/03/2013,Completed,08/05/2013,13-01081116,Sanitation Code Violation,Other,5610 S MICHIGAN AVE,60637.0,1178113.1143321001,1867858.79881943,20.0,2.0,40.0,41.79271868774926,-87.62241486507774,"(41.79271868774926, -87.62241486507773)",2013-08-03
47799,08/03/2013,Completed,08/05/2013,13-01081218,Sanitation Code Violation,Other,2609 W LUNT AVE,60645.0,1157684.02328132,1946353.58781331,50.0,24.0,2.0,42.00855429225918,-87.69518490591351,"(42.00855429225918, -87.6951849059135)",2013-08-03
47800,08/03/2013,Completed,08/05/2013,13-01081771,Sanitation Code Violation,Garbage in alley,2114 W AUGUSTA BLVD,60622.0,1162128.5816294,1906646.36560233,32.0,12.0,24.0,41.89950356177383,-87.6799460551685,"(41.89950356177383, -87.6799460551685)",2013-08-03
47801,08/03/2013,Completed,08/05/2013,13-01082056,Sanitation Code Violation,Other,8400 W BERWYN AVE,60656.0,1119313.67996891,1933952.51996772,41.0,16.0,76.0,41.97522245406866,-87.83662691374842,"(41.97522245406866, -87.83662691374842)",2013-08-03
47802,08/03/2013,Completed,08/05/2013,13-01082439,Sanitation Code Violation,Other,4400 S FAIRFIELD AVE,60632.0,1158767.60552957,1875374.04460539,12.0,9.0,58.0,41.81375860127325,-87.69314732408583,"(41.81375860127325, -87.69314732408583)",2013-08-03
47803,08/04/2013,Completed,08/05/2013,13-01083198,Sanitation Code Violation,Garbage in alley,6504 S ST LAWRENCE AVE,60637.0,1181352.35122316,1862018.43091426,20.0,3.0,42.0,41.77661805628141,-87.61071709494485,"(41.776618056281414, -87.61071709494485)",2013-08-04
47804,08/04/2013,Completed,08/05/2013,13-01083533,Sanitation Code Violation,Garbage in yard,102 S CALIFORNIA AVE,60612.0,1157739.71331913,1899545.7349335,2.0,11.0,27.0,41.880109376078295,-87.69625999769501,"(41.880109376078295, -87.69625999769501)",2013-08-04
47805,08/04/2013,Completed,08/05/2013,13-01083862,Sanitation Code Violation,Garbage in alley,2442 N JANSSEN AVE,60614.0,1166230.91602459,1916322.92719867,32.0,19.0,7.0,41.92596993283951,-87.66460113766479,"(41.92596993283951, -87.6646011376648)",2013-08-04
47806,08/04/2013,Completed,08/05/2013,13-01083956,Sanitation Code Violation,Garbage in yard,2524 W 46TH ST,60632.0,1160267.96527043,1874089.52111266,12.0,9.0,58.0,41.81020290605476,-87.68767926339007,"(41.81020290605476, -87.68767926339007)",2013-08-04
47807,08/02/2013,Completed,08/05/2013,13-01073300,Sanitation Code Violation,Garbage in yard,4160 W 24TH ST,60623.0,1149082.70001069,1887587.13997932,22.0,10.0,30.0,41.84746549496384,-87.72835718086029,"(41.847465494963835, -87.72835718086029)",2013-08-02
47808,08/02/2013,Completed,08/05/2013,13-01074104,Sanitation Code Violation,Other,2223 S KEELER AVE,60623.0,1148736.86710926,1888870.7479978001,22.0,10.0,29.0,41.85099455800508,-87.72959328411787,"(41.85099455800508, -87.72959328411787)",2013-08-02
47809,08/02/2013,Completed,08/05/2013,13-01074784,Sanitation Code Violation,Dumpster not being emptied,3819 N BROADWAY,60613.0,1170231.80907555,1925656.6168881,46.0,19.0,6.0,41.95149540644688,-87.64962636875637,"(41.951495406446874, -87.64962636875637)",2013-08-02
47810,08/02/2013,Completed,08/05/2013,13-01076156,Sanitation Code Violation,Other,5543 N CHRISTIANA AVE,60625.0,1153051.27552214,1936641.53417332,40.0,17.0,13.0,41.98199743576106,-87.71248913839375,"(41.98199743576106, -87.71248913839375)",2013-08-02
47811,08/02/2013,Completed,08/05/2013,13-01076746,Sanitation Code Violation,Other,1343 W LOYOLA AVE,60626.0,1166066.07319825,1943802.96032128,40.0,24.0,1.0,42.00137972981923,-87.66441855852274,"(42.00137972981923, -87.66441855852273)",2013-08-02
47812,08/02/2013,Completed,08/05/2013,13-01077020,Sanitation Code Violation,Overflowing carts,937 N DAMEN AVE,60622.0,1162896.69660293,1906368.799923,32.0,12.0,24.0,41.89872581281621,-87.67713257555903,"(41.89872581281621, -87.67713257555901)",2013-08-02
47813,08/02/2013,Completed,08/05/2013,13-01077035,Sanitation Code Violation,Other,2161 N OAKLEY AVE,60647.0,1160670.33008425,1914585.1180293998,32.0,14.0,22.0,41.921318447786106,-87.68508182493069,"(41.92131844778611, -87.68508182493068)",2013-08-02
47814,08/02/2013,Completed,08/05/2013,13-01077344,Sanitation Code Violation,Other,2250 S KILDARE AVE,60623.0,1148286.4145193,1889034.48169396,22.0,10.0,29.0,41.8514525429086,-87.73124234400079,"(41.8514525429086, -87.73124234400079)",2013-08-02
47815,08/02/2013,Completed,08/05/2013,13-01077376,Sanitation Code Violation,Other,2252 S KILDARE AVE,60623.0,1148296.21553398,1888668.71757133,22.0,10.0,29.0,41.85044865076944,-87.73121578455836,"(41.850448650769444, -87.73121578455836)",2013-08-02
47816,08/02/2013,Completed,08/05/2013,13-01077393,Sanitation Code Violation,Other,2211 S KOLIN AVE,60623.0,1147992.64427119,1888947.79022873,22.0,10.0,29.0,41.85122029763691,-87.73232278897696,"(41.85122029763691, -87.73232278897696)",2013-08-02
47817,08/02/2013,Completed,08/05/2013,13-01077452,Sanitation Code Violation,Other,2256 S KOSTNER AVE,60623.0,1147410.1405153,1888622.84160539,22.0,10.0,29.0,41.85033976409819,-87.73446904918373,"(41.85033976409819, -87.73446904918374)",2013-08-02
47818,08/02/2013,Completed,08/05/2013,13-01077645,Sanitation Code Violation,Other,530 W DEMING PL,60614.0,1172147.3781251002,1917250.49920376,43.0,19.0,7.0,41.92838655617665,-87.64283374242609,"(41.92838655617665, -87.64283374242609)",2013-08-02
47819,08/02/2013,Completed,08/05/2013,13-01077790,Sanitation Code Violation,Garbage in alley,4935 W 63RD ST,60638.0,1144454.70998287,1862371.59042886,13.0,8.0,64.0,41.7783583685172,-87.74597466845329,"(41.7783583685172, -87.74597466845329)",2013-08-02
47820,08/02/2013,Completed,08/05/2013,13-01078377,Sanitation Code Violation,Other,2006 W DEVON AVE,60659.0,1161739.51991978,1942498.29156903,50.0,24.0,2.0,41.99789132765669,-87.68037185847382,"(41.99789132765669, -87.68037185847382)",2013-08-02
47821,08/02/2013,Completed,08/05/2013,13-01078637,Sanitation Code Violation,Garbage in alley,6315 N LAKEWOOD AVE,60660.0,1166471.16120213,1942073.18362563,40.0,24.0,77.0,41.996624493136395,-87.66297812839649,"(41.996624493136395, -87.66297812839649)",2013-08-02
47822,08/02/2013,Completed,08/05/2013,13-01079022,Sanitation Code Violation,,2460 N GENEVA TER,60614.0,1171816.39110908,1916795.26238569,43.0,19.0,7.0,41.92714467415349,-87.6440634410778,"(41.92714467415349, -87.64406344107782)",2013-08-02
47823,08/02/2013,Completed,08/05/2013,13-01079299,Sanitation Code Violation,Other,5564 N OLCOTT AVE,60656.0,1125563.05002138,1936016.76000882,41.0,16.0,10.0,41.9807852142951,-87.81359924077098,"(41.9807852142951, -87.81359924077098)",2013-08-02
47824,08/02/2013,Completed,08/05/2013,13-01079440,Sanitation Code Violation,Other,5343 N NEWCASTLE AVE,60656.0,1129941.69561739,1935174.81977359,41.0,16.0,10.0,41.978400813040146,-87.79751509583203,"(41.978400813040146, -87.79751509583203)",2013-08-02
47825,08/02/2013,Completed,08/05/2013,13-01079444,Sanitation Code Violation,Other,7109 W SCHREIBER AVE,60631.0,1127845.1560128,1942545.15991076,41.0,16.0,10.0,41.99866146869618,-87.80505814163959,"(41.99866146869618, -87.8050581416396)",2013-08-02
47833,08/01/2013,Completed,08/05/2013,13-01064876,Sanitation Code Violation,Garbage in yard,2908 W ARTHUR AVE,60645.0,1155733.70658712,1942980.21038804,50.0,24.0,2.0,41.99933727920535,-87.70245210639038,"(41.99933727920535, -87.70245210639037)",2013-08-01
47834,08/01/2013,Completed,08/05/2013,13-01065080,Sanitation Code Violation,Other,3401 S GILES AVE,60616.0,1178821.78043325,1882489.05037786,2.0,2.0,35.0,41.832849227254655,-87.61937059200281,"(41.83284922725466, -87.61937059200282)",2013-08-01
47835,08/01/2013,Completed,08/05/2013,13-01065357,Sanitation Code Violation,Other,1112 E 62ND ST,60637.0,1184527.34067165,1864120.00660036,20.0,3.0,42.0,41.782311165518905,-87.5990120791138,"(41.78231116551891, -87.59901207911382)",2013-08-01
47836,08/01/2013,Completed,08/05/2013,13-01065721,Sanitation Code Violation,Garbage in alley,4248 S COTTAGE GROVE AVE,60653.0,1182315.02990212,1876940.5299773,4.0,2.0,38.0,41.817543307220674,-87.60672560601282,"(41.817543307220674, -87.60672560601282)",2013-08-01
47837,08/01/2013,Completed,08/05/2013,13-01067026,Sanitation Code Violation,Dumpster not being emptied,240 E 35TH ST,60616.0,1178545.14270328,1881839.05452417,2.0,2.0,35.0,41.83107189404944,-87.62040540512159,"(41.831071894049444, -87.62040540512159)",2013-08-01
47838,08/01/2013,Completed,08/05/2013,13-01068532,Sanitation Code Violation,,6240 S MICHIGAN AVE,60637.0,1178257.00287509,1863649.52042204,20.0,3.0,40.0,41.78116474667699,-87.62201494349644,"(41.78116474667699, -87.62201494349644)",2013-08-01
47839,08/01/2013,Completed,08/05/2013,13-01068723,Sanitation Code Violation,Other,1329 S JEFFERSON ST,60607.0,1172531.1009275,1894099.24001391,2.0,1.0,28.0,41.86484967905385,-87.64210910645944,"(41.86484967905385, -87.64210910645943)",2013-08-01
47840,08/01/2013,Completed,08/05/2013,13-01069970,Sanitation Code Violation,Other,1500 S THROOP ST,60608.0,1167946.41221392,1892867.98451268,2.0,12.0,28.0,41.861571074458475,-87.65897494245085,"(41.861571074458475, -87.65897494245084)",2013-08-01
47841,08/01/2013,Completed,08/05/2013,13-01070867,Sanitation Code Violation,Other,1801 W POLK ST,60612.0,1164503.54110025,1896477.1785215999,2.0,12.0,28.0,41.871548536092355,-87.67151092713956,"(41.87154853609236, -87.67151092713956)",2013-08-01
47842,08/01/2013,Completed,08/05/2013,13-01070914,Sanitation Code Violation,Garbage in alley,2932 W JARVIS AVE,60645.0,1155602.15849978,1948916.93759457,50.0,24.0,2.0,42.01563054438845,-87.70277518066429,"(42.01563054438845, -87.70277518066429)",2013-08-01
47843,08/01/2013,Completed,08/05/2013,13-01072773,Sanitation Code Violation,Dog feces in yard,2951 W BELMONT AVE,60618.0,1156051.81999319,1921127.7915235,33.0,14.0,21.0,41.939366583311156,-87.70187435399514,"(41.93936658331116, -87.70187435399512)",2013-08-01
47970,08/06/2013,Completed,08/06/2013,13-01096000,Sanitation Code Violation,Overflowing carts,7159 N ROGERS AVE,60645.0,1160981.75138502,1947763.4108116,49.0,24.0,1.0,42.01235478886834,-87.68301229831297,"(42.01235478886834, -87.68301229831297)",2013-08-06
47971,08/05/2013,Completed,08/06/2013,13-01084839,Sanitation Code Violation,Garbage in yard,4841 W NELSON ST,60641.0,1143566.58197541,1919841.00008995,31.0,25.0,19.0,41.93607870412794,-87.74779384479923,"(41.936078704127944, -87.74779384479923)",2013-08-05
47972,08/05/2013,Completed,08/06/2013,13-01085078,Sanitation Code Violation,Garbage in yard,6512 S KIMBARK AVE,60637.0,1185758.37308766,1862076.38008375,20.0,3.0,42.0,41.77667434238101,-87.59456320180288,"(41.77667434238101, -87.59456320180287)",2013-08-05
47973,08/05/2013,Completed,08/06/2013,13-01085101,Sanitation Code Violation,Other,9927 S LAFAYETTE AVE,60628.0,1177680.34102952,1839144.90049954,9.0,5.0,49.0,41.713934226054775,-87.62486879503729,"(41.713934226054775, -87.62486879503729)",2013-08-05
47974,08/05/2013,Completed,08/06/2013,13-01085709,Sanitation Code Violation,Overflowing carts,2020 W ARMITAGE AVE,60647.0,1162574.57349626,1913298.25199459,32.0,14.0,22.0,41.91774748716584,-87.67812130117628,"(41.91774748716584, -87.67812130117628)",2013-08-05
47975,08/05/2013,Completed,08/06/2013,13-01086332,Sanitation Code Violation,Garbage in alley,1930 W NORTH AVE,60622.0,1163105.3599213,1910663.36409192,32.0,14.0,24.0,41.910506029452044,-87.67624534123159,"(41.91050602945205, -87.67624534123159)",2013-08-05
47976,08/05/2013,Completed,08/06/2013,13-01086348,Sanitation Code Violation,Other,3053 W FARGO AVE,60645.0,1154826.32340672,1949219.36221101,50.0,24.0,2.0,42.0164760555306,-87.7056218465291,"(42.0164760555306, -87.7056218465291)",2013-08-05
47977,08/05/2013,Completed,08/06/2013,13-01086354,Sanitation Code Violation,Other,3039 W FARGO AVE,60645.0,1154917.00849107,1949222.65730198,50.0,24.0,2.0,42.01648327202918,-87.70528806081839,"(42.01648327202918, -87.70528806081839)",2013-08-05
47978,08/05/2013,Completed,08/06/2013,13-01086966,Sanitation Code Violation,Garbage in yard,2200 W ESTES AVE,60645.0,1160157.19718945,1947303.09298229,50.0,24.0,2.0,42.011108812946034,-87.68605903515791,"(42.01110881294603, -87.68605903515791)",2013-08-05
47979,08/05/2013,Completed,08/06/2013,13-01087074,Sanitation Code Violation,Garbage in alley,4619 S ST LOUIS AVE,60632.0,1153883.72197073,1873790.15723208,14.0,8.0,58.0,41.80951064239726,-87.71110399273434,"(41.80951064239726, -87.71110399273434)",2013-08-05
47980,08/05/2013,Completed,08/06/2013,13-01088027,Sanitation Code Violation,Garbage in yard,5845 N ROCKWELL ST,60659.0,1157942.54389579,1938723.39461083,40.0,20.0,2.0,41.987611458493205,-87.69444320537443,"(41.987611458493205, -87.69444320537443)",2013-08-05
47981,08/05/2013,Completed,08/06/2013,13-01088676,Sanitation Code Violation,Garbage in alley,2147 N KENMORE AVE,60614.0,1168947.86239518,1914448.06120129,32.0,18.0,7.0,41.92076662400754,-87.65467226625431,"(41.92076662400754, -87.65467226625431)",2013-08-05
47982,08/05/2013,Completed,08/06/2013,13-01089766,Sanitation Code Violation,Other,6178 N NAGLE AVE,60646.0,1132618.90250473,1940600.51266845,41.0,16.0,10.0,41.99324302923786,-87.78754226160368,"(41.99324302923786, -87.78754226160368)",2013-08-05
47983,08/05/2013,Completed,08/06/2013,13-01090362,Sanitation Code Violation,Other,2537 W LUNT AVE,60645.0,1158151.98989932,1946369.77247231,50.0,24.0,2.0,42.00858911854517,-87.69346268688034,"(42.00858911854517, -87.69346268688034)",2013-08-05
47984,08/05/2013,Completed,08/06/2013,13-01090864,Sanitation Code Violation,Garbage in alley,6004 N PAULINA ST,60660.0,1164095.12001665,1939950.00981668,40.0,24.0,77.0,41.9908491538679,-87.67177887887672,"(41.9908491538679, -87.67177887887672)",2013-08-05
47985,08/05/2013,Completed,08/06/2013,13-01091025,Sanitation Code Violation,Construction Site Cleanliness/Fence,2815 N LAKEWOOD AVE,60657.0,1167152.08088179,1918871.67363266,32.0,19.0,6.0,41.932944064483216,-87.66114289982487,"(41.932944064483216, -87.66114289982488)",2013-08-05
47986,08/05/2013,Completed,08/06/2013,13-01092492,Sanitation Code Violation,Dumpster not being emptied,632 E OHIO ST,60611.0,1180901.48706648,1904291.64457878,42.0,18.0,8.0,41.89262907848056,-87.61106687742392,"(41.89262907848056, -87.61106687742392)",2013-08-05
47987,08/05/2013,Completed,08/06/2013,13-01093047,Sanitation Code Violation,Garbage in alley,2047 W DICKENS AVE,60647.0,1162372.42648598,1913847.15989958,32.0,14.0,22.0,41.919257963360955,-87.67884860553013,"(41.91925796336095, -87.67884860553012)",2013-08-05
47988,08/05/2013,Completed,08/06/2013,13-01093838,Sanitation Code Violation,Other,2400 W 55TH ST,60632.0,1161304.56226739,1868147.78041554,14.0,9.0,63.0,41.793876583528366,-87.68404176974686,"(41.793876583528366, -87.68404176974686)",2013-08-05
47989,08/05/2013,Completed,08/06/2013,13-01094058,Sanitation Code Violation,Garbage in alley,1630 W MELROSE ST,60657.0,1164832.60359535,1921641.59006677,32.0,19.0,6.0,41.94059445079775,-87.66958793226601,"(41.94059445079774, -87.66958793226601)",2013-08-05
47990,08/05/2013,Completed,08/06/2013,13-01094265,Sanitation Code Violation,Garbage in alley,1014 W DICKENS AVE,60614.0,1169139.47901164,1914139.21479353,32.0,18.0,7.0,41.91991496965672,-87.65397721998106,"(41.91991496965672, -87.65397721998106)",2013-08-05
47991,08/05/2013,Completed,08/06/2013,13-01094376,Sanitation Code Violation,Garbage in yard,5600 S FRANCISCO AVE,60629.0,1157998.5211989,1867376.00508177,14.0,8.0,63.0,41.791826606338574,-87.6961858738496,"(41.791826606338574, -87.6961858738496)",2013-08-05
47992,08/03/2013,Completed,08/06/2013,13-01081066,Sanitation Code Violation,Construction Site Cleanliness/Fence,720 W BELMONT AVE,60657.0,1170890.75997768,1921475.60121776,44.0,19.0,6.0,41.940008093383526,-87.64732710606182,"(41.94000809338352, -87.64732710606182)",2013-08-03
47993,08/03/2013,Completed,08/06/2013,13-01081230,Sanitation Code Violation,Other,11248 S LANGLEY AVE,60628.0,1182920.74517197,1830513.68731835,9.0,5.0,50.0,41.69012913102304,-87.60594356958565,"(41.69012913102304, -87.60594356958565)",2013-08-03
47994,08/03/2013,Completed,08/06/2013,13-01081325,Sanitation Code Violation,Garbage in yard,4024 N MCVICKER AVE,60634.0,1135302.66981018,1926125.65218366,38.0,16.0,15.0,41.953475320805396,-87.77801531906228,"(41.953475320805396, -87.77801531906226)",2013-08-03
47995,08/03/2013,Completed,08/06/2013,13-01081997,Sanitation Code Violation,Dog feces in yard,3645 N CUMBERLAND AVE,60634.0,1119421.29047544,1923153.5900033,36.0,16.0,17.0,41.94558713969075,-87.83646145212235,"(41.94558713969075, -87.83646145212234)",2013-08-03
47996,08/03/2013,Completed,08/06/2013,13-01082326,Sanitation Code Violation,Other,3019 N CLIFTON AVE,60657.0,1168095.55231951,1920198.97697805,44.0,19.0,6.0,41.936565898636104,-87.6576373004553,"(41.9365658986361, -87.6576373004553)",2013-08-03
47997,08/03/2013,Completed,08/06/2013,13-01082377,Sanitation Code Violation,Other,2940 N KOSTNER AVE,60641.0,1146540.24730641,1919190.23891235,31.0,25.0,20.0,41.93423670356749,-87.7368818775407,"(41.93423670356749, -87.73688187754071)",2013-08-03
47998,08/04/2013,Completed,08/06/2013,13-01083173,Sanitation Code Violation,Overflowing carts,847 W ADDISON ST,60613.0,1169879.30997158,1924124.59002592,44.0,19.0,6.0,41.94729917632583,-87.65096697528949,"(41.94729917632583, -87.6509669752895)",2013-08-04
47999,08/04/2013,Completed,08/06/2013,13-01083712,Sanitation Code Violation,Garbage in alley,725 W MELROSE ST,60657.0,1170817.12641148,1921868.69302479,44.0,19.0,6.0,41.94108836962071,-87.64758617337618,"(41.94108836962071, -87.64758617337618)",2013-08-04
48000,08/04/2013,Completed,08/06/2013,13-01083729,Sanitation Code Violation,Other,5642 W HENDERSON ST,60634.0,1138157.66177907,1921707.87431852,38.0,16.0,15.0,41.94130125491186,-87.76762713161772,"(41.94130125491186, -87.76762713161772)",2013-08-04
48001,08/05/2013,Completed - Dup,08/06/2013,13-01084848,Sanitation Code Violation,Garbage in yard,4841 W NELSON ST,60641.0,1143566.58197541,1919841.00008995,31.0,25.0,19.0,41.93607870412794,-87.74779384479923,"(41.936078704127944, -87.74779384479923)",2013-08-05
48002,08/01/2013,Completed,08/06/2013,13-01072355,Sanitation Code Violation,Other,816 N CALIFORNIA AVE,60622.0,1157574.34926974,1905315.41317771,26.0,12.0,24.0,41.89594527267955,-87.6967100206892,"(41.89594527267955, -87.69671002068921)",2013-08-01
48003,08/02/2013,Completed,08/06/2013,13-01073424,Sanitation Code Violation,Garbage in alley,1315 N ROCKWELL ST,60622.0,1158828.97021076,1908706.53857131,26.0,14.0,24.0,41.90522516648394,-87.69200894618847,"(41.90522516648394, -87.69200894618847)",2013-08-02
48004,08/02/2013,Completed,08/06/2013,13-01073969,Sanitation Code Violation,Other,3529 N NEW ENGLAND AVE,60634.0,1129790.4375993,1922687.54656811,36.0,16.0,17.0,41.9441369944931,-87.79835807057482,"(41.9441369944931, -87.79835807057482)",2013-08-02
48005,08/02/2013,Completed,08/06/2013,13-01074302,Sanitation Code Violation,Garbage in alley,2100 N NARRAGANSETT AVE,60639.0,1133409.41250282,1913268.59752457,36.0,25.0,19.0,41.91822755988779,-87.78527737918672,"(41.91822755988779, -87.78527737918674)",2013-08-02
48006,08/02/2013,Completed,08/06/2013,13-01074949,Sanitation Code Violation,Other,6226 W MONTROSE AVE,60634.0,1133938.67997428,1928592.95091805,38.0,16.0,15.0,41.960269983973376,-87.78297130737806,"(41.960269983973376, -87.78297130737806)",2013-08-02
48007,08/02/2013,Completed,08/06/2013,13-01076760,Sanitation Code Violation,Overflowing carts,4907 W ALTGELD ST,60639.0,1143257.61830096,1916189.1781757,31.0,25.0,19.0,41.926063530602974,-87.74902079230992,"(41.926063530602974, -87.74902079230992)",2013-08-02
48008,08/02/2013,Completed,08/06/2013,13-01077417,Sanitation Code Violation,,5005 W PARKER AVE,60639.0,1142546.46018594,1917822.98398812,31.0,25.0,19.0,41.9305601271635,-87.75159325522829,"(41.9305601271635, -87.75159325522829)",2013-08-02
48009,08/02/2013,Completed,08/06/2013,13-01078439,Sanitation Code Violation,Overflowing carts,3030 N CLYBOURN AVE,60618.0,1160961.92602151,1920088.97977984,1.0,19.0,5.0,41.9364153529798,-87.68385724891762,"(41.9364153529798, -87.68385724891763)",2013-08-02
48018,08/01/2013,Completed - Dup,08/06/2013,13-01072358,Sanitation Code Violation,Other,817 N MOZART ST,60622.0,1157234.76989025,1905355.79343356,26.0,12.0,24.0,41.896062987266795,-87.6979561291629,"(41.8960629872668, -87.6979561291629)",2013-08-01
48019,08/01/2013,Completed,08/06/2013,13-01064956,Sanitation Code Violation,Garbage in alley,3130 W WALTON ST,60622.0,1155293.92796843,1906164.39540269,26.0,12.0,23.0,41.89832108564496,-87.70506272400145,"(41.89832108564496, -87.70506272400144)",2013-08-01
48020,08/01/2013,Completed,08/06/2013,13-01067704,Sanitation Code Violation,Dumpster not being emptied,4218 N MOODY AVE,60634.0,1134596.04752451,1927404.76427857,38.0,16.0,15.0,41.95699786960029,-87.78058264306688,"(41.9569978696003, -87.78058264306688)",2013-08-01
48021,08/01/2013,Completed,08/06/2013,13-01068294,Sanitation Code Violation,Other,5150 W ADDISON ST,60641.0,1141720.3998973998,1923454.8433258,38.0,16.0,15.0,41.94602983894796,-87.75448913592312,"(41.94602983894795, -87.75448913592312)",2013-08-01
48022,08/01/2013,Completed,08/06/2013,13-01068317,Sanitation Code Violation,Garbage in yard,3023 N OCTAVIA AVE,60707.0,1126893.91616994,1919300.37918866,36.0,25.0,17.0,41.9348913067137,-87.80908076164795,"(41.9348913067137, -87.80908076164795)",2013-08-01
48023,08/01/2013,Completed,08/06/2013,13-01068725,Sanitation Code Violation,Other,549 E 104TH PL,60628.0,1181893.68128821,1835791.27001951,9.0,5.0,49.0,41.70463526287961,-87.6095412836505,"(41.704635262879606, -87.60954128365049)",2013-08-01
48024,08/01/2013,Completed,08/06/2013,13-01068778,Sanitation Code Violation,Other,4309 S SACRAMENTO AVE,60632.0,1157076.22962754,1875924.90800447,14.0,9.0,58.0,41.81530465065335,-87.6993365522772,"(41.81530465065335, -87.6993365522772)",2013-08-01
48025,08/01/2013,Completed,08/06/2013,13-01072259,Sanitation Code Violation,Other,521 N MARSHFIELD AVE,60622.0,1165301.73012448,1903670.3283198,26.0,12.0,24.0,41.891270190099746,-87.66837584997343,"(41.89127019009975, -87.66837584997343)",2013-08-01
48026,08/01/2013,Completed,08/06/2013,13-01072354,Sanitation Code Violation,Other,817 N MOZART ST,60622.0,1157234.76989025,1905355.79343356,26.0,12.0,24.0,41.896062987266795,-87.6979561291629,"(41.8960629872668, -87.6979561291629)",2013-08-01
48056,08/07/2013,Completed,08/07/2013,13-01106386,Sanitation Code Violation,Dumpster not being emptied,3036 N MILWAUKEE AVE,60618.0,1151293.86001854,1920004.62999016,30.0,25.0,21.0,41.93637938008957,-87.71939085362456,"(41.93637938008957, -87.71939085362455)",2013-08-07
48057,08/07/2013,Completed,08/07/2013,13-01106411,Sanitation Code Violation,Garbage in alley,2910 N RIDGEWAY AVE,60618.0,1150865.25103148,1919106.58279703,30.0,25.0,21.0,41.93392347657125,-87.720989622698,"(41.933923476571245, -87.720989622698)",2013-08-07
48058,08/07/2013,Completed,08/07/2013,13-01106445,Sanitation Code Violation,Garbage in yard,3246 S HOYNE AVE,60608.0,1162873.03007769,1883132.96608323,12.0,9.0,59.0,41.83496504218632,-87.67787113571775,"(41.83496504218632, -87.67787113571775)",2013-08-07
48059,08/07/2013,Completed,08/07/2013,13-01107155,Sanitation Code Violation,Other,4801 N MONT CLARE AVE,60656.0,1127968.44996636,1931482.41159915,41.0,16.0,10.0,41.9683021014202,-87.80485567569784,"(41.9683021014202, -87.80485567569784)",2013-08-07
48060,08/07/2013,Completed,08/07/2013,13-01107176,Sanitation Code Violation,Other,7225 W TOUHY AVE,60631.0,1127110.80999283,1947288.84172831,41.0,16.0,9.0,42.011690959583504,-87.8076524841187,"(42.0116909595835, -87.8076524841187)",2013-08-07
48061,08/07/2013,Completed,08/07/2013,13-01103520,Sanitation Code Violation,Overflowing carts,1924 W NORTH AVE,60622.0,1163172.1599213001,1910665.16409192,32.0,14.0,24.0,41.91050956425453,-87.67599989288072,"(41.910509564254525, -87.67599989288074)",2013-08-07
48062,08/07/2013,Completed,08/07/2013,13-01103539,Sanitation Code Violation,Overflowing carts,1646 N DAMEN AVE,60647.0,1162762.77008557,1911091.35997427,32.0,14.0,24.0,41.911687675452214,-87.67749186327356,"(41.91168767545221, -87.67749186327357)",2013-08-07
48063,08/07/2013,Completed,08/07/2013,13-01104163,Sanitation Code Violation,Garbage in yard,1620 N SPAULDING AVE,60647.0,1153895.70878646,1910571.50297562,26.0,14.0,23.0,41.91044257493152,-87.71008069674194,"(41.91044257493152, -87.71008069674193)",2013-08-07
48064,08/07/2013,Completed,08/07/2013,13-01105098,Sanitation Code Violation,Garbage in yard,4744 W SCHOOL ST,60641.0,1144188.97069279,1921518.88560655,30.0,17.0,15.0,41.94067129059019,-87.74546419651993,"(41.94067129059019, -87.74546419651992)",2013-08-07
48065,08/07/2013,Completed,08/07/2013,13-01105212,Sanitation Code Violation,Overflowing carts,1448 W ELMDALE AVE,60660.0,1165572.3041323,1939959.09139685,48.0,24.0,77.0,41.99084263275609,-87.66634519911068,"(41.99084263275609, -87.66634519911068)",2013-08-07
48066,08/07/2013,Completed,08/07/2013,13-01106200,Sanitation Code Violation,,2500 N CENTRAL AVE,60639.0,1138622.79797399,1916063.65358805,30.0,25.0,19.0,41.92580448241983,-87.76605481101231,"(41.92580448241983, -87.76605481101232)",2013-08-07
48067,08/06/2013,Completed - Dup,08/07/2013,13-01101953,Sanitation Code Violation,Garbage in alley,2041 W ARMITAGE AVE,60647.0,1162431.67349626,1913293.15199459,32.0,14.0,22.0,41.9177364870867,-87.67864646381094,"(41.9177364870867, -87.67864646381094)",2013-08-06
48068,08/06/2013,Completed,08/07/2013,13-01094756,Sanitation Code Violation,Construction Site Cleanliness/Fence,2727 N CLARK ST,60614.0,1171655.59588549,1918541.61863142,43.0,19.0,7.0,41.931940296980244,-87.64460274411844,"(41.93194029698024, -87.64460274411843)",2013-08-06
48069,08/06/2013,Completed,08/07/2013,13-01095364,Sanitation Code Violation,Overflowing carts,3814 W 58TH PL,60629.0,1151945.69951619,1865542.74457516,13.0,8.0,62.0,41.786916817064345,-87.71842880011194,"(41.78691681706434, -87.71842880011194)",2013-08-06
48070,08/06/2013,Completed,08/07/2013,13-01096294,Sanitation Code Violation,Garbage in yard,10246 S AVENUE N,60617.0,1201165.71059989,1837620.45998301,10.0,4.0,52.0,41.709188563451946,-87.53890952612757,"(41.709188563451946, -87.53890952612757)",2013-08-06
48071,08/06/2013,Completed,08/07/2013,13-01096465,Sanitation Code Violation,Overflowing carts,1923 N ELSTON AVE,60642.0,1165641.3884068998,1913069.70978296,32.0,14.0,22.0,41.91705550526841,-87.66686026066486,"(41.91705550526841, -87.66686026066486)",2013-08-06
48072,08/06/2013,Completed,08/07/2013,13-01096512,Sanitation Code Violation,Garbage in alley,3535 N CICERO AVE,60641.0,1143747.30687971,1923246.52988351,30.0,17.0,15.0,41.94542040483257,-87.7470440563657,"(41.94542040483257, -87.7470440563657)",2013-08-06
48073,08/06/2013,Completed,08/07/2013,13-01096975,Sanitation Code Violation,Garbage in alley,1650 N ST LOUIS AVE,60647.0,1153019.10309875,1910416.68292992,26.0,14.0,23.0,41.910035168597744,-87.71330514205933,"(41.91003516859774, -87.71330514205933)",2013-08-06
48074,08/06/2013,Completed,08/07/2013,13-01097558,Sanitation Code Violation,Other,1623 S CARPENTER ST,60608.0,1169462.97009595,1892161.75638449,25.0,12.0,31.0,41.8596003040207,-87.65342849186355,"(41.8596003040207, -87.65342849186355)",2013-08-06
48075,08/06/2013,Completed,08/07/2013,13-01097790,Sanitation Code Violation,Garbage in yard,6112 S MASON AVE,60638.0,1137784.12436859,1863411.44040219,13.0,8.0,64.0,41.78133433105461,-87.7704049236987,"(41.78133433105461, -87.77040492369872)",2013-08-06
48076,08/06/2013,Completed,08/07/2013,13-01099029,Sanitation Code Violation,Overflowing carts,3218 S HOYNE AVE,60608.0,1162866.93007769,1883320.16608323,12.0,9.0,59.0,41.8354788668229,-87.67788827710041,"(41.8354788668229, -87.6778882771004)",2013-08-06
48077,08/06/2013,Completed,08/07/2013,13-01100724,Sanitation Code Violation,Other,2824 N ASHLAND AVE,60657.0,1165170.83567512,1918914.79149975,32.0,19.0,6.0,41.93310477662373,-87.66842254488367,"(41.93310477662373, -87.66842254488367)",2013-08-06
48078,08/06/2013,Completed,08/07/2013,13-01100784,Sanitation Code Violation,Dog feces in yard,6832 S PRAIRIE AVE,60637.0,1179219.03297742,1859774.13193121,20.0,3.0,69.0,41.770508393815525,-87.61860604778587,"(41.77050839381552, -87.61860604778587)",2013-08-06
48079,08/06/2013,Completed,08/07/2013,13-01101215,Sanitation Code Violation,Dumpster not being emptied,5608 W IRVING PARK RD,60634.0,1138207.64747507,1926037.0148264,38.0,16.0,15.0,41.95317994182216,-87.76733834091742,"(41.953179941822164, -87.76733834091742)",2013-08-06
48080,08/06/2013,Completed,08/07/2013,13-01101464,Sanitation Code Violation,Dumpster not being emptied,1545 W HOMER ST,60642.0,1165713.2884069,1913208.20978296,32.0,14.0,22.0,41.91743402427476,-87.66659214504897,"(41.917434024274755, -87.66659214504897)",2013-08-06
48081,08/06/2013,Completed,08/07/2013,13-01101495,Sanitation Code Violation,Garbage in alley,3307 N KOLMAR AVE,60641.0,1145463.12998713,1921603.34996655,30.0,17.0,16.0,41.94087899521941,-87.74077901192415,"(41.940878995219414, -87.74077901192415)",2013-08-06
48082,08/06/2013,Completed,08/07/2013,13-01101648,Sanitation Code Violation,Other,7252 W TOUHY AVE,60631.0,1126951.20999283,1947282.54172831,41.0,16.0,9.0,42.011676359709746,-87.80823987802384,"(42.01167635970974, -87.80823987802383)",2013-08-06
48083,08/06/2013,Completed,08/07/2013,13-01101952,Sanitation Code Violation,Garbage in yard,2041 W ARMITAGE AVE,60647.0,1162431.67349626,1913293.15199459,32.0,14.0,22.0,41.9177364870867,-87.67864646381094,"(41.9177364870867, -87.67864646381094)",2013-08-06
48084,08/06/2013,Completed,08/07/2013,13-01102370,Sanitation Code Violation,Other,5800 W BYRON ST,60634.0,1136992.09763094,1925334.08967174,38.0,16.0,15.0,41.95127298742654,-87.77182379258372,"(41.95127298742654, -87.77182379258372)",2013-08-06
48085,08/04/2013,Completed,08/07/2013,13-01084260,Sanitation Code Violation,Garbage in alley,2633 W BELDEN AVE,60647.0,1158255.75281309,1915173.81009233,1.0,14.0,22.0,41.922983606748524,-87.69393745572637,"(41.92298360674852, -87.69393745572638)",2013-08-04
48086,08/04/2013,Completed,08/07/2013,13-01084280,Sanitation Code Violation,Dumpster not being emptied,1513 N HONORE ST,60622.0,1163603.197825,1910123.66355,1.0,14.0,24.0,41.90901457345456,-87.67443170591422,"(41.909014573454556, -87.6744317059142)",2013-08-04
48087,08/05/2013,Completed,08/07/2013,13-01084951,Sanitation Code Violation,Construction Site Cleanliness/Fence,2004 W ERIE ST,60612.0,1162928.30921953,1904345.03262396,1.0,12.0,24.0,41.893171774252814,-87.67707332076857,"(41.89317177425281, -87.67707332076856)",2013-08-05
48088,08/05/2013,Completed,08/07/2013,13-01086521,Sanitation Code Violation,Overflowing carts,1504 N HUDSON AVE,60610.0,1173042.60948914,1910322.65298525,43.0,18.0,8.0,41.90935639924001,-87.63974999996458,"(41.90935639924001, -87.63974999996458)",2013-08-05
48089,08/05/2013,Completed,08/07/2013,13-01087031,Sanitation Code Violation,Other,2722 W FLETCHER ST,60618.0,1157647.84157833,1920775.65188041,1.0,14.0,21.0,41.938367877795976,-87.696018134335,"(41.93836787779598, -87.696018134335)",2013-08-05
48090,08/05/2013,Completed,08/07/2013,13-01087232,Sanitation Code Violation,Garbage in alley,4116 N SHERIDAN RD,60613.0,1168858.50461597,1927664.4099810002,46.0,19.0,3.0,41.95703481732364,-87.65461611964069,"(41.95703481732364, -87.65461611964069)",2013-08-05
48091,08/05/2013,Completed,08/07/2013,13-01087298,Sanitation Code Violation,Other,632 N ASHLAND AVE,60622.0,1165612.84437495,1904428.24158667,1.0,12.0,24.0,41.89334333853903,-87.66721167098501,"(41.893343338539026, -87.66721167098501)",2013-08-05
48092,08/05/2013,Completed,08/07/2013,13-01088133,Sanitation Code Violation,Garbage in alley,5320 S HAMLIN AVE,60632.0,1151941.75933321,1869065.51259548,23.0,8.0,62.0,41.796583897587325,-87.7183508509575,"(41.79658389758733, -87.7183508509575)",2013-08-05
48093,08/05/2013,Completed,08/07/2013,13-01090272,Sanitation Code Violation,Garbage in alley,2234 N FREMONT ST,60614.0,1169919.5400869,1915051.997984,43.0,18.0,7.0,41.9224027005808,-87.65108448540389,"(41.9224027005808, -87.65108448540387)",2013-08-05
48094,08/05/2013,Completed,08/07/2013,13-01090683,Sanitation Code Violation,Other,3752 W 54TH ST,60632.0,1152190.92007305,1868539.41492069,23.0,8.0,62.0,41.795135312978246,-87.71745096700647,"(41.795135312978246, -87.71745096700647)",2013-08-05
48095,08/05/2013,Completed,08/07/2013,13-01091107,Sanitation Code Violation,,4559 W MONTANA ST,60639.0,1145588.64508274,1915933.96987322,31.0,25.0,20.0,41.925319306291854,-87.74046178553832,"(41.925319306291854, -87.74046178553832)",2013-08-05
48096,08/05/2013,Completed,08/07/2013,13-01092747,Sanitation Code Violation,Construction Site Cleanliness/Fence,5309 S KOLIN AVE,60632.0,1148265.03821354,1869054.69997844,23.0,8.0,62.0,41.79662561501185,-87.73183418568445,"(41.796625615011855, -87.73183418568446)",2013-08-05
48097,08/05/2013,Completed,08/07/2013,13-01093168,Sanitation Code Violation,Garbage in yard,456 N PAULINA ST,60622.0,1164981.18607972,1903350.29299746,26.0,12.0,24.0,41.89039879938123,-87.66956214347584,"(41.89039879938123, -87.66956214347584)",2013-08-05
48098,08/05/2013,Completed,08/07/2013,13-01093584,Sanitation Code Violation,Other,3246 W PALMER ST,60647.0,1154179.30089904,1914435.00212201,26.0,14.0,22.0,41.92103868745889,-87.7089355502246,"(41.92103868745889, -87.7089355502246)",2013-08-05
48099,08/05/2013,Completed,08/07/2013,13-01093586,Sanitation Code Violation,Other,2212 N SAWYER AVE,60647.0,1154148.20089904,1914515.20212201,26.0,14.0,22.0,41.92125938423445,-87.70904767406857,"(41.92125938423445, -87.70904767406857)",2013-08-05
48100,08/05/2013,Completed,08/07/2013,13-01093647,Sanitation Code Violation,Dog feces in yard,1936 N WILMOT AVE,60647.0,1160562.02258222,1912877.19472777,1.0,14.0,22.0,41.91663403026279,-87.6855271761594,"(41.91663403026279, -87.68552717615941)",2013-08-05
48101,08/05/2013,Completed,08/07/2013,13-01093871,Sanitation Code Violation,Garbage in alley,2400 N JANSSEN AVE,60614.0,1166240.51602459,1916042.62719867,32.0,19.0,7.0,41.925200568292695,-87.66457389538753,"(41.925200568292695, -87.66457389538753)",2013-08-05
48102,08/05/2013,Completed,08/07/2013,13-01093919,Sanitation Code Violation,Garbage in yard,5200 S KILDARE AVE,60632.0,1148576.69249402,1869789.30470268,23.0,8.0,57.0,41.79863549312096,-87.73067241750803,"(41.79863549312096, -87.73067241750803)",2013-08-05
48103,08/05/2013,Completed,08/07/2013,13-01094262,Sanitation Code Violation,Garbage in yard,2524 W CHARLESTON ST,60647.0,1159402.94001968,1914084.45902693,1.0,14.0,22.0,41.919970798691956,-87.68975233459982,"(41.91997079869196, -87.68975233459982)",2013-08-05
48104,08/05/2013,Completed,08/07/2013,13-01094447,Sanitation Code Violation,Garbage in alley,932 W AGATITE AVE,60640.0,1169246.9681908002,1929734.07211798,46.0,19.0,3.0,41.962705588742686,-87.65312762454043,"(41.962705588742686, -87.65312762454042)",2013-08-05
48105,08/02/2013,Completed,08/07/2013,13-01074748,Sanitation Code Violation,Garbage in yard,10153 S CRANDON AVE,60617.0,1193500.71759996,1838104.54471214,10.0,4.0,51.0,41.710707564817355,-87.56696326280823,"(41.710707564817355, -87.56696326280823)",2013-08-02
48106,08/02/2013,Completed,08/07/2013,13-01075688,Sanitation Code Violation,Garbage in alley,1717 N SAYRE AVE,60707.0,1129323.95153311,1910640.37960417,36.0,25.0,25.0,41.91108605081685,-87.80034794809983,"(41.91108605081684, -87.80034794809983)",2013-08-02
48107,08/02/2013,Completed,08/07/2013,13-01077667,Sanitation Code Violation,Garbage in alley,3309 W DIVERSEY AVE,60647.0,1153795.53351358,1918425.63400433,35.0,14.0,22.0,41.931996963622716,-87.71023905698567,"(41.93199696362271, -87.71023905698567)",2013-08-02
48108,08/01/2013,Completed,08/07/2013,13-01066241,Sanitation Code Violation,Garbage in alley,2548 W HOMER ST,60647.0,1159067.58280036,1912867.4344313,1.0,14.0,22.0,41.91663809186094,-87.69101798523377,"(41.91663809186094, -87.69101798523376)",2013-08-01
48109,08/01/2013,Completed,08/07/2013,13-01072197,Sanitation Code Violation,Garbage in alley,1501 N PAULINA ST,60622.0,1164784.75120737,1910167.94981049,1.0,14.0,24.0,41.909111109611246,-87.6700899775289,"(41.909111109611246, -87.67008997752889)",2013-08-01
48150,08/08/2013,Completed,08/08/2013,13-01111592,Sanitation Code Violation,Other,5900 N NAPER AVE,60631.0,1131063.93271794,1939074.67358661,41.0,16.0,10.0,41.98908304146941,-87.79329753291245,"(41.98908304146941, -87.79329753291243)",2013-08-08
48151,08/08/2013,Completed,08/08/2013,13-01112909,Sanitation Code Violation,,2414 N PARKSIDE AVE,60639.0,1138310.75581517,1915484.27270479,30.0,25.0,19.0,41.92422025662994,-87.76721548343838,"(41.92422025662994, -87.76721548343838)",2013-08-08
48152,08/08/2013,Completed,08/08/2013,13-01112916,Sanitation Code Violation,,2157 N TRIPP AVE,60639.0,1147698.01342891,1913999.88007422,30.0,25.0,20.0,41.919971698897626,-87.73276066560688,"(41.919971698897626, -87.73276066560688)",2013-08-08
48153,08/08/2013,Completed,08/08/2013,13-01112922,Sanitation Code Violation,,2155 N TRIPP AVE,60639.0,1147698.41342891,1913986.38007422,30.0,25.0,20.0,41.9199346459193,-87.73275954329674,"(41.9199346459193, -87.73275954329674)",2013-08-08
48154,08/08/2013,Completed,08/08/2013,13-01112935,Sanitation Code Violation,,2151 N TRIPP AVE,60639.0,1147699.21342891,1913959.38007422,30.0,25.0,20.0,41.91986053996193,-87.73275729867956,"(41.91986053996193, -87.73275729867957)",2013-08-08
48155,08/08/2013,Completed,08/08/2013,13-01113483,Sanitation Code Violation,,2106 N TRIPP AVE,60639.0,1147707.61152636,1913655.01229495,30.0,25.0,20.0,41.91902516419665,-87.73273427440003,"(41.91902516419665, -87.73273427440002)",2013-08-08
48156,08/08/2013,Completed,08/08/2013,13-01114472,Sanitation Code Violation,Other,3434 N RAVENSWOOD AVE,60657.0,1163637.90629543,1922949.47992979,32.0,19.0,5.0,41.94420867100517,-87.67394187605045,"(41.944208671005164, -87.67394187605045)",2013-08-08
48157,08/08/2013,Completed,08/08/2013,13-01114784,Sanitation Code Violation,Other,1814 W NEWPORT AVE,60657.0,1163556.80629543,1922937.47992979,32.0,19.0,5.0,41.94417745394225,-87.67424030234267,"(41.94417745394225, -87.67424030234267)",2013-08-08
48158,08/08/2013,Completed,08/08/2013,13-01115908,Sanitation Code Violation,Garbage in alley,5054 N WINTHROP AVE,60640.0,1167952.81138092,1933965.6297983,48.0,20.0,3.0,41.97434521216717,-87.65776304528431,"(41.974345212167165, -87.65776304528431)",2013-08-08
48159,08/08/2013,Completed,08/08/2013,13-01116192,Sanitation Code Violation,,4357 W PALMER ST,60639.0,1146896.3100326,1914265.02112886,30.0,25.0,20.0,41.920714640523954,-87.73569949692008,"(41.920714640523954, -87.73569949692006)",2013-08-08
48160,08/07/2013,Completed,08/08/2013,13-01103908,Sanitation Code Violation,Other,1600 N HALSTED ST,60614.0,1170718.48466962,1910873.65078725,43.0,18.0,7.0,41.910919619882186,-87.64827157397384,"(41.910919619882186, -87.64827157397384)",2013-08-07
48161,08/07/2013,Completed,08/08/2013,13-01105436,Sanitation Code Violation,Other,4439 N MAGNOLIA AVE,60640.0,1167112.3899997,1929612.14609561,46.0,19.0,3.0,41.962417249233326,-87.66097913620204,"(41.962417249233326, -87.66097913620204)",2013-08-07
48162,08/07/2013,Completed,08/08/2013,13-01106126,Sanitation Code Violation,Other,2711 N ST LOUIS AVE,60647.0,1152582.88182711,1917858.20021597,35.0,14.0,22.0,41.93046397633572,-87.71471044905455,"(41.93046397633572, -87.71471044905455)",2013-08-07
48163,08/07/2013,Completed,08/08/2013,13-01106155,Sanitation Code Violation,Other,2256 W FOSTER AVE,60625.0,1160359.46968372,1934488.82320008,40.0,20.0,4.0,41.97594180058237,-87.68567138490783,"(41.97594180058237, -87.68567138490783)",2013-08-07
48164,08/07/2013,Completed,08/08/2013,13-01106385,Sanitation Code Violation,Other,2914 N RIDGEWAY AVE,60618.0,1150890.85103148,1919140.78279703,30.0,25.0,21.0,41.934016822426095,-87.7208946450408,"(41.934016822426095, -87.7208946450408)",2013-08-07
48165,08/07/2013,Completed,08/08/2013,13-01106519,Sanitation Code Violation,Other,6417 S EVANS AVE,60637.0,1182322.07592862,1862625.65278791,20.0,3.0,42.0,41.778261914923775,-87.6071433688341,"(41.77826191492377, -87.60714336883409)",2013-08-07
48166,08/07/2013,Completed,08/08/2013,13-01107755,Sanitation Code Violation,Other,2321 W FOSTER AVE,60625.0,1159830.6098838998,1934474.31389614,47.0,20.0,4.0,41.97591294188637,-87.68761660766681,"(41.97591294188637, -87.68761660766681)",2013-08-07
48167,08/07/2013,Completed,08/08/2013,13-01108344,Sanitation Code Violation,Garbage in alley,815 W DICKENS AVE,60614.0,1170449.60299483,1914175.27759613,43.0,18.0,7.0,41.91998534718793,-87.64916258622813,"(41.91998534718793, -87.64916258622813)",2013-08-07
48168,08/07/2013,Completed,08/08/2013,13-01108345,Sanitation Code Violation,Garbage in alley,817 W DICKENS AVE,60614.0,1170428.21581711,1914174.69773396,43.0,18.0,7.0,41.91998422420407,-87.64924118273689,"(41.91998422420407, -87.64924118273689)",2013-08-07
48169,08/07/2013,Completed,08/08/2013,13-01108349,Sanitation Code Violation,Garbage in alley,819 W DICKENS AVE,60614.0,1170406.91581711,1914174.09773396,43.0,18.0,7.0,41.919983043999096,-87.6493194595305,"(41.91998304399909, -87.6493194595305)",2013-08-07
48170,08/07/2013,Completed,08/08/2013,13-01108703,Sanitation Code Violation,Garbage in yard,4015 N MEADE AVE,60634.0,1134972.35788988,1926060.52830571,38.0,16.0,15.0,41.953302481033184,-87.77923114446907,"(41.953302481033184, -87.77923114446907)",2013-08-07
48171,08/07/2013,Completed,08/08/2013,13-01108747,Sanitation Code Violation,Dumpster not being emptied,5630 W MONTROSE AVE,60634.0,1137882.19987848,1928690.55239807,38.0,16.0,15.0,41.96046739383122,-87.7684704306711,"(41.960467393831216, -87.76847043067109)",2013-08-07
48172,08/07/2013,Completed,08/08/2013,13-01109071,Sanitation Code Violation,Garbage in alley,1043 W WEBSTER AVE,60614.0,1168882.46970948,1914793.57980012,32.0,18.0,7.0,41.921716165308,-87.65490248797258,"(41.921716165308, -87.65490248797258)",2013-08-07
48173,08/07/2013,Completed,08/08/2013,13-01109654,Sanitation Code Violation,Other,156 W WASHINGTON ST,60602.0,1175070.72307249,1900810.35693339,42.0,1.0,32.0,41.883208917733015,-87.63258509054022,"(41.883208917733015, -87.63258509054022)",2013-08-07
48174,08/07/2013,Completed,08/08/2013,13-01109839,Sanitation Code Violation,Garbage in yard,4855 S WOLCOTT AVE,60609.0,1164504.75219438,1872481.85192856,20.0,9.0,61.0,41.80570287591337,-87.67218459189655,"(41.80570287591337, -87.67218459189655)",2013-08-07
48175,08/07/2013,Completed,08/08/2013,13-01109956,Sanitation Code Violation,Garbage in yard,3849 N SOUTHPORT AVE,60613.0,1166281.33527715,1925714.24992482,44.0,19.0,6.0,41.95173911448123,-87.6641464926757,"(41.95173911448123, -87.6641464926757)",2013-08-07
48176,08/07/2013,Completed,08/08/2013,13-01110173,Sanitation Code Violation,Overflowing carts,2341 N MONTICELLO AVE,60647.0,1151655.77679,1915320.03081083,35.0,25.0,22.0,41.92351732931919,-87.71818428237727,"(41.92351732931919, -87.71818428237727)",2013-08-07
48177,08/07/2013,Completed,08/08/2013,13-01110190,Sanitation Code Violation,Garbage in alley,2122 N TRIPP AVE,60639.0,1147704.61152636,1913763.21229495,30.0,25.0,20.0,41.91932213303939,-87.73274251273632,"(41.91932213303938, -87.73274251273631)",2013-08-07
48178,08/07/2013,Completed,08/08/2013,13-01110351,Sanitation Code Violation,Other,735 S LOOMIS ST,60607.0,1167162.57717156,1896854.5599006999,25.0,12.0,28.0,41.872527427812756,-87.66173776072922,"(41.87252742781276, -87.66173776072922)",2013-08-07
48179,08/07/2013,Completed,08/08/2013,13-01110537,Sanitation Code Violation,,1820 W 18TH ST,60608.0,1164519.93492169,1891437.08202077,25.0,12.0,31.0,41.85771771180144,-87.67159337257603,"(41.85771771180144, -87.67159337257603)",2013-08-07
48180,08/07/2013,Completed,08/08/2013,13-01110811,Sanitation Code Violation,Garbage in alley,1418 W GRACE ST,60613.0,1166101.19003127,1925334.30001331,44.0,19.0,6.0,41.95070037287139,-87.6648195967533,"(41.95070037287139, -87.66481959675332)",2013-08-07
48181,08/06/2013,Completed,08/08/2013,13-01099978,Sanitation Code Violation,Other,345 W BELMONT AVE,60657.0,1173212.47070897,1921582.78892398,44.0,19.0,6.0,41.940250919598455,-87.63879096734259,"(41.940250919598455, -87.6387909673426)",2013-08-06
48182,08/06/2013,Completed,08/08/2013,13-01100872,Sanitation Code Violation,Overflowing carts,1258 W WILSON AVE,60640.0,1166962.58459055,1930676.30720097,46.0,19.0,3.0,41.96534057053322,-87.66149923146949,"(41.965340570533215, -87.6614992314695)",2013-08-06
48183,08/06/2013,Completed,08/08/2013,13-01101762,Sanitation Code Violation,Other,4907 W ALTGELD ST,60639.0,1143257.61830096,1916189.1781757,31.0,25.0,19.0,41.926063530602974,-87.74902079230992,"(41.926063530602974, -87.74902079230992)",2013-08-06
48184,08/06/2013,Completed,08/08/2013,13-01095688,Sanitation Code Violation,Other,4316 S SPAULDING AVE,60632.0,1155069.23009947,1875841.47737818,14.0,8.0,58.0,41.8151161036385,-87.70670084597789,"(41.8151161036385, -87.70670084597789)",2013-08-06
48185,08/06/2013,Completed,08/08/2013,13-01096109,Sanitation Code Violation,Dumpster not being emptied,5340 W DIVERSEY AVE,60639.0,1140293.12806737,1918097.82767384,31.0,25.0,19.0,41.93135598205332,-87.75986710025484,"(41.93135598205332, -87.75986710025484)",2013-08-06
48186,08/06/2013,Completed,08/08/2013,13-01096142,Sanitation Code Violation,Garbage in alley,919 W IRVING PARK RD,60613.0,1169417.36992368,1926750.89300734,46.0,19.0,6.0,41.954515930004526,-87.6525882564621,"(41.95451593000452, -87.6525882564621)",2013-08-06
48187,08/06/2013,Completed,08/08/2013,13-01096191,Sanitation Code Violation,Other,1236 N ASTOR ST,60610.0,1176500.40502176,1908741.22566898,43.0,18.0,8.0,41.90493946594762,-87.62709555922982,"(41.90493946594762, -87.62709555922982)",2013-08-06
48188,08/06/2013,Completed,08/08/2013,13-01096755,Sanitation Code Violation,Garbage in yard,1773 N CLYBOURN AVE,60614.0,1169442.89636614,1911754.16153059,32.0,18.0,7.0,41.91336365259892,-87.65293194447777,"(41.91336365259892, -87.65293194447777)",2013-08-06
48189,08/06/2013,Completed,08/08/2013,13-01097494,Sanitation Code Violation,Other,1280 W EARLY AVE,60660.0,1166571.22716586,1938368.25558829,48.0,20.0,77.0,41.986455931483825,-87.6627167556643,"(41.98645593148382, -87.66271675566432)",2013-08-06
48190,08/06/2013,Completed,08/08/2013,13-01097565,Sanitation Code Violation,Garbage in yard,2700 W ALTGELD ST,60647.0,1157947.43188793,1916508.56917658,35.0,14.0,22.0,41.92665258703102,-87.69503382647808,"(41.92665258703102, -87.69503382647808)",2013-08-06
48191,08/06/2013,Completed,08/08/2013,13-01098847,Sanitation Code Violation,Overflowing carts,3105 N CLARK ST,60657.0,1170434.56858839,1920710.67909742,44.0,19.0,6.0,41.93791912084977,-87.64902618333902,"(41.937919120849784, -87.64902618333902)",2013-08-06
48192,08/03/2013,Completed,08/08/2013,13-01080906,Sanitation Code Violation,Garbage in alley,1528 S WABASH AVE,60605.0,1177017.10693169,1892771.94996787,3.0,1.0,33.0,41.861107213329184,-87.62568128329369,"(41.861107213329184, -87.62568128329369)",2013-08-03
48193,08/03/2013,Completed,08/08/2013,13-01081182,Sanitation Code Violation,Garbage in alley,5005 W LAWRENCE AVE,60630.0,1142114.01703206,1931450.99492256,45.0,16.0,15.0,41.96796467818483,-87.75284321951824,"(41.96796467818483, -87.75284321951823)",2013-08-03
48194,08/03/2013,Completed,08/08/2013,13-01081346,Sanitation Code Violation,Garbage in alley,1851 N OAK PARK AVE,60707.0,1130792.67791743,1911565.75077413,36.0,25.0,25.0,41.91360021739533,-87.79493090147328,"(41.913600217395334, -87.79493090147326)",2013-08-03
48195,08/03/2013,Completed,08/08/2013,13-01082158,Sanitation Code Violation,Dumpster not being emptied,4600 N HAMILTON AVE,60625.0,1161301.35667816,1930526.85938914,47.0,19.0,4.0,41.965050400742854,-87.68231842035652,"(41.96505040074285, -87.68231842035651)",2013-08-03
48196,08/04/2013,Completed,08/08/2013,13-01083311,Sanitation Code Violation,Garbage in yard,5636 N CENTRAL AVE,60646.0,1137864.82709535,1937121.85288981,45.0,16.0,11.0,41.98360393932763,-87.76832986863562,"(41.98360393932763, -87.76832986863563)",2013-08-04
48197,08/04/2013,Completed,08/08/2013,13-01083326,Sanitation Code Violation,Overflowing carts,5658 N ELSTON AVE,60646.0,1138308.78999671,1937331.36000567,45.0,16.0,11.0,41.98417079597568,-87.76669192897623,"(41.98417079597568, -87.76669192897624)",2013-08-04
48198,08/04/2013,Completed,08/08/2013,13-01083327,Sanitation Code Violation,Overflowing carts,5630 N ELSTON AVE,60646.0,1138617.72011777,1937118.9402216,45.0,16.0,11.0,41.98358228490389,-87.76556089032759,"(41.98358228490389, -87.7655608903276)",2013-08-04
48199,08/05/2013,Completed,08/08/2013,13-01084764,Sanitation Code Violation,Dumpster not being emptied,4941 N DAMEN AVE,60625.0,1162115.0210173,1932821.19151103,47.0,20.0,4.0,41.971329146574014,-87.67926237808712,"(41.971329146574014, -87.67926237808713)",2013-08-05
48200,08/05/2013,Completed,08/08/2013,13-01084941,Sanitation Code Violation,Other,1757 N RUTHERFORD AVE,60707.0,1131143.81771257,1910949.29680982,36.0,25.0,25.0,41.91190253271833,-87.7936551083013,"(41.91190253271833, -87.7936551083013)",2013-08-05
48201,08/05/2013,Completed,08/08/2013,13-01084948,Sanitation Code Violation,Other,1740 N NORMANDY AVE,60707.0,1131480.11657092,1910842.45313366,36.0,25.0,25.0,41.91160352672012,-87.79242209691064,"(41.91160352672012, -87.79242209691064)",2013-08-05
48202,08/05/2013,Completed,08/08/2013,13-01086427,Sanitation Code Violation,Other,2439 W WARNER AVE,60618.0,1159368.02662471,1927487.54998883,47.0,19.0,5.0,41.956750462199246,-87.68951076915572,"(41.95675046219924, -87.6895107691557)",2013-08-05
48203,08/05/2013,Completed,08/08/2013,13-01087983,Sanitation Code Violation,Garbage in alley,7518 W FOREST PRESERVE AVE,60634.0,1125273.75170275,1924840.73726748,36.0,16.0,17.0,41.950121764995494,-87.81491189814408,"(41.950121764995494, -87.81491189814408)",2013-08-05
48204,08/05/2013,Completed,08/08/2013,13-01089553,Sanitation Code Violation,Construction Site Cleanliness/Fence,2333 W IRVING PARK RD,60618.0,1159985.51961365,1926501.02310006,47.0,19.0,5.0,41.95403062566503,-87.68726803301054,"(41.95403062566502, -87.68726803301055)",2013-08-05
48205,08/05/2013,Completed,08/08/2013,13-01089917,Sanitation Code Violation,Other,2417 N SPAULDING AVE,60647.0,1153670.61991475,1915871.22463186,35.0,14.0,22.0,41.924989949437425,-87.71076625773394,"(41.924989949437425, -87.71076625773394)",2013-08-05
48206,08/05/2013,Completed,08/08/2013,13-01093477,Sanitation Code Violation,Garbage in alley,2325 N RIDGEWAY AVE,60647.0,1150993.81998832,1915196.00068119,35.0,25.0,22.0,41.92318998469997,-87.7206198297488,"(41.923189984699974, -87.7206198297488)",2013-08-05
48207,08/05/2013,Completed,08/08/2013,13-01093970,Sanitation Code Violation,Other,2450 N MOZART ST,60647.0,1156961.518775,1916191.822325,35.0,14.0,22.0,41.92580349218368,-87.69866523793543,"(41.925803492183675, -87.69866523793544)",2013-08-05
48208,08/01/2013,Completed,08/08/2013,13-01067503,Sanitation Code Violation,Garbage in yard,836 N KEELER AVE,60651.0,1148228.91000826,1905247.15929716,37.0,11.0,23.0,41.895943134545895,-87.73103585647002,"(41.895943134545895, -87.73103585647002)",2013-08-01
48209,08/01/2013,Completed,08/08/2013,13-01070406,Sanitation Code Violation,Overflowing carts,5210 S DR MARTIN LUTHER KING JR DR,60615.0,1179809.56193095,1870545.20620472,3.0,2.0,40.0,41.800051768178974,-87.61611207548272,"(41.80005176817898, -87.6161120754827)",2013-08-01
48210,08/01/2013,Completed,08/08/2013,13-01072308,Sanitation Code Violation,Garbage in yard,2323 N LATROBE AVE,60639.0,1141003.95260515,1914944.43529245,37.0,25.0,19.0,41.92268966803002,-87.75733275704692,"(41.922689668030024, -87.75733275704694)",2013-08-01
48211,08/02/2013,Completed,08/08/2013,13-01074141,Sanitation Code Violation,Dumpster not being emptied,4420 W CHICAGO AVE,60651.0,1146758.87007071,1904957.39827595,37.0,11.0,23.0,41.8951761900947,-87.73644245926305,"(41.8951761900947, -87.73644245926305)",2013-08-02
48212,08/02/2013,Completed,08/08/2013,13-01075841,Sanitation Code Violation,Other,5360 W DIVISION ST,60651.0,1140289.05007061,1907473.33511769,37.0,25.0,25.0,41.90220127449232,-87.76014303226954,"(41.90220127449232, -87.76014303226953)",2013-08-02
48213,08/02/2013,Completed,08/08/2013,13-01078127,Sanitation Code Violation,Garbage in yard,6557 S CAMPBELL AVE,60629.0,1160836.58179435,1861095.32652722,15.0,8.0,66.0,41.77453337581042,-87.68595254469555,"(41.77453337581042, -87.68595254469554)",2013-08-02
48214,08/02/2013,Completed,08/08/2013,13-01079703,Sanitation Code Violation,Dog feces in yard,825 N KEELER AVE,60651.0,1148230.91000826,1905172.75929716,37.0,11.0,23.0,41.89573893450609,-87.73103042911345,"(41.895738934506085, -87.73103042911345)",2013-08-02
48215,08/02/2013,Completed,08/08/2013,13-01079774,Sanitation Code Violation,Garbage in yard,2226 N LOREL AVE,60639.0,1140354.03357654,1914283.17522406,37.0,25.0,19.0,41.920887053513496,-87.75973705457167,"(41.920887053513496, -87.75973705457167)",2013-08-02
48216,08/02/2013,Completed,08/08/2013,13-01079776,Sanitation Code Violation,Other,2229 N LONG AVE,60639.0,1140019.45047773,1914295.57000265,37.0,25.0,19.0,41.92092720067669,-87.76096609977614,"(41.92092720067669, -87.76096609977613)",2013-08-02
48217,08/02/2013,Completed,08/08/2013,13-01079825,Sanitation Code Violation,,5833 S UNION AVE,60621.0,1172634.45861082,1866080.76567845,3.0,7.0,68.0,41.78796213799718,-87.64255668643948,"(41.78796213799718, -87.64255668643948)",2013-08-02
48218,08/02/2013,Completed,08/08/2013,13-01080003,Sanitation Code Violation,Other,4848 W POTOMAC AVE,60651.0,1143808.84073065,1908210.4800323998,37.0,25.0,25.0,41.90415881894301,-87.7471956586872,"(41.90415881894301, -87.7471956586872)",2013-08-02
48226,08/01/2013,Completed,08/08/2013,13-01065196,Sanitation Code Violation,Construction Site Cleanliness/Fence,4825 S INDIANA AVE,60615.0,1178414.03918395,1873077.24448114,3.0,2.0,38.0,41.80703174830585,-87.62115287921806,"(41.807031748305846, -87.62115287921806)",2013-08-01
48227,08/01/2013,Completed,08/08/2013,13-01065893,Sanitation Code Violation,Other,3200 S STATE ST,60616.0,1176802.35770093,1883785.42892766,3.0,2.0,35.0,41.836452410110134,-87.62674099907335,"(41.836452410110134, -87.62674099907336)",2013-08-01
48228,08/01/2013,Completed,08/08/2013,13-01066394,Sanitation Code Violation,Other,5935 N ELSTON AVE,60646.0,1135617.31007972,1939170.70020275,45.0,16.0,11.0,41.989266536171634,-87.77654698783847,"(41.989266536171634, -87.77654698783849)",2013-08-01
48229,08/01/2013,Completed,08/08/2013,13-01067060,Sanitation Code Violation,,5630 N AUSTIN AVE,60646.0,1135228.96531936,1937051.54117525,45.0,16.0,10.0,41.98345830140449,-87.77802594048451,"(41.98345830140449, -87.7780259404845)",2013-08-01
48297,08/09/2013,Completed,08/09/2013,13-01119401,Sanitation Code Violation,Other,3916 S ARCHER AVE,60632.0,1159464.44253039,1878571.35980501,12.0,9.0,58.0,41.82251815198937,-87.69050352044937,"(41.82251815198937, -87.69050352044938)",2013-08-09
48298,08/09/2013,Completed,08/09/2013,13-01120563,Sanitation Code Violation,Overflowing carts,2735 S WHIPPLE ST,60623.0,1156474.18272857,1885690.41840202,12.0,10.0,30.0,41.842114582276004,-87.70128142721865,"(41.842114582276, -87.70128142721865)",2013-08-09
48299,08/09/2013,Completed,08/09/2013,13-01121299,Sanitation Code Violation,,2010 W MONTROSE AVE,60618.0,1162110.85207715,1929221.92342495,47.0,19.0,4.0,41.96145267920308,-87.67937872439262,"(41.96145267920308, -87.67937872439263)",2013-08-09
48300,08/09/2013,Completed,08/09/2013,13-01121559,Sanitation Code Violation,Overflowing carts,3748 N ELSTON AVE,60618.0,1152982.47797752,1924804.53532258,35.0,17.0,16.0,41.94951732697267,-87.71305731477459,"(41.94951732697267, -87.7130573147746)",2013-08-09
48301,08/09/2013,Completed,08/09/2013,13-01121583,Sanitation Code Violation,Other,3216 N DRAKE AVE,60618.0,1152154.54780776,1921233.86989204,35.0,17.0,21.0,41.93973555363896,-87.71619519087594,"(41.939735553638954, -87.71619519087594)",2013-08-09
48302,08/09/2013,Completed,08/09/2013,13-01123057,Sanitation Code Violation,Overflowing carts,5119 W HENDERSON ST,60641.0,1141647.70339664,1921790.43909128,38.0,16.0,15.0,41.94146390227268,-87.75479763863676,"(41.94146390227268, -87.75479763863677)",2013-08-09
48303,08/09/2013,Completed,08/09/2013,13-01124027,Sanitation Code Violation,Other,6640 W HIGGINS AVE,60656.0,1130912.90889295,1935125.69482415,41.0,16.0,10.0,41.97824928327453,-87.79394450221065,"(41.97824928327453, -87.79394450221066)",2013-08-09
48304,08/08/2013,Completed,08/09/2013,13-01118289,Sanitation Code Violation,Overflowing carts,2136 W CERMAK RD,60608.0,1162467.67119901,1889382.56487032,25.0,12.0,31.0,41.85212307068264,-87.67918385577832,"(41.852123070682644, -87.67918385577832)",2013-08-08
48305,08/08/2013,Completed,08/09/2013,13-01118333,Sanitation Code Violation,Garbage in yard,4405 N SHERIDAN RD,60640.0,1168808.0049965,1929442.82188566,46.0,19.0,3.0,41.961915939070494,-87.65474999615331,"(41.96191593907049, -87.65474999615331)",2013-08-08
48306,08/08/2013,Completed,08/09/2013,13-01118986,Sanitation Code Violation,Garbage in yard,2460 W BERWYN AVE,60625.0,1158740.60581233,1935111.66592048,40.0,20.0,4.0,41.977684341597595,-87.6916074139256,"(41.97768434159759, -87.6916074139256)",2013-08-08
48307,08/07/2013,Completed,08/09/2013,13-01104042,Sanitation Code Violation,Garbage in yard,2149 N CENTRAL AVE,60639.0,1138773.35977207,1913687.42900471,37.0,25.0,19.0,41.919281125058106,-87.76555937505188,"(41.9192811250581, -87.76555937505188)",2013-08-07
48308,08/07/2013,Completed,08/09/2013,13-01106291,Sanitation Code Violation,Overflowing carts,5614 S ARCHER AVE,60638.0,1143112.47986992,1869341.01331762,23.0,8.0,56.0,41.79750868740129,-87.75072230320913,"(41.79750868740129, -87.75072230320913)",2013-08-07
48309,08/07/2013,Completed,08/09/2013,13-01107515,Sanitation Code Violation,Other,2855 N OAK PARK AVE,60634.0,1130596.54179298,1918231.29740166,36.0,25.0,18.0,41.93189468200367,-87.7954978923481,"(41.93189468200367, -87.7954978923481)",2013-08-07
48310,08/07/2013,Completed,08/09/2013,13-01107841,Sanitation Code Violation,Other,4318 W AUGUSTA BLVD,60651.0,1147407.1425688,1906314.06218215,37.0,11.0,23.0,41.8988866209187,-87.73402669080194,"(41.8988866209187, -87.73402669080194)",2013-08-07
48311,08/07/2013,Completed,08/09/2013,13-01108849,Sanitation Code Violation,Garbage in yard,5436 S NORDICA AVE,60638.0,1130295.7164738001,1867718.45288753,23.0,8.0,56.0,41.79328483922454,-87.79776140588244,"(41.79328483922454, -87.79776140588243)",2013-08-07
48312,08/08/2013,Completed,08/09/2013,13-01112294,Sanitation Code Violation,Garbage in yard,4444 S ASHLAND AVE,60609.0,1166417.92272199,1875244.53597074,12.0,9.0,61.0,41.81324339280244,-87.66508902681457,"(41.81324339280244, -87.66508902681458)",2013-08-08
48313,08/08/2013,Completed,08/09/2013,13-01113164,Sanitation Code Violation,Garbage in yard,4746 N LEAVITT ST,60625.0,1160830.53869056,1931583.12920001,47.0,19.0,4.0,41.96795865887751,-87.68402007084711,"(41.96795865887751, -87.68402007084711)",2013-08-08
48314,08/08/2013,Completed,08/09/2013,13-01113397,Sanitation Code Violation,Dumpster not being emptied,6972 N SHERIDAN RD,60626.0,1166788.24289358,1946213.52357474,49.0,24.0,1.0,42.00797884440377,-87.66169225032957,"(42.00797884440377, -87.66169225032958)",2013-08-08
48315,08/08/2013,Completed,08/09/2013,13-01114793,Sanitation Code Violation,Other,10821 S WOOD ST,60643.0,1166282.77230805,1832826.18008246,19.0,22.0,75.0,41.696844395437886,-87.66679022829746,"(41.696844395437886, -87.66679022829746)",2013-08-08
48316,08/08/2013,Completed,08/09/2013,13-01114826,Sanitation Code Violation,Other,2547 S CENTRAL PARK AVE,60623.0,1152777.89388428,1886842.25316637,22.0,10.0,30.0,41.845349201618845,-87.71481536239142,"(41.84534920161884, -87.71481536239142)",2013-08-08
48317,08/08/2013,Completed,08/09/2013,13-01116640,Sanitation Code Violation,Other,9761 S CHARLES ST,60643.0,1167326.65869474,1840250.63441253,19.0,22.0,72.0,41.71719605796011,-87.66275643094359,"(41.71719605796011, -87.66275643094359)",2013-08-08
48318,08/08/2013,Completed,08/09/2013,13-01116879,Sanitation Code Violation,Garbage in alley,2214 S WENTWORTH AVE,60616.0,1175320.9599677,1889603.48003026,25.0,9.0,34.0,41.852450901518566,-87.63200242313276,"(41.85245090151856, -87.63200242313277)",2013-08-08
48319,08/08/2013,Completed,08/09/2013,13-01117031,Sanitation Code Violation,Dog feces in yard,6422 S OAK PARK AVE,60638.0,1132199.22257615,1861089.21756748,23.0,8.0,64.0,41.775060213630034,-87.79093460329193,"(41.77506021363003, -87.79093460329194)",2013-08-08
48320,08/08/2013,Completed,08/09/2013,13-01117590,Sanitation Code Violation,Garbage in yard,2837 W SHERWIN AVE,60645.0,1156208.58931876,1948608.96328977,50.0,24.0,2.0,42.01477317255273,-87.70055208700069,"(42.01477317255273, -87.7005520870007)",2013-08-08
48321,08/08/2013,Completed,08/09/2013,13-01118004,Sanitation Code Violation,Dumpster not being emptied,6033 S MICHIGAN AVE,60637.0,1178191.14740714,1865038.73617086,20.0,3.0,40.0,41.78497838905833,-87.62221426031256,"(41.78497838905833, -87.62221426031256)",2013-08-08
48322,08/08/2013,Completed,08/09/2013,13-01118080,Sanitation Code Violation,Garbage in alley,6214 W PATTERSON AVE,60634.0,1134301.54357218,1923622.96871859,38.0,16.0,17.0,41.946625436847526,-87.78175482363753,"(41.94662543684753, -87.78175482363751)",2013-08-08
48323,08/08/2013,Completed,08/09/2013,13-01118113,Sanitation Code Violation,Garbage in yard,1800 W 95TH ST,60643.0,1166018.75633152,1841680.1081818,19.0,22.0,72.0,41.72114661328128,-87.66750623869032,"(41.72114661328127, -87.66750623869031)",2013-08-08
48324,08/08/2013,Completed,08/09/2013,13-01118114,Sanitation Code Violation,Garbage in yard,1804 W 95TH ST,60643.0,1165973.15633152,1841678.8081818002,19.0,22.0,72.0,41.721144013553136,-87.66767329948946,"(41.72114401355313, -87.66767329948946)",2013-08-08
48325,08/08/2013,Completed,08/09/2013,13-01118115,Sanitation Code Violation,Garbage in yard,1808 W 95TH ST,60643.0,1165927.55633152,1841677.4081818,19.0,22.0,72.0,41.72114113916635,-87.66784036310975,"(41.72114113916635, -87.66784036310975)",2013-08-08
48326,08/08/2013,Completed,08/09/2013,13-01118116,Sanitation Code Violation,Garbage in yard,1812 W 95TH ST,60643.0,1165882.00527851,1841676.08439397,19.0,22.0,72.0,41.72113847263664,-87.66800724527758,"(41.72113847263664, -87.66800724527758)",2013-08-08
48327,08/08/2013,Completed,08/09/2013,13-01118117,Sanitation Code Violation,Garbage in yard,1816 W 95TH ST,60643.0,1165836.40527851,1841674.68439397,19.0,22.0,72.0,41.72113559776411,-87.66817430887495,"(41.72113559776411, -87.66817430887495)",2013-08-08
48328,08/08/2013,Completed,08/09/2013,13-01118120,Sanitation Code Violation,Garbage in yard,1820 W 95TH ST,60643.0,1165790.80527851,1841673.38439397,19.0,22.0,72.0,41.72113299706426,-87.66834136963128,"(41.72113299706426, -87.66834136963126)",2013-08-08
48329,08/08/2013,Completed,08/09/2013,13-01118147,Sanitation Code Violation,Garbage in alley,6449 S LANGLEY AVE,60637.0,1182001.62669032,1862401.13601413,20.0,3.0,42.0,41.77765323949188,-87.6083250777762,"(41.777653239491876, -87.6083250777762)",2013-08-08
48330,08/08/2013,Completed,08/09/2013,13-01118197,Sanitation Code Violation,,2824 N ASHLAND AVE,60657.0,1165170.83567512,1918914.79149975,32.0,19.0,6.0,41.93310477662373,-87.66842254488367,"(41.93310477662373, -87.66842254488367)",2013-08-08
48331,08/08/2013,Completed,08/09/2013,13-01118288,Sanitation Code Violation,Overflowing carts,2135 W 21ST PL,60608.0,1162465.09900121,1889718.41421476,25.0,12.0,31.0,41.85304472857368,-87.67918390607271,"(41.85304472857368, -87.67918390607271)",2013-08-08
48332,08/06/2013,Completed - Dup,08/09/2013,13-01097162,Sanitation Code Violation,Garbage in yard,10817 S HALE AVE,60643.0,1165712.94269382,1832875.54548739,19.0,22.0,75.0,41.6969919446379,-87.6688752239596,"(41.6969919446379, -87.66887522395959)",2013-08-06
48333,08/06/2013,Completed,08/09/2013,13-01095095,Sanitation Code Violation,Other,832 N LOCKWOOD AVE,60651.0,1140870.84652052,1905035.55381705,37.0,15.0,25.0,41.89550102730111,-87.75806602071644,"(41.89550102730111, -87.75806602071643)",2013-08-06
48334,08/06/2013,Completed,08/09/2013,13-01096936,Sanitation Code Violation,Garbage in yard,10817 S HALE AVE,60643.0,1165712.94269382,1832875.54548739,19.0,22.0,75.0,41.6969919446379,-87.6688752239596,"(41.6969919446379, -87.66887522395959)",2013-08-06
48335,08/06/2013,Completed,08/09/2013,13-01100054,Sanitation Code Violation,Dumpster not being emptied,2533 W FULLERTON AVE,60647.0,1158985.640079,1915865.31697503,1.0,14.0,22.0,41.92486618612504,-87.69123657225073,"(41.92486618612504, -87.69123657225074)",2013-08-06
48336,08/06/2013,Completed,08/09/2013,13-01102525,Sanitation Code Violation,Garbage in alley,837 N LOCKWOOD AVE,60651.0,1140869.94652052,1905069.15381705,37.0,15.0,25.0,41.89559324628628,-87.75806849882551,"(41.895593246286275, -87.75806849882551)",2013-08-06
48337,08/06/2013,Completed,08/09/2013,13-01102566,Sanitation Code Violation,Other,2441 N RUTHERFORD AVE,60707.0,1131009.95987761,1915489.23287792,36.0,25.0,18.0,41.92436299862357,-87.79404199110306,"(41.924362998623565, -87.79404199110306)",2013-08-06
48338,08/03/2013,Completed,08/09/2013,13-01081277,Sanitation Code Violation,Garbage in alley,526 N LOCKWOOD AVE,60644.0,1140941.96162947,1902922.03570356,37.0,15.0,25.0,41.88969996885786,-87.75785689117095,"(41.88969996885786, -87.75785689117093)",2013-08-03
48339,08/03/2013,Completed,08/09/2013,13-01082082,Sanitation Code Violation,Dumpster not being emptied,2609 S TRIPP AVE,60623.0,1148473.47010151,1886320.26648935,22.0,10.0,30.0,41.8440007846197,-87.73062571317621,"(41.8440007846197, -87.73062571317622)",2013-08-03
48340,08/05/2013,Completed,08/09/2013,13-01085064,Sanitation Code Violation,Overflowing carts,4843 W HADDON AVE,60651.0,1143811.03790176,1907213.22166991,37.0,15.0,25.0,41.901422190040016,-87.74721261634136,"(41.901422190040016, -87.74721261634136)",2013-08-05
48341,08/05/2013,Completed,08/09/2013,13-01085065,Sanitation Code Violation,Overflowing carts,4839 W HADDON AVE,60651.0,1143834.03790176,1907213.62166991,37.0,15.0,25.0,41.90142285644354,-87.74712812392698,"(41.90142285644354, -87.74712812392698)",2013-08-05
48342,08/05/2013,Completed,08/09/2013,13-01086158,Sanitation Code Violation,Other,10800 S TROY ST,60655.0,1157255.73180685,1832836.23762742,19.0,22.0,74.0,41.69705894473602,-87.69984196290176,"(41.69705894473602, -87.69984196290177)",2013-08-05
48346,08/01/2013,Completed - Dup,08/09/2013,13-01069118,Sanitation Code Violation,Other,3331 N N BRANCH CHICAGO RIVER,60618.0,1158040.67959608,1921982.89169816,47.0,19.0,5.0,41.94167260070172,-87.69454130146845,"(41.941672600701715, -87.69454130146845)",2013-08-01
48347,08/01/2013,Completed - Dup,08/09/2013,13-01069119,Sanitation Code Violation,Other,3331 N N BRANCH CHICAGO RIVER,60618.0,1158040.67959608,1921982.89169816,47.0,19.0,5.0,41.94167260070172,-87.69454130146845,"(41.941672600701715, -87.69454130146845)",2013-08-01
48348,08/01/2013,Completed - Dup,08/09/2013,13-01069120,Sanitation Code Violation,Other,3331 N N BRANCH CHICAGO RIVER,60618.0,1158040.67959608,1921982.89169816,47.0,19.0,5.0,41.94167260070172,-87.69454130146845,"(41.941672600701715, -87.69454130146845)",2013-08-01
48349,08/01/2013,Completed - Dup,08/09/2013,13-01069123,Sanitation Code Violation,Other,3331 N N BRANCH CHICAGO RIVER,60618.0,1158040.67959608,1921982.89169816,47.0,19.0,5.0,41.94167260070172,-87.69454130146845,"(41.941672600701715, -87.69454130146845)",2013-08-01
48350,08/01/2013,Completed - Dup,08/09/2013,13-01069125,Sanitation Code Violation,Other,3331 N N BRANCH CHICAGO RIVER,60618.0,1158040.67959608,1921982.89169816,47.0,19.0,5.0,41.94167260070172,-87.69454130146845,"(41.941672600701715, -87.69454130146845)",2013-08-01
48351,08/01/2013,Completed - Dup,08/09/2013,13-01069126,Sanitation Code Violation,Other,3331 N N BRANCH CHICAGO RIVER,60618.0,1158040.67959608,1921982.89169816,47.0,19.0,5.0,41.94167260070172,-87.69454130146845,"(41.941672600701715, -87.69454130146845)",2013-08-01
48352,08/01/2013,Completed - Dup,08/09/2013,13-01069163,Sanitation Code Violation,Other,3331 N N BRANCH CHICAGO RIVER,60618.0,1158040.67959608,1921982.89169816,47.0,19.0,5.0,41.94167260070172,-87.69454130146845,"(41.941672600701715, -87.69454130146845)",2013-08-01
48353,08/01/2013,Completed,08/09/2013,13-01065681,Sanitation Code Violation,Dumpster not being emptied,6232 N PULASKI RD,60646.0,1148561.87620187,1940992.86067065,39.0,17.0,12.0,41.99402584719176,-87.72888712089387,"(41.99402584719176, -87.72888712089387)",2013-08-01
48354,08/01/2013,Completed,08/09/2013,13-01067572,Sanitation Code Violation,Other,5321 W CONGRESS PKWY,60644.0,1140970.83482178,1897166.88028298,29.0,15.0,25.0,41.87390656411218,-87.7578925723097,"(41.87390656411218, -87.7578925723097)",2013-08-01
48355,08/01/2013,Completed,08/09/2013,13-01069117,Sanitation Code Violation,Other,3331 N N BRANCH CHICAGO RIVER,60618.0,1158040.67959608,1921982.89169816,47.0,19.0,5.0,41.94167260070172,-87.69454130146845,"(41.941672600701715, -87.69454130146845)",2013-08-01
48356,08/01/2013,Completed,08/09/2013,13-01070161,Sanitation Code Violation,Other,10602 S WALDEN PKWY,60643.0,1165448.58541107,1834293.8440153,19.0,22.0,72.0,41.70088958684587,-87.6698031441883,"(41.70088958684587, -87.6698031441883)",2013-08-01
48357,08/01/2013,Completed,08/09/2013,13-01071575,Sanitation Code Violation,Garbage in yard,11021 S WASHTENAW AVE,60655.0,1160341.3920006,1831434.22037568,19.0,22.0,75.0,41.69314872176329,-87.68858237621522,"(41.6931487217633, -87.68858237621524)",2013-08-01
48390,08/10/2013,Completed - Dup,08/11/2013,13-01127612,Sanitation Code Violation,Overflowing carts,2609 W ESTES AVE,60645.0,1157677.23241542,1947012.27922545,50.0,24.0,2.0,42.010361902290846,-87.69519182597908,"(42.01036190229084, -87.69519182597908)",2013-08-10
48391,08/10/2013,Completed,08/11/2013,13-01127611,Sanitation Code Violation,Other,2609 W ESTES AVE,60645.0,1157677.23241542,1947012.27922545,50.0,24.0,2.0,42.010361902290846,-87.69519182597908,"(42.01036190229084, -87.69519182597908)",2013-08-10
48392,08/10/2013,Completed,08/12/2013,13-01127415,Sanitation Code Violation,Dumpster not being emptied,1952 W BYRON ST,60613.0,1162553.85523337,1925905.90930197,47.0,19.0,5.0,41.952344084882576,-87.67784325742358,"(41.952344084882576, -87.67784325742358)",2013-08-10
48393,08/10/2013,Completed,08/12/2013,13-01127487,Sanitation Code Violation,Garbage in yard,6241 S KOMENSKY AVE,60629.0,1150441.59290154,1862904.76862744,13.0,8.0,65.0,41.77970718412765,-87.7240122791068,"(41.77970718412765, -87.72401227910682)",2013-08-10
48394,08/10/2013,Completed,08/12/2013,13-01127627,Sanitation Code Violation,Garbage in alley,4416 N MONTICELLO AVE,60625.0,1151262.67738387,1929103.44517946,33.0,17.0,14.0,41.96134782399714,-87.71926587530182,"(41.961347823997144, -87.71926587530183)",2013-08-10
48395,08/11/2013,Completed,08/12/2013,13-01128652,Sanitation Code Violation,Garbage in yard,5405 N SPAULDING AVE,60625.0,1153406.92870477,1935727.90590936,40.0,17.0,13.0,41.97948330783224,-87.7112055397152,"(41.97948330783224, -87.7112055397152)",2013-08-11
48396,08/11/2013,Completed,08/12/2013,13-01128997,Sanitation Code Violation,Overflowing carts,2134 W LELAND AVE,60625.0,1161357.86487036,1931192.64520409,47.0,19.0,4.0,41.966876169977,-87.68209204727256,"(41.966876169977, -87.68209204727256)",2013-08-11
48397,08/11/2013,Completed,08/12/2013,13-01129053,Sanitation Code Violation,Other,1700 N CLARK ST,60614.0,1174919.27138506,1911704.95120039,43.0,18.0,7.0,41.913107640283975,-87.63281457092772,"(41.91310764028398, -87.63281457092772)",2013-08-11
48398,08/11/2013,Completed,08/12/2013,13-01129152,Sanitation Code Violation,Dumpster not being emptied,5237 N OAKVIEW AVE,60656.0,1117315.97008526,1933587.35653429,41.0,16.0,76.0,41.974251951921566,-87.84398104580715,"(41.97425195192156, -87.84398104580715)",2013-08-11
48399,08/11/2013,Completed,08/12/2013,13-01129190,Sanitation Code Violation,Dumpster not being emptied,3020 W DEVON AVE,60659.0,1154964.64773405,1942290.71579641,50.0,24.0,2.0,41.99746078977144,-87.70529988034995,"(41.99746078977144, -87.70529988034997)",2013-08-11
48400,08/11/2013,Completed,08/12/2013,13-01129314,Sanitation Code Violation,Other,4515 N TROY ST,60625.0,1154568.82019548,1929830.67150074,33.0,17.0,14.0,41.963277720050456,-87.70709109740875,"(41.96327772005046, -87.70709109740875)",2013-08-11
48401,08/11/2013,Completed,08/12/2013,13-01129322,Sanitation Code Violation,Other,1214 W ARTHUR AVE,60626.0,1167076.26702233,1943467.86991655,40.0,24.0,1.0,42.00043851921364,-87.66071191168746,"(42.00043851921364, -87.66071191168746)",2013-08-11
48402,08/11/2013,Completed,08/12/2013,13-01129790,Sanitation Code Violation,Dumpster not being emptied,4941 N DAMEN AVE,60625.0,1162115.0210173,1932821.19151103,47.0,20.0,4.0,41.971329146574014,-87.67926237808712,"(41.971329146574014, -87.67926237808713)",2013-08-11
48403,08/12/2013,Completed,08/12/2013,13-01130997,Sanitation Code Violation,Other,6929 W HURLBUT ST,60631.0,1129148.44130822,1937716.17089627,41.0,16.0,10.0,41.985388108631135,-87.80037421495247,"(41.985388108631135, -87.80037421495247)",2013-08-12
48404,08/12/2013,Completed,08/12/2013,13-01131011,Sanitation Code Violation,Other,124 W 103RD ST,60628.0,1177151.93012498,1836657.77762247,9.0,5.0,49.0,41.7071211324574,-87.62687876046667,"(41.707121132457395, -87.62687876046667)",2013-08-12
48405,08/12/2013,Completed,08/12/2013,13-01131436,Sanitation Code Violation,Other,126 W 103RD ST,60628.0,1177133.23012498,1836657.27762247,9.0,5.0,49.0,41.70712018134979,-87.62694725449758,"(41.70712018134978, -87.6269472544976)",2013-08-12
48406,08/12/2013,Completed,08/12/2013,13-01131865,Sanitation Code Violation,Other,300 W 104TH ST,60628.0,1176129.07002184,1835967.6083882,34.0,5.0,49.0,41.705250175856,-87.63064507836575,"(41.705250175856, -87.63064507836575)",2013-08-12
48407,08/12/2013,Completed,08/12/2013,13-01132175,Sanitation Code Violation,Other,239 E 107TH ST,60628.0,1179845.10937346,1834071.16162965,9.0,5.0,49.0,41.699962054254655,-87.61709518753023,"(41.69996205425466, -87.61709518753023)",2013-08-12
48408,08/12/2013,Completed,08/12/2013,13-01132228,Sanitation Code Violation,Garbage in alley,300 W 104TH PL,60628.0,1176083.43387736,1835634.86086818,34.0,5.0,49.0,41.7043380907719,-87.63082213221311,"(41.7043380907719, -87.63082213221311)",2013-08-12
48409,08/12/2013,Completed,08/12/2013,13-01134021,Sanitation Code Violation,Garbage in alley,3605 W LAWRENCE AVE,60625.0,1151462.11229956,1931655.15677884,33.0,17.0,14.0,41.968345967053345,-87.71846531622282,"(41.96834596705334, -87.71846531622282)",2013-08-12
48410,08/12/2013,Completed,08/12/2013,13-01135019,Sanitation Code Violation,Garbage in yard,5201 N EAST RIVER RD,60656.0,1116631.23498646,1933389.43638418,41.0,16.0,76.0,41.97371954056605,-87.8465032183654,"(41.973719540566044, -87.8465032183654)",2013-08-12
48411,08/09/2013,Completed - Dup,08/12/2013,13-01123519,Sanitation Code Violation,Garbage in alley,134 S MAPLEWOOD AVE,60612.0,1159384.41171413,1899242.49572528,2.0,11.0,28.0,41.87924359883874,-87.6902291929868,"(41.87924359883874, -87.69022919298682)",2013-08-09
48412,08/09/2013,Completed - Dup,08/12/2013,13-01125474,Sanitation Code Violation,Garbage in alley,6853 S TRIPP AVE,60629.0,1149219.25998935,1858810.63018346,13.0,8.0,65.0,41.76849587940383,-87.72859911561744,"(41.76849587940383, -87.72859911561744)",2013-08-09
48413,08/09/2013,Completed,08/12/2013,13-01119796,Sanitation Code Violation,Other,1444 N CLEVELAND AVE,60610.0,1172724.54360589,1909943.0555944,43.0,18.0,8.0,41.90832181613711,-87.6409296795588,"(41.90832181613711, -87.6409296795588)",2013-08-09
48414,08/09/2013,Completed,08/12/2013,13-01120864,Sanitation Code Violation,Other,6440 W FOSTER AVE,60656.0,1132201.02082279,1934183.39682087,41.0,16.0,10.0,41.97564117260756,-87.78922937108143,"(41.97564117260756, -87.78922937108142)",2013-08-09
48415,08/09/2013,Completed,08/12/2013,13-01121677,Sanitation Code Violation,Other,6062 N OTTAWA AVE,60631.0,1124149.08001758,1939392.03198625,41.0,16.0,10.0,41.99007073818608,-87.81872488171246,"(41.990070738186084, -87.81872488171246)",2013-08-09
48416,08/09/2013,Completed,08/12/2013,13-01122216,Sanitation Code Violation,Garbage in yard,2859 N SPAULDING AVE,60618.0,1153887.22399907,1918832.55780478,35.0,14.0,21.0,41.933111765183114,-87.70989123191347,"(41.93311176518312, -87.70989123191347)",2013-08-09
48417,08/09/2013,Completed,08/12/2013,13-01122324,Sanitation Code Violation,Dog feces in yard,6758 S CALUMET AVE,60637.0,1179648.36597256,1860096.58248116,20.0,3.0,69.0,41.77138343010848,-87.61702245149893,"(41.77138343010848, -87.61702245149894)",2013-08-09
48418,08/09/2013,Completed,08/12/2013,13-01122821,Sanitation Code Violation,Other,4160 W 24TH ST,60623.0,1149082.70001069,1887587.13997932,22.0,10.0,30.0,41.84746549496384,-87.72835718086029,"(41.847465494963835, -87.72835718086029)",2013-08-09
48419,08/09/2013,Completed,08/12/2013,13-01123743,Sanitation Code Violation,Dog feces in yard,6833 N OAKLEY AVE,60645.0,1159648.18017377,1945245.35709885,50.0,24.0,2.0,42.005472869973026,-87.68798899069004,"(42.00547286997302, -87.68798899069003)",2013-08-09
48420,08/09/2013,Completed,08/12/2013,13-01124724,Sanitation Code Violation,Other,1400 W GREENLEAF AVE,60626.0,1165660.11217771,1947067.02572782,49.0,24.0,1.0,42.010345080209454,-87.66581839704489,"(42.01034508020945, -87.66581839704489)",2013-08-09
48421,08/09/2013,Completed,08/12/2013,13-01124847,Sanitation Code Violation,Dumpster not being emptied,2501 W LAWRENCE AVE,60625.0,1158824.22013321,1931798.99732634,47.0,19.0,4.0,41.96859249872089,-87.69139120956305,"(41.968592498720874, -87.69139120956304)",2013-08-09
48422,08/09/2013,Completed,08/12/2013,13-01125582,Sanitation Code Violation,Garbage in yard,822 N LOCKWOOD AVE,60651.0,1140872.54652052,1904968.35381705,37.0,15.0,25.0,41.89531659116624,-87.75806143179561,"(41.89531659116624, -87.75806143179561)",2013-08-09
48423,08/09/2013,Completed,08/12/2013,13-01125588,Sanitation Code Violation,Dumpster not being emptied,2890 N MILWAUKEE AVE,60618.0,1152470.41368797,1919057.78482915,35.0,14.0,21.0,41.93375795946541,-87.71509195854709,"(41.93375795946541, -87.7150919585471)",2013-08-09
48424,08/10/2013,Completed,08/12/2013,13-01126582,Sanitation Code Violation,Overflowing carts,2483 N CLARK ST,60614.0,1172472.42716724,1916945.41872509,43.0,19.0,7.0,41.927542213112815,-87.64164835495741,"(41.92754221311281, -87.6416483549574)",2013-08-10
48425,08/10/2013,Completed,08/12/2013,13-01126730,Sanitation Code Violation,Overflowing carts,1504 W JUNEWAY TER,60626.0,1164908.16567384,1951398.27789336,49.0,24.0,1.0,42.02224615853869,-87.66846128693216,"(42.022246158538685, -87.66846128693217)",2013-08-10
48426,08/10/2013,Completed,08/12/2013,13-01126818,Sanitation Code Violation,Garbage in alley,2464 N LINCOLN AVE,60614.0,1170032.16057773,1916647.3005826,43.0,19.0,7.0,41.92677783010651,-87.6506240174777,"(41.92677783010651, -87.6506240174777)",2013-08-10
48427,08/10/2013,Completed,08/12/2013,13-01127328,Sanitation Code Violation,Other,3046 W WARREN BLVD,60612.0,1156070.4284291,1900196.9038108997,2.0,12.0,27.0,41.88193008690755,-87.70237185640688,"(41.88193008690755, -87.70237185640687)",2013-08-10
48428,08/08/2013,Completed - Dup,08/12/2013,13-01113780,Sanitation Code Violation,Garbage in alley,134 S MAPLEWOOD AVE,60612.0,1159384.41171413,1899242.49572528,2.0,11.0,28.0,41.87924359883874,-87.6902291929868,"(41.87924359883874, -87.69022919298682)",2013-08-08
48429,08/08/2013,Completed - Dup,08/12/2013,13-01113817,Sanitation Code Violation,Garbage in alley,134 S MAPLEWOOD AVE,60612.0,1159384.41171413,1899242.49572528,2.0,11.0,28.0,41.87924359883874,-87.6902291929868,"(41.87924359883874, -87.69022919298682)",2013-08-08
48430,08/08/2013,Completed - Dup,08/12/2013,13-01115321,Sanitation Code Violation,Garbage in alley,134 S MAPLEWOOD AVE,60612.0,1159384.41171413,1899242.49572528,2.0,11.0,28.0,41.87924359883874,-87.6902291929868,"(41.87924359883874, -87.69022919298682)",2013-08-08
48431,08/08/2013,Completed,08/12/2013,13-01113549,Sanitation Code Violation,Other,3605 W 60TH ST,60629.0,1153316.74290588,1864586.94523038,13.0,8.0,65.0,41.78426694274038,-87.7134270242139,"(41.78426694274038, -87.71342702421391)",2013-08-08
48432,08/08/2013,Completed,08/12/2013,13-01115805,Sanitation Code Violation,Other,663 W CORNELIA AVE,60657.0,1171102.45080131,1923473.8880126998,44.0,19.0,6.0,41.94548681747901,-87.64649023295448,"(41.94548681747901, -87.64649023295448)",2013-08-08
48433,08/08/2013,Completed,08/12/2013,13-01116001,Sanitation Code Violation,Garbage in alley,543 N CENTRAL AVE,60644.0,1138938.71332289,1903045.20423149,37.0,15.0,25.0,41.890074590233404,-87.76521079668699,"(41.890074590233404, -87.76521079668699)",2013-08-08
48434,08/08/2013,Completed,08/12/2013,13-01116573,Sanitation Code Violation,Other,8242 S HOUSTON AVE,60617.0,1197920.64739557,1850903.49450458,10.0,4.0,46.0,41.74571984369935,-87.55035057695483,"(41.74571984369934, -87.55035057695483)",2013-08-08
48435,08/08/2013,Completed,08/12/2013,13-01117200,Sanitation Code Violation,Dog feces in yard,3510 W IRVING PARK RD,60618.0,1152229.20931846,1926365.50212674,33.0,17.0,16.0,41.953815657831065,-87.71578489838595,"(41.95381565783106, -87.71578489838596)",2013-08-08
48436,08/06/2013,Completed,08/12/2013,13-01096156,Sanitation Code Violation,Garbage in alley,212 N HALSTED ST,60661.0,1171004.53168344,1901833.84998088,27.0,12.0,28.0,41.886107590730425,-87.64748622701633,"(41.886107590730425, -87.64748622701634)",2013-08-06
48437,08/06/2013,Completed,08/12/2013,13-01099681,Sanitation Code Violation,Garbage in alley,5458 W HADDON AVE,60651.0,1139627.76286967,1907126.94278513,37.0,15.0,25.0,41.90126283168257,-87.76258053820305,"(41.901262831682565, -87.76258053820305)",2013-08-06
48438,08/06/2013,Completed,08/12/2013,13-01101863,Sanitation Code Violation,Dog feces in yard,2436 W MADISON ST,60612.0,1160207.65330474,1899944.1350207,2.0,12.0,28.0,41.88115199349134,-87.68718698869196,"(41.88115199349134, -87.68718698869195)",2013-08-06
48439,08/06/2013,Completed,08/12/2013,13-01102366,Sanitation Code Violation,Construction Site Cleanliness/Fence,2818 S KEELER AVE,60623.0,1148843.29811597,1884927.68186621,22.0,10.0,30.0,41.84017221968089,-87.72930444191381,"(41.84017221968089, -87.72930444191381)",2013-08-06
48440,08/06/2013,Completed,08/12/2013,13-01102666,Sanitation Code Violation,Overflowing carts,2757 W JACKSON BLVD,60612.0,1158043.87071128,1898577.47679644,2.0,11.0,27.0,41.877446181891436,-87.69516960111332,"(41.877446181891436, -87.69516960111332)",2013-08-06
48441,08/06/2013,Completed,08/12/2013,13-01102992,Sanitation Code Violation,Garbage in yard,906 N KILDARE AVE,60651.0,1147545.26049965,1905714.43212323,37.0,11.0,23.0,41.89723852343657,-87.73353478229586,"(41.89723852343657, -87.73353478229586)",2013-08-06
48442,08/06/2013,Completed,08/12/2013,13-01102995,Sanitation Code Violation,Garbage in alley,908 N KILDARE AVE,60651.0,1147544.76049965,1905736.03212323,37.0,11.0,23.0,41.89729780573825,-87.73353606411281,"(41.89729780573825, -87.73353606411281)",2013-08-06
48443,08/07/2013,Completed - Dup,08/12/2013,13-01110396,Sanitation Code Violation,Garbage in alley,6853 S TRIPP AVE,60629.0,1149219.25998935,1858810.63018346,13.0,8.0,65.0,41.76849587940383,-87.72859911561744,"(41.76849587940383, -87.72859911561744)",2013-08-07
48444,08/07/2013,Completed,08/12/2013,13-01103348,Sanitation Code Violation,,819 N HUDSON AVE,60610.0,1173034.56012689,1905860.0366689,27.0,18.0,8.0,41.8971109207433,-87.63991208394846,"(41.897110920743295, -87.63991208394845)",2013-08-07
48445,08/07/2013,Completed,08/12/2013,13-01105063,Sanitation Code Violation,Garbage in alley,134 S MAPLEWOOD AVE,60612.0,1159384.41171413,1899242.49572528,2.0,11.0,28.0,41.87924359883874,-87.6902291929868,"(41.87924359883874, -87.69022919298682)",2013-08-07
48446,08/07/2013,Completed,08/12/2013,13-01107071,Sanitation Code Violation,,719 W NORTH AVE,60610.0,1171222.6202,1910887.74775,27.0,18.0,8.0,41.910947238645775,-87.6464191570411,"(41.910947238645775, -87.6464191570411)",2013-08-07
48447,08/07/2013,Completed,08/12/2013,13-01107554,Sanitation Code Violation,Other,3618 W 60TH ST,60629.0,1153236.54290588,1864584.54523038,13.0,8.0,65.0,41.784261943086754,-87.713721135299,"(41.78426194308676, -87.713721135299)",2013-08-07
48448,08/07/2013,Completed,08/12/2013,13-01108259,Sanitation Code Violation,Garbage in alley,2713 N CLARK ST,60614.0,1171687.29588549,1918455.71863142,43.0,19.0,7.0,41.93170388491671,-87.64448878841974,"(41.93170388491671, -87.64448878841974)",2013-08-07
48449,08/07/2013,Completed,08/12/2013,13-01108557,Sanitation Code Violation,Garbage in yard,6404 S KOLIN AVE,60629.0,1148473.96382398,1861781.62149486,13.0,8.0,65.0,41.77666311874597,-87.73125479233983,"(41.77666311874597, -87.73125479233981)",2013-08-07
48450,08/07/2013,Completed,08/12/2013,13-01110255,Sanitation Code Violation,Garbage in alley,6853 S TRIPP AVE,60629.0,1149219.25998935,1858810.63018346,13.0,8.0,65.0,41.76849587940383,-87.72859911561744,"(41.76849587940383, -87.72859911561744)",2013-08-07
48451,08/07/2013,Completed,08/12/2013,13-01110390,Sanitation Code Violation,Garbage in alley,6848 S KEELER AVE,60629.0,1149551.27208122,1858853.29079631,13.0,8.0,65.0,41.768606534895284,-87.7273810098769,"(41.768606534895284, -87.7273810098769)",2013-08-07
48452,08/07/2013,Completed,08/12/2013,13-01110398,Sanitation Code Violation,Garbage in alley,6849 S TRIPP AVE,60629.0,1149218.55246651,1858837.66380963,13.0,8.0,65.0,41.76857007781665,-87.7286010123595,"(41.76857007781665, -87.7286010123595)",2013-08-07
48453,08/03/2013,Completed,08/12/2013,13-01081681,Sanitation Code Violation,Other,470 N ABERDEEN ST,60642.0,1169056.54247227,1903242.57738446,27.0,12.0,24.0,41.8900157357751,-87.65459871904255,"(41.8900157357751, -87.65459871904254)",2013-08-03
48454,08/04/2013,Completed,08/12/2013,13-01083441,Sanitation Code Violation,Garbage in alley,338 E 119TH ST,60628.0,1180401.60000846,1826122.36999467,9.0,5.0,53.0,41.678136728324475,-87.61530016166128,"(41.67813672832448, -87.61530016166128)",2013-08-04
48455,08/04/2013,Completed,08/12/2013,13-01083547,Sanitation Code Violation,Overflowing carts,4327 W CRYSTAL ST,60651.0,1147299.70951211,1907975.28227282,37.0,25.0,23.0,41.903447242803814,-87.7343786914241,"(41.90344724280381, -87.7343786914241)",2013-08-04
48456,08/05/2013,Completed,08/12/2013,13-01085014,Sanitation Code Violation,Overflowing carts,9349 S VERNON AVE,60619.0,1180887.03001823,1843080.07799333,9.0,6.0,49.0,41.72465984213557,-87.6130041689894,"(41.724659842135566, -87.6130041689894)",2013-08-05
48457,08/05/2013,Completed,08/12/2013,13-01085095,Sanitation Code Violation,Other,9949 S LAFAYETTE AVE,60628.0,1177683.34102952,1838997.60049954,9.0,5.0,49.0,41.71352994717842,-87.62486224683991,"(41.71352994717842, -87.62486224683991)",2013-08-05
48458,08/05/2013,Completed,08/12/2013,13-01085100,Sanitation Code Violation,Other,9947 S LAFAYETTE AVE,60628.0,1177683.04102952,1839011.00049954,9.0,5.0,49.0,41.7135667253672,-87.62486294173678,"(41.713566725367194, -87.62486294173678)",2013-08-05
48459,08/05/2013,Completed,08/12/2013,13-01087865,Sanitation Code Violation,Garbage in alley,515 N HALSTED ST,60642.0,1170954.77731639,1903870.55789707,27.0,12.0,24.0,41.89169754005253,-87.64760916586702,"(41.89169754005253, -87.64760916586702)",2013-08-05
48460,08/05/2013,Completed,08/12/2013,13-01088935,Sanitation Code Violation,Other,5018 W CRYSTAL ST,60651.0,1142683.25487694,1907855.18321582,37.0,25.0,25.0,41.90320487452885,-87.75133913384867,"(41.903204874528846, -87.75133913384867)",2013-08-05
48461,08/05/2013,Completed,08/12/2013,13-01089796,Sanitation Code Violation,Garbage in alley,240 E 35TH ST,60616.0,1178545.14270328,1881839.05452417,2.0,2.0,35.0,41.83107189404944,-87.62040540512159,"(41.831071894049444, -87.62040540512159)",2013-08-05
