,Creation Date,Status,Completion Date,Service Request Number,Type of Service Request,Street Address,ZIP Code,X Coordinate,Y Coordinate,Ward,Police District,Community Area,Latitude,Longitude,Location,date
74456,07/01/2013,Completed - Dup,07/01/2013,13-00856330,Street Light - 1/Out,8901 S HERMITAGE AVE,60620.0,1166235.14416573,1845655.49057477,21.0,22.0,71.0,41.73205107658049,-87.6666008700385,"(41.73205107658049,-87.66660087003848)",2013-07-01
74457,07/01/2013,Completed - Dup,07/01/2013,13-00858443,Street Light - 1/Out,1418 W WINONA ST,60640.0,1165878.54547901,1934311.70896785,48.0,20.0,3.0,41.97533949818817,-87.6653807675347,"(41.975339498188184,-87.66538076753471)",2013-07-01
74458,07/01/2013,Completed - Dup,07/01/2013,13-00861340,Street Light - 1/Out,4712 W PENSACOLA AVE,60641.0,1143918.30618916,1928496.4099093003,45.0,17.0,15.0,41.95982331974255,-87.74628333932031,"(41.95982331974255,-87.74628333932031)",2013-07-01
74459,07/01/2013,Completed - Dup,07/01/2013,13-00864563,Street Light - 1/Out,9427 S CHAMPLAIN AVE,60619.0,1182220.83008174,1842618.20527141,9.0,6.0,49.0,41.72336167672151,-87.60813276387128,"(41.72336167672151,-87.60813276387128)",2013-07-01
74460,07/01/2013,Completed,07/01/2013,13-00859656,Street Light - 1/Out,9700 S HOUSTON AVE,60617.0,1198201.40099006,1841216.87022664,10.0,4.0,51.0,41.71913196377368,-87.54964503958969,"(41.719131963773684,-87.54964503958969)",2013-07-01
74461,07/01/2013,Completed,07/01/2013,13-00859857,Street Light - 1/Out,5231 S MASSASOIT AVE,60638.0,1138916.9022663,1869347.37428487,23.0,8.0,56.0,41.7976031447564,-87.76610824125153,"(41.7976031447564,-87.76610824125153)",2013-07-01
74462,07/01/2013,Completed,07/01/2013,13-00860657,Street Light - 1/Out,13237 S FORRESTVILLE AVE,60827.0,1182325.12037867,1817606.40962015,9.0,5.0,54.0,41.65472346782135,-87.60852161592518,"(41.65472346782134,-87.60852161592517)",2013-07-01
74463,07/01/2013,Completed,07/01/2013,13-00861077,Street Light - 1/Out,7930 S PHILLIPS AVE,60617.0,1193905.04002952,1852743.66000836,7.0,4.0,46.0,41.750868734823094,-87.56500402372153,"(41.750868734823094,-87.56500402372151)",2013-07-01
74464,07/01/2013,Completed,07/01/2013,13-00865050,Street Light - 1/Out,2300 W WALTON ST,60622.0,1160900.26082079,1906276.53492164,32.0,12.0,24.0,41.898514298778885,-87.68446794208025,"(41.89851429877888,-87.68446794208025)",2013-07-01
74508,07/01/2013,Completed - Dup,07/02/2013,13-00856319,Street Light - 1/Out,5434 N CENTRAL AVE,60630.0,1137854.73799929,1935782.92993356,45.0,16.0,11.0,41.979930005692,-87.76839945389865,"(41.979930005692,-87.76839945389865)",2013-07-01
74509,07/01/2013,Completed - Dup,07/02/2013,13-00860584,Street Light - 1/Out,6430 S WOLCOTT AVE,60636.0,1164789.26618864,1862038.03197044,15.0,7.0,67.0,41.77703772002495,-87.67143600540241,"(41.77703772002495,-87.6714360054024)",2013-07-01
74510,07/01/2013,Completed - Dup,07/02/2013,13-00860675,Street Light - 1/Out,3131 S THROOP ST,60608.0,1168170.05693179,1883906.29432864,11.0,9.0,60.0,41.83697456883512,-87.65841253413721,"(41.836974568835124,-87.65841253413721)",2013-07-01
74511,07/01/2013,Completed - Dup,07/02/2013,13-00860845,Street Light - 1/Out,5534 W 63RD PL,60638.0,1140605.65852231,1861918.77690087,13.0,8.0,64.0,41.77718704513064,-87.76009682574379,"(41.77718704513064,-87.7600968257438)",2013-07-01
74512,07/01/2013,Completed - Dup,07/02/2013,13-00862261,Street Light - 1/Out,5200 W 63RD PL,60638.0,1142818.96732932,1862013.74522384,13.0,8.0,64.0,41.777406881901925,-87.75198036287311,"(41.77740688190192,-87.75198036287311)",2013-07-01
74513,07/01/2013,Completed - Dup,07/02/2013,13-00864737,Street Light - 1/Out,452 E 95TH ST,60619.0,1181013.56998038,1842082.32597196,9.0,6.0,49.0,41.72191898086635,-87.61257125745512,"(41.72191898086635,-87.61257125745512)",2013-07-01
74514,07/01/2013,Completed - Dup,07/02/2013,13-00864934,Street Light - 1/Out,6817 N RAVENSWOOD AVE,60626.0,1162988.58009375,1945284.42729073,49.0,24.0,1.0,42.005510329084295,-87.67569829371504,"(42.0055103290843,-87.67569829371504)",2013-07-01
74515,07/01/2013,Completed - Dup,07/02/2013,13-00864936,Street Light - 1/Out,1748 W FARWELL AVE,60626.0,1163100.39199507,1945657.96411221,49.0,24.0,1.0,42.00653296562193,-87.67527636587606,"(42.00653296562193,-87.67527636587606)",2013-07-01
74516,07/01/2013,Completed - Dup,07/02/2013,13-00864937,Street Light - 1/Out,6917 N RAVENSWOOD AVE,60626.0,1163095.29199507,1945834.96411221,49.0,24.0,1.0,42.007018765387116,-87.67529012408049,"(42.007018765387116,-87.67529012408049)",2013-07-01
74517,07/02/2013,Completed - Dup,07/02/2013,13-00866609,Street Light - 1/Out,3046 W VAN BUREN ST,60612.0,1156041.66102919,1898003.22101049,28.0,11.0,27.0,41.875910982860226,-87.70253669419054,"(41.875910982860226,-87.70253669419054)",2013-07-02
74518,07/02/2013,Completed - Dup,07/02/2013,13-00867774,Street Light - 1/Out,8723 S RACINE AVE,60620.0,1169848.10367712,1846944.70549149,21.0,22.0,71.0,41.735511303040745,-87.65332777410995,"(41.735511303040745,-87.65332777410995)",2013-07-02
74519,07/02/2013,Completed - Dup,07/02/2013,13-00871849,Street Light - 1/Out,5349 S SAWYER AVE,60632.0,1155621.7788175,1868968.49062084,14.0,8.0,63.0,41.79624461823335,-87.70485834860166,"(41.796244618233345,-87.70485834860166)",2013-07-02
74520,07/02/2013,Completed - Dup,07/02/2013,13-00872257,Street Light - 1/Out,7726 S TRUMBULL AVE,60652.0,1154719.66990192,1853163.63356836,18.0,8.0,70.0,41.75289172556497,-87.7085875144338,"(41.75289172556497,-87.70858751443379)",2013-07-02
74521,07/02/2013,Completed - Dup,07/02/2013,13-00872463,Street Light - 1/Out,4749 N DAMEN AVE,60625.0,1162150.22023327,1931633.33001309,47.0,19.0,4.0,41.968068865310904,-87.67916629794821,"(41.96806886531091,-87.6791662979482)",2013-07-02
74522,07/02/2013,Completed,07/02/2013,13-00866325,Street Light - 1/Out,6900 N CLARK ST,60626.0,1163611.36997361,1945671.32578575,49.0,24.0,1.0,42.00655883751559,-87.67339602969074,"(42.00655883751559,-87.67339602969075)",2013-07-02
74523,07/02/2013,Completed,07/02/2013,13-00866502,Street Light - 1/Out,2358 W POTOMAC AVE,60622.0,1160372.11547249,1908589.62291,1.0,14.0,24.0,41.90487254243415,-87.68634371316332,"(41.90487254243415,-87.68634371316331)",2013-07-02
74524,07/02/2013,Completed,07/02/2013,13-00866513,Street Light - 1/Out,2332 W POTOMAC AVE,60622.0,1160498.41547249,1908597.62291,1.0,14.0,24.0,41.904891880146224,-87.68587955329642,"(41.90489188014623,-87.6858795532964)",2013-07-02
74525,07/02/2013,Completed,07/02/2013,13-00866516,Street Light - 1/Out,1225 N OAKLEY BLVD,60622.0,1160852.23939749,1908100.55118684,1.0,14.0,24.0,41.90352054100959,-87.68459365943785,"(41.90352054100959,-87.68459365943785)",2013-07-02
74526,07/02/2013,Completed,07/02/2013,13-00866521,Street Light - 1/Out,1550 W KINZIE ST,60642.0,1165879.88250892,1902794.55730556,27.0,12.0,24.0,41.88885469455477,-87.66627758355602,"(41.88885469455477,-87.66627758355602)",2013-07-02
74527,07/02/2013,Completed,07/02/2013,13-00866529,Street Light - 1/Out,1500 W KINZIE ST,60642.0,1166104.15999628,1902797.38018574,27.0,12.0,24.0,41.88885765354047,-87.66545387307458,"(41.88885765354047,-87.6654538730746)",2013-07-02
74528,07/02/2013,Completed,07/02/2013,13-00866544,Street Light - 1/Out,3614 W MONTICELLO AVE,60624.0,1152096.95219197,1902651.64009012,27.0,11.0,23.0,41.888745376853386,-87.71689773977917,"(41.88874537685338,-87.71689773977917)",2013-07-02
74529,07/02/2013,Completed,07/02/2013,13-00866548,Street Light - 1/Out,3600 W FRANKLIN BLVD,60624.0,1152241.63769598,1903094.20208425,27.0,11.0,23.0,41.88995695866508,-87.71635471076124,"(41.88995695866508,-87.71635471076125)",2013-07-02
74530,07/02/2013,Completed,07/02/2013,13-00866616,Street Light - 1/Out,3011 W HARRISON ST,60612.0,1156388.23010162,1897216.01879691,28.0,11.0,27.0,41.8737438240219,-87.70128549601894,"(41.8737438240219,-87.70128549601894)",2013-07-02
74531,07/02/2013,Completed,07/02/2013,13-00866621,Street Light - 1/Out,1 W LAKE ST,60601.0,1176328.02369789,1901746.25869844,42.0,1.0,32.0,41.885748819072866,-87.62794001091278,"(41.885748819072866,-87.62794001091278)",2013-07-02
74532,07/02/2013,Completed,07/02/2013,13-00871144,Street Light - 1/Out,4047 W ADAMS ST,60624.0,1149444.55087361,1898704.13651822,28.0,11.0,26.0,41.87796486629868,-87.72674090012133,"(41.877964866298676,-87.72674090012133)",2013-07-02
74533,07/02/2013,Completed,07/02/2013,13-00871877,Street Light - 1/Out,3526 W 26TH ST,60623.0,1153173.80076933,1886500.04809337,22.0,10.0,30.0,41.844402315691525,-87.71337148343571,"(41.84440231569152,-87.7133714834357)",2013-07-02
74534,07/02/2013,Completed,07/02/2013,13-00873348,Street Light - 1/Out,1338 S SPAULDING AVE,60623.0,1154581.82619948,1893429.78816858,24.0,10.0,29.0,41.86339030953165,-87.70801903158797,"(41.863390309531646,-87.70801903158797)",2013-07-02
74584,07/01/2013,Completed - Dup,07/03/2013,13-00857055,Street Light - 1/Out,8100 S PHILLIPS AVE,60617.0,1193924.8994334,1851739.27628044,7.0,4.0,46.0,41.748112137686185,-87.56496411843699,"(41.748112137686185,-87.56496411843699)",2013-07-01
74585,07/01/2013,Completed - Dup,07/03/2013,13-00859664,Street Light - 1/Out,8933 S CLAREMONT AVE,60643.0,1162273.00001316,1845126.68997618,19.0,22.0,72.0,41.73068327015951,-87.68113059873737,"(41.73068327015951,-87.68113059873737)",2013-07-01
74586,07/01/2013,Completed - Dup,07/03/2013,13-00862240,Street Light - 1/Out,4051 W 58TH PL,60629.0,1150277.36779448,1865499.43207626,13.0,8.0,62.0,41.78683053981877,-87.72454700826809,"(41.786830539818766,-87.7245470082681)",2013-07-01
74587,07/01/2013,Completed - Dup,07/03/2013,13-00864678,Street Light - 1/Out,4843 S BISHOP ST,60609.0,1167484.02456637,1872628.2525683998,20.0,9.0,61.0,41.80604120650219,-87.66125356576548,"(41.80604120650219,-87.66125356576549)",2013-07-01
74588,07/01/2013,Completed - Dup,07/03/2013,13-00864709,Street Light - 1/Out,4316 W POTOMAC AVE,60651.0,1147364.90262225,1908306.95311218,37.0,25.0,23.0,41.9043561327776,-87.73413071063312,"(41.9043561327776,-87.73413071063312)",2013-07-01
74589,07/01/2013,Completed - Dup,07/03/2013,13-00864727,Street Light - 1/Out,1045 N MONITOR AVE,60651.0,1137169.48002538,1906372.28970872,29.0,15.0,25.0,41.899236495082896,-87.77162833329088,"(41.8992364950829,-87.77162833329088)",2013-07-01
74590,07/01/2013,Completed - Dup,07/03/2013,13-00864915,Street Light - 1/Out,7111 S INGLESIDE AVE,60619.0,1183787.40999059,1858037.01077973,5.0,3.0,69.0,41.765636169722,-87.60191451062452,"(41.765636169721994,-87.60191451062451)",2013-07-01
74591,07/01/2013,Completed - Dup,07/03/2013,13-00865037,Street Light - 1/Out,1100 N MENARD AVE,60651.0,1137488.67966601,1906743.69482231,29.0,15.0,25.0,41.90024993576357,-87.77044695073137,"(41.90024993576357,-87.77044695073138)",2013-07-01
74592,07/01/2013,Completed - Dup,07/03/2013,13-00865104,Street Light - 1/Out,1009 N MONITOR AVE,60651.0,1137177.08002538,1906130.28970872,29.0,15.0,25.0,41.89857228036612,-87.77160623811135,"(41.89857228036612,-87.77160623811135)",2013-07-01
74593,07/01/2013,Completed,07/03/2013,13-00863929,Street Light - 1/Out,7702 W TOUHY AVE,60631.0,1124056.01470037,1947165.90097098,41.0,16.0,9.0,42.01140452411136,-87.81889540291945,"(42.011404524111356,-87.81889540291945)",2013-07-01
74594,07/01/2013,Completed,07/03/2013,13-00865092,Street Light - 1/Out,5556 W WAVELAND AVE,60641.0,1138570.60000798,1924047.24128623,38.0,16.0,15.0,41.94771322422182,-87.76605249519648,"(41.94771322422182,-87.76605249519649)",2013-07-01
74595,07/02/2013,Completed - Dup,07/03/2013,13-00865393,Street Light - 1/Out,3345 W 83RD PL,60652.0,1155534.14891279,1849027.23963375,18.0,8.0,70.0,41.741524511607366,-87.70571330806406,"(41.74152451160737,-87.70571330806406)",2013-07-02
74596,07/02/2013,Completed - Dup,07/03/2013,13-00868199,Street Light - 1/Out,9727 S AVENUE M,60617.0,1201461.87751442,1841204.59603247,10.0,4.0,52.0,41.71901621755799,-87.53770366951395,"(41.719016217557986,-87.53770366951395)",2013-07-02
74597,07/02/2013,Completed - Dup,07/03/2013,13-00868349,Street Light - 1/Out,1047 N MONITOR AVE,60651.0,1137168.98002538,1906385.68970872,29.0,15.0,25.0,41.89927327533452,-87.77162984756174,"(41.89927327533452,-87.77162984756173)",2013-07-02
74598,07/02/2013,Completed - Dup,07/03/2013,13-00871584,Street Light - 1/Out,6600 S JUSTINE ST,60636.0,1167142.58601654,1860959.615302,17.0,7.0,67.0,41.774028378127156,-87.66283959796513,"(41.77402837812716,-87.66283959796513)",2013-07-02
74599,07/02/2013,Completed - Dup,07/03/2013,13-00872947,Street Light - 1/Out,9443 S UNION AVE,60620.0,1173301.30753178,1842239.46532103,21.0,22.0,73.0,41.72252391038284,-87.64081528724329,"(41.72252391038284,-87.6408152872433)",2013-07-02
74600,07/02/2013,Completed,07/03/2013,13-00865220,Street Light - 1/Out,2842 N MOBILE AVE,,1133919.95940841,1918222.39581535,29.0,25.0,19.0,41.931812396509116,-87.7832848097571,"(41.931812396509116,-87.78328480975709)",2013-07-02
74601,07/02/2013,Completed,07/03/2013,13-00865331,Street Light - 1/Out,5449 N CUMBERLAND AVE,60656.0,1119316.61191487,1935153.5380339,41.0,16.0,10.0,41.978518140408866,-87.83659052043555,"(41.978518140408866,-87.83659052043554)",2013-07-02
74602,07/02/2013,Completed,07/03/2013,13-00866128,Street Light - 1/Out,4920 N MOBILE AVE,60630.0,1133213.50412165,1932449.60018623,45.0,16.0,11.0,41.970865761957775,-87.7855468002993,"(41.97086576195777,-87.78554680029929)",2013-07-02
74603,07/02/2013,Completed,07/03/2013,13-00871318,Street Light - 1/Out,116 E 91ST ST,60619.0,1178819.92987,1844680.28253188,6.0,6.0,44.0,41.72909822186653,-87.6205273531368,"(41.729098221866536,-87.6205273531368)",2013-07-02
74604,07/03/2013,Completed - Dup,07/03/2013,13-00874429,Street Light - 1/Out,7523 W FOREST PRESERVE AVE,60634.0,1125195.45127076,1924789.92799948,36.0,16.0,17.0,41.949983637574995,-87.81520085833391,"(41.94998363757499,-87.81520085833391)",2013-07-03
74605,07/03/2013,Completed,07/03/2013,13-00873652,Street Light - 1/Out,3300 W IRVING PARK RD,60618.0,1153676.00089918,1926403.76898154,33.0,17.0,16.0,41.95389193344415,-87.71046528269049,"(41.95389193344415,-87.71046528269048)",2013-07-03
74606,07/03/2013,Completed,07/03/2013,13-00880858,Street Light - 1/Out,8348 S BURNHAM AVE,60617.0,1196278.3150007,1850156.23551121,7.0,4.0,46.0,41.743710157792385,-87.55639298832874,"(41.74371015779238,-87.55639298832874)",2013-07-03
74607,07/03/2013,Completed,07/03/2013,13-00881007,Street Light - 1/Out,10300 S HARPER AVE,60617.0,1188730.3462307,1837001.63638466,10.0,4.0,51.0,41.70779624066686,-87.58446817648769,"(41.70779624066686,-87.58446817648768)",2013-07-03
74614,07/01/2013,Completed - Dup,07/04/2013,13-00858256,Street Light - 1/Out,9715 S LUELLA AVE,60617.0,1192862.06869877,1840797.39253425,7.0,4.0,51.0,41.71811258463863,-87.5692145616276,"(41.71811258463863,-87.5692145616276)",2013-07-01
74615,07/01/2013,Completed - Dup,07/04/2013,13-00865103,Street Light - 1/Out,11353 S COTTAGE GROVE AVE,60628.0,1181573.45736975,1829789.4800139,9.0,5.0,50.0,41.68817291907993,-87.61089822747826,"(41.68817291907993,-87.61089822747827)",2013-07-01
74616,07/02/2013,Completed - Dup,07/04/2013,13-00873535,Street Light - 1/Out,10245 S DR MARTIN LUTHER KING JR DR,60628.0,1180721.49737497,1837120.2675236,9.0,5.0,49.0,41.70830916259891,-87.61379295454707,"(41.70830916259891,-87.61379295454707)",2013-07-02
74623,07/02/2013,Completed,07/05/2013,13-00872391,Street Light - 1/Out,8301 S PERRY AVE,60620.0,1177053.88198679,1849949.77977293,21.0,6.0,44.0,41.743598335292866,-87.62683832376365,"(41.74359833529287,-87.62683832376366)",2013-07-02
74624,07/03/2013,Completed - Dup,07/05/2013,13-00875044,Street Light - 1/Out,8849 S STATE ST,60619.0,1177837.28349734,1846319.64011525,6.0,6.0,44.0,41.733619100163175,-87.62407752132592,"(41.73361910016317,-87.62407752132592)",2013-07-03
74625,07/03/2013,Completed - Dup,07/05/2013,13-00876774,Street Light - 1/Out,1358 W 32ND ST,60608.0,1167725.37888014,1883571.25723064,11.0,9.0,60.0,41.836064771037606,-87.6600538709803,"(41.8360647710376,-87.6600538709803)",2013-07-03
74626,07/05/2013,Completed - Dup,07/05/2013,13-00884316,Street Light - 1/Out,8401 S STATE ST,60619.0,1177756.39526559,1849304.35993009,6.0,6.0,44.0,41.74181136884955,-87.62428376596061,"(41.741811368849554,-87.62428376596063)",2013-07-05
74627,07/05/2013,Completed - Dup,07/05/2013,13-00884718,Street Light - 1/Out,8517 S INDIANA AVE,60619.0,1179078.78470028,1848570.43189808,6.0,6.0,44.0,41.73976738104692,-87.61946091132675,"(41.73976738104692,-87.61946091132675)",2013-07-05
74628,07/05/2013,Completed - Dup,07/05/2013,13-00887231,Street Light - 1/Out,8600 S INDIANA AVE,60619.0,1179094.21698967,1848019.77227204,6.0,6.0,44.0,41.73825595365495,-87.61942110666455,"(41.73825595365495,-87.61942110666455)",2013-07-05
74629,07/05/2013,Completed - Dup,07/05/2013,13-00888024,Street Light - 1/Out,8431 S STATE ST,60619.0,1177762.19526559,1849103.05993009,6.0,6.0,44.0,41.74125884601412,-87.62426859226862,"(41.74125884601412,-87.62426859226863)",2013-07-05
74630,07/05/2013,Completed,07/05/2013,13-00882979,Street Light - 1/Out,5101 S MAJOR AVE,60638.0,1139225.45993134,1870228.26429515,23.0,8.0,56.0,41.80001486347422,-87.76495533120716,"(41.80001486347422,-87.76495533120715)",2013-07-05
74631,07/05/2013,Completed,07/05/2013,13-00884118,Street Light - 1/Out,4900 W NELSON ST,60641.0,1143175.62161227,1919830.89679319,31.0,25.0,19.0,41.93605829817166,-87.74923093018961,"(41.93605829817166,-87.74923093018961)",2013-07-05
74632,07/05/2013,Completed,07/05/2013,13-00886167,Street Light - 1/Out,9436 S DAN RYAN EXPY IB,,,,,,,,,,2013-07-05
74633,07/05/2013,Completed,07/05/2013,13-00886676,Street Light - 1/Out,5145 S KENNETH AVE,60632.0,1147567.73037407,1870099.00799352,23.0,8.0,57.0,41.79950471870425,-87.73436463208807,"(41.79950471870425,-87.73436463208807)",2013-07-05
74634,07/05/2013,Completed,07/05/2013,13-00886819,Street Light - 1/Out,2414 W CORTEZ ST,60622.0,1160122.27887303,1906917.37558901,1.0,12.0,24.0,41.90028892869606,-87.68730769726109,"(41.900288928696064,-87.68730769726109)",2013-07-05
74635,07/05/2013,Completed,07/05/2013,13-00888385,Street Light - 1/Out,11701 S ELIZABETH ST,60643.0,1170099.20107061,1827184.32841076,34.0,5.0,53.0,41.681280335287816,-87.65297983050715,"(41.68128033528782,-87.65297983050714)",2013-07-05
74636,07/05/2013,Completed,07/05/2013,13-00888409,Street Light - 1/Out,7616 N ROGERS AVE,60626.0,1165175.56690457,1950479.17986982,49.0,24.0,1.0,42.019718437679394,-87.66750355307026,"(42.019718437679394,-87.66750355307026)",2013-07-05
74637,07/01/2013,Completed - Dup,07/06/2013,13-00857051,Street Light - 1/Out,11300 S STEWART AVE,60628.0,1175640.64910256,1829983.33781041,34.0,22.0,49.0,41.68883937512104,-87.63261189733423,"(41.68883937512104,-87.63261189733424)",2013-07-01
74638,07/05/2013,Completed - Dup,07/06/2013,13-00888312,Street Light - 1/Out,8611 S UNION AVE,60620.0,1173145.46282896,1847694.56997083,21.0,6.0,71.0,41.737496904819366,-87.64122545943562,"(41.737496904819366,-87.64122545943563)",2013-07-05
74639,07/05/2013,Completed,07/06/2013,13-00888464,Street Light - 1/Out,11601 S CARPENTER ST,60643.0,1171406.74441539,1827881.44177274,34.0,5.0,53.0,41.683164894810254,-87.64817323352497,"(41.68316489481026,-87.64817323352497)",2013-07-05
74640,07/05/2013,Completed,07/06/2013,13-00888466,Street Light - 1/Out,11801 S MORGAN ST,60643.0,1171782.14141364,1826565.6600898,34.0,5.0,53.0,41.67954597370355,-87.64683742028873,"(41.679545973703554,-87.64683742028873)",2013-07-05
74641,07/06/2013,Completed,07/06/2013,13-00888578,Street Light - 1/Out,1418 W 114TH PL,60643.0,1168864.98869764,1828816.27609407,34.0,22.0,75.0,41.68578533148837,-87.6574508445253,"(41.68578533148837,-87.65745084452529)",2013-07-06
74643,07/03/2013,Completed - Dup,07/07/2013,13-00877276,Street Light - 1/Out,2315 S DRAKE AVE,60623.0,1153066.11190388,1888388.6557656997,22.0,10.0,30.0,41.84958701603255,-87.71371667989638,"(41.84958701603255,-87.71371667989638)",2013-07-03
74644,07/06/2013,Completed - Dup,07/07/2013,13-00889658,Street Light - 1/Out,3631 W 69TH PL,60629.0,1153317.29477988,1858278.53013227,13.0,8.0,65.0,41.76695566287506,-87.71359168069479,"(41.76695566287506,-87.71359168069478)",2013-07-06
74645,07/07/2013,Completed - Dup,07/07/2013,13-00891438,Street Light - 1/Out,9217 S THROOP ST,60620.0,1169279.69953246,1843645.82069055,21.0,22.0,73.0,41.72647099034464,-87.65550536343498,"(41.72647099034463,-87.65550536343498)",2013-07-07
74694,07/01/2013,Completed - Dup,07/08/2013,13-00864335,Street Light - 1/Out,2937 S ELIAS CT,60608.0,1168689.74829458,1885482.00256777,11.0,9.0,60.0,41.84128723844362,-87.6564600163134,"(41.84128723844362,-87.6564600163134)",2013-07-01
74695,07/01/2013,Completed,07/08/2013,13-00856379,Street Light - 1/Out,2552 N MONITOR AVE,60639.0,1136957.79008671,1916368.86232201,30.0,25.0,19.0,41.926672073054206,-87.77216564269888,"(41.926672073054206,-87.77216564269887)",2013-07-01
74696,07/01/2013,Completed,07/08/2013,13-00856427,Street Light - 1/Out,2055 W PRATT BLVD,60645.0,1161177.93081362,1945146.72649021,50.0,24.0,2.0,42.00517044555641,-87.68236367199611,"(42.005170445556416,-87.68236367199611)",2013-07-01
74697,07/01/2013,Completed,07/08/2013,13-00860170,Street Light - 1/Out,34 N LOCKWOOD AVE,60644.0,,,28.0,15.0,25.0,,,,2013-07-01
74698,07/01/2013,Completed,07/08/2013,13-00864955,Street Light - 1/Out,2124 N MONITOR AVE,60639.0,1137056.80001789,1913365.44932746,29.0,25.0,19.0,41.91842858843597,-87.7718740790881,"(41.91842858843597,-87.7718740790881)",2013-07-01
74699,07/02/2013,Completed - Dup,07/08/2013,13-00865314,Street Light - 1/Out,2414 W CORTEZ ST,60622.0,1160122.27887303,1906917.37558901,1.0,12.0,24.0,41.90028892869606,-87.68730769726109,"(41.900288928696064,-87.68730769726109)",2013-07-02
74700,07/02/2013,Completed - Dup,07/08/2013,13-00873534,Street Light - 1/Out,10303 S DR MARTIN LUTHER KING JR DR,60628.0,1180732.11278401,1836738.00042195,9.0,5.0,49.0,41.707259927962454,-87.61376577821565,"(41.707259927962454,-87.61376577821565)",2013-07-02
74701,07/02/2013,Completed - Dup,07/08/2013,13-00873538,Street Light - 1/Out,10311 S DR MARTIN LUTHER KING JR DR,60628.0,1180733.61278401,1836684.30042195,9.0,5.0,49.0,41.70711253368643,-87.61376192847669,"(41.707112533686434,-87.61376192847668)",2013-07-02
74702,07/02/2013,Completed,07/08/2013,13-00872080,Street Light - 1/Out,2552 N MARMORA AVE,60639.0,1136627.21209494,1916358.74887272,29.0,25.0,19.0,41.926650250991,-87.77338063103582,"(41.926650250991,-87.77338063103583)",2013-07-02
74703,07/02/2013,Completed,07/08/2013,13-00873409,Street Light - 1/Out,2610 S EMERALD AVE,60616.0,1171737.04976716,1886945.98438904,11.0,9.0,60.0,41.84523808426968,-87.64523448897165,"(41.845238084269674,-87.64523448897165)",2013-07-02
74704,07/03/2013,Completed - Dup,07/08/2013,13-00873777,Street Light - 1/Out,2204 W 50TH PL,60609.0,1162390.3599777,1871146.49002394,16.0,9.0,63.0,41.802082848910864,-87.67997662141704,"(41.80208284891086,-87.67997662141704)",2013-07-03
74705,07/03/2013,Completed - Dup,07/08/2013,13-00875934,Street Light - 1/Out,8255 S ABERDEEN ST,60620.0,1170421.95927087,1850064.0239,21.0,6.0,71.0,41.744058682523814,-87.65113479900802,"(41.744058682523814,-87.65113479900803)",2013-07-03
74706,07/03/2013,Completed - Dup,07/08/2013,13-00880871,Street Light - 1/Out,2400 W LUNT AVE,60645.0,1159048.86157611,1946391.44052837,50.0,24.0,2.0,42.008630134329294,-87.69016225796373,"(42.0086301343293,-87.69016225796373)",2013-07-03
74707,07/03/2013,Completed - Dup,07/08/2013,13-00880918,Street Light - 1/Out,3452 N OCONTO AVE,60634.0,1127139.36200271,1922082.16648121,36.0,16.0,17.0,41.942520748840735,-87.80811608760584,"(41.942520748840735,-87.80811608760585)",2013-07-03
74708,07/04/2013,Completed - Dup,07/08/2013,13-00882236,Street Light - 1/Out,2227 W 50TH PL,60609.0,1162269.3599777,1871143.49002394,16.0,9.0,63.0,41.802077139595255,-87.68042046299743,"(41.802077139595255,-87.68042046299743)",2013-07-04
74709,07/05/2013,Completed - Dup,07/08/2013,13-00888124,Street Light - 1/Out,10615 S VERNON AVE,60628.0,1181125.1042882,1834670.85889359,9.0,5.0,49.0,41.701578397616906,-87.61239002475487,"(41.70157839761691,-87.61239002475486)",2013-07-05
74710,07/05/2013,Completed - Dup,07/08/2013,13-00888237,Street Light - 1/Out,6011 S WHIPPLE ST,60629.0,1157078.82003159,1864620.15661309,16.0,8.0,66.0,41.784282822258724,-87.69963276158823,"(41.78428282225873,-87.69963276158823)",2013-07-05
74711,07/05/2013,Completed - Dup,07/08/2013,13-00888480,Street Light - 1/Out,7740 S KIMBARK AVE,60619.0,1186307.84836722,1853790.01602935,8.0,4.0,45.0,41.75392283347333,-87.59281040169282,"(41.753922833473325,-87.59281040169282)",2013-07-05
74712,07/06/2013,Completed - Dup,07/08/2013,13-00888565,Street Light - 1/Out,2917 S ELIAS CT,60608.0,1168591.54829458,1885631.90256777,11.0,9.0,60.0,41.84170070103447,-87.65681604226549,"(41.84170070103447,-87.6568160422655)",2013-07-06
74713,07/06/2013,Completed - Dup,07/08/2013,13-00889203,Street Light - 1/Out,10615 S VERNON AVE,60628.0,1181125.1042882,1834670.85889359,9.0,5.0,49.0,41.701578397616906,-87.61239002475487,"(41.70157839761691,-87.61239002475486)",2013-07-06
74714,07/06/2013,Completed - Dup,07/08/2013,13-00889266,Street Light - 1/Out,2257 E 96TH ST,60617.0,1193012.719484,1841966.51346799,7.0,4.0,51.0,41.72131709637957,-87.56862475986664,"(41.72131709637957,-87.56862475986664)",2013-07-06
74715,07/06/2013,Completed - Dup,07/08/2013,13-00890014,Street Light - 1/Out,444 N CARPENTER ST,60642.0,1169373.57842938,1903276.27217086,27.0,12.0,24.0,41.890101309119174,-87.65343344716288,"(41.89010130911917,-87.65343344716288)",2013-07-06
74716,07/06/2013,Completed - Dup,07/08/2013,13-00890420,Street Light - 1/Out,7827 W RASCHER AVE,60656.0,1123163.65900896,1935234.89132323,41.0,16.0,10.0,41.97867929290656,-87.82244074953155,"(41.97867929290656,-87.82244074953155)",2013-07-06
74717,07/07/2013,Completed - Dup,07/08/2013,13-00892225,Street Light - 1/Out,2100 N LAWNDALE AVE,60647.0,1151371.13518734,1913701.76622053,26.0,25.0,22.0,41.9190822671009,-87.7192727462681,"(41.919082267100904,-87.7192727462681)",2013-07-07
74718,07/07/2013,Completed,07/08/2013,13-00890716,Street Light - 1/Out,2631 W MONROE ST,60612.0,1158828.09741961,1899586.94372418,2.0,11.0,27.0,41.880200217327314,-87.69226244183389,"(41.88020021732731,-87.69226244183389)",2013-07-07
74719,07/08/2013,Completed - Dup,07/08/2013,13-00892771,Street Light - 1/Out,6331 W 64TH ST,60638.0,1135311.88291655,1861412.23978779,13.0,8.0,64.0,41.775892208285896,-87.77951611804153,"(41.7758922082859,-87.77951611804153)",2013-07-08
74720,07/08/2013,Completed - Dup,07/08/2013,13-00895578,Street Light - 1/Out,2244 E 96TH ST,60617.0,1192951.419484,1841964.91346799,7.0,4.0,51.0,41.72131419981796,-87.56884933770195,"(41.72131419981796,-87.56884933770196)",2013-07-08
74721,07/08/2013,Completed - Dup,07/08/2013,13-00896621,Street Light - 1/Out,9914 S WINSTON AVE,60643.0,1168706.67478435,1838969.38139611,21.0,22.0,73.0,41.713650496146045,-87.6577388393125,"(41.713650496146045,-87.6577388393125)",2013-07-08
74722,07/08/2013,Completed,07/08/2013,13-00894862,Street Light - 1/Out,7727 W PALATINE AVE,60631.0,1123756.73713429,1941193.71751118,41.0,16.0,10.0,41.995021206580255,-87.82012831526423,"(41.99502120658026,-87.82012831526423)",2013-07-08
74723,07/08/2013,Completed,07/08/2013,13-00896204,Street Light - 1/Out,10941 S MORGAN ST,60643.0,1171603.89372123,1832162.45608477,34.0,22.0,75.0,41.69490837971928,-87.64732674326919,"(41.69490837971928,-87.6473267432692)",2013-07-08
74724,07/08/2013,Completed,07/08/2013,13-00896381,Street Light - 1/Out,11500 S THROOP ST,60643.0,1169725.88182213,1828507.34252159,34.0,5.0,53.0,41.68491898880096,-87.65430820868515,"(41.68491898880096,-87.65430820868514)",2013-07-08
74769,07/01/2013,Completed,07/09/2013,13-00856620,Street Light - 1/Out,5641 N LINCOLN AVE,60659.0,1157390.03070685,1937385.73092006,40.0,20.0,2.0,41.98395214074336,-87.69651196532091,"(41.98395214074336,-87.6965119653209)",2013-07-01
74770,07/02/2013,Completed - Dup,07/09/2013,13-00866615,Street Light - 1/Out,9751 S DOBSON AVE,60628.0,1184930.87592334,1840541.94701632,8.0,5.0,50.0,41.717601106123965,-87.5982711247293,"(41.71760110612397,-87.59827112472928)",2013-07-02
74771,07/02/2013,Completed,07/09/2013,13-00865389,Street Light - 1/Out,6433 S HAMILTON AVE,60636.0,1163135.84072291,1861963.75996615,15.0,7.0,67.0,41.77686867008391,-87.67749952488244,"(41.77686867008391,-87.67749952488242)",2013-07-02
74772,07/02/2013,Completed,07/09/2013,13-00871010,Street Light - 1/Out,11235 S VINCENNES AVE,60643.0,1166744.21999477,1830030.87998706,34.0,22.0,75.0,41.68916380901947,-87.66518006153156,"(41.68916380901947,-87.66518006153156)",2013-07-02
74773,07/02/2013,Completed,07/09/2013,13-00873542,Street Light - 1/Out,5554 N CLARK ST,60640.0,1164972.32347802,1937058.10011109,40.0,20.0,77.0,41.98289502827272,-87.66863487906748,"(41.982895028272715,-87.66863487906747)",2013-07-02
74774,07/03/2013,Completed,07/09/2013,13-00877528,Street Light - 1/Out,3951 S ARTESIAN AVE,60632.0,1160675.94392506,1878387.13102173,12.0,9.0,58.0,41.82198764731617,-87.68606410706923,"(41.82198764731617,-87.68606410706924)",2013-07-03
74775,07/03/2013,Completed,07/09/2013,13-00880956,Street Light - 1/Out,6000 S WINCHESTER AVE,60636.0,1164385.00443065,1864870.86878045,15.0,7.0,67.0,41.78481992336889,-87.67283825457396,"(41.784819923368886,-87.67283825457396)",2013-07-03
74776,07/04/2013,Completed,07/09/2013,13-00881513,Street Light - 1/Out,11530 S ADA ST,60643.0,1169399.96611305,1828298.20037066,34.0,5.0,53.0,41.684352110855095,-87.65550732573824,"(41.684352110855095,-87.65550732573823)",2013-07-04
74777,07/05/2013,Completed - Dup,07/09/2013,13-00883635,Street Light - 1/Out,7105 W SCHUBERT AVE,60707.0,1128570.57399816,1917156.62653339,36.0,25.0,18.0,41.928980285483995,-87.80296760798895,"(41.92898028548399,-87.80296760798895)",2013-07-05
74778,07/05/2013,Completed - Dup,07/09/2013,13-00887783,Street Light - 1/Out,10609 S AVENUE E,60617.0,1203828.47261303,1835221.09136755,10.0,4.0,52.0,41.70253668184605,-87.5292404925671,"(41.70253668184605,-87.52924049256711)",2013-07-05
74779,07/05/2013,Completed,07/09/2013,13-00887930,Street Light - 1/Out,4629 S WINCHESTER AVE,60609.0,1164132.44007564,1873975.68547757,20.0,9.0,61.0,41.80980998274989,-87.67350802934133,"(41.80980998274989,-87.67350802934135)",2013-07-05
74780,07/06/2013,Completed - Dup,07/09/2013,13-00888757,Street Light - 1/Out,8611 S UNION AVE,60620.0,1173145.46282896,1847694.56997083,21.0,6.0,71.0,41.737496904819366,-87.64122545943562,"(41.737496904819366,-87.64122545943563)",2013-07-06
74781,07/06/2013,Completed - Dup,07/09/2013,13-00890389,Street Light - 1/Out,6433 S HAMILTON AVE,60636.0,1163135.84072291,1861963.75996615,15.0,7.0,67.0,41.77686867008391,-87.67749952488244,"(41.77686867008391,-87.67749952488242)",2013-07-06
74782,07/06/2013,Completed - Dup,07/09/2013,13-00890529,Street Light - 1/Out,3608 N FRANCISCO AVE,60618.0,1156410.18991014,1923843.64186743,33.0,17.0,16.0,41.94681180972257,-87.70048354723934,"(41.94681180972257,-87.70048354723934)",2013-07-06
74783,07/06/2013,Completed,07/09/2013,13-00890427,Street Light - 1/Out,6300 W IRVING PARK RD,60634.0,1133645.47018199,1925922.79667947,38.0,16.0,15.0,41.95294796887687,-87.78411222299194,"(41.95294796887687,-87.78411222299194)",2013-07-06
74784,07/07/2013,Completed - Dup,07/09/2013,13-00892038,Street Light - 1/Out,8605 S UNION AVE,60620.0,1173143.36282896,1847763.86997083,21.0,6.0,71.0,41.737687119615664,-87.64123111142723,"(41.737687119615664,-87.64123111142723)",2013-07-07
74785,07/07/2013,Completed - Dup,07/09/2013,13-00892064,Street Light - 1/Out,6246 N ALBANY AVE,60659.0,1154556.57807791,1941282.88308724,50.0,24.0,2.0,41.994703453663156,-87.70682814543603,"(41.99470345366316,-87.70682814543605)",2013-07-07
74786,07/07/2013,Completed - Dup,07/09/2013,13-00892134,Street Light - 1/Out,6222 N ALBANY AVE,60659.0,1154561.87807791,1941124.78308724,50.0,24.0,2.0,41.99426951349564,-87.70681290445363,"(41.99426951349564,-87.70681290445363)",2013-07-07
74787,07/08/2013,Completed - Dup,07/09/2013,13-00894381,Street Light - 1/Out,8611 S UNION AVE,60620.0,1173145.46282896,1847694.56997083,21.0,6.0,71.0,41.737496904819366,-87.64122545943562,"(41.737496904819366,-87.64122545943563)",2013-07-08
74788,07/08/2013,Completed - Dup,07/09/2013,13-00898141,Street Light - 1/Out,3343 W 83RD PL,60652.0,1155547.54891279,1849027.63963375,18.0,8.0,70.0,41.741525341080276,-87.70566419988255,"(41.741525341080276,-87.70566419988255)",2013-07-08
74789,07/08/2013,Completed - Dup,07/09/2013,13-00899543,Street Light - 1/Out,900 W WINONA ST,60640.0,1169352.43639355,1934331.35663335,48.0,20.0,3.0,41.975318373373455,-87.6526055626928,"(41.97531837337345,-87.6526055626928)",2013-07-08
74790,07/08/2013,Completed - Dup,07/09/2013,13-00900603,Street Light - 1/Out,3343 W 83RD PL,60652.0,1155547.54891279,1849027.63963375,18.0,8.0,70.0,41.741525341080276,-87.70566419988255,"(41.741525341080276,-87.70566419988255)",2013-07-08
74791,07/08/2013,Completed - Dup,07/09/2013,13-00900604,Street Light - 1/Out,2044 W SUPERIOR ST,60612.0,1162642.57488475,1904930.2301198002,1.0,12.0,24.0,41.8947835949354,-87.67810630318628,"(41.8947835949354,-87.67810630318628)",2013-07-08
74792,07/08/2013,Completed,07/09/2013,13-00899178,Street Light - 1/Out,6628 S OAKLEY AVE,60636.0,1162213.23632094,1860652.0438869,15.0,8.0,66.0,41.77328839846611,-87.68091825879758,"(41.77328839846611,-87.68091825879758)",2013-07-08
74793,07/08/2013,Completed,07/09/2013,13-00900332,Street Light - 1/Out,1662 W MONTVALE AVE,60643.0,1167182.95216836,1829507.98899607,34.0,22.0,75.0,41.68771955790623,-87.66358875076045,"(41.68771955790623,-87.66358875076047)",2013-07-08
74794,07/09/2013,Completed - Dup,07/09/2013,13-00900684,Street Light - 1/Out,3343 W 83RD PL,60652.0,1155547.54891279,1849027.63963375,18.0,8.0,70.0,41.741525341080276,-87.70566419988255,"(41.741525341080276,-87.70566419988255)",2013-07-09
74795,07/09/2013,Completed - Dup,07/09/2013,13-00903480,Street Light - 1/Out,10726 S AVENUE M,60617.0,1201525.3737036998,1834440.83592542,10.0,4.0,52.0,41.70045429280561,-87.53770001112288,"(41.70045429280561,-87.53770001112287)",2013-07-09
74796,07/09/2013,Completed - Dup,07/09/2013,13-00908276,Street Light - 1/Out,4859 S HERMITAGE AVE,60609.0,1165498.94343303,1872475.46507068,20.0,9.0,61.0,41.80566430534667,-87.66853845735758,"(41.80566430534667,-87.66853845735758)",2013-07-09
74797,07/09/2013,Completed,07/09/2013,13-00901063,Street Light - 1/Out,2300 S MARSHALL BLVD,60623.0,1157064.11611542,1888579.77767122,12.0,10.0,30.0,41.850031378843774,-87.69903822381563,"(41.850031378843774,-87.69903822381562)",2013-07-09
74798,07/09/2013,Completed,07/09/2013,13-00903262,Street Light - 1/Out,400 S WESTERN AVE,60612.0,1160471.42849473,1898099.10860175,2.0,11.0,28.0,41.87608361906399,-87.68626949840643,"(41.87608361906399,-87.68626949840642)",2013-07-09
74799,07/09/2013,Completed,07/09/2013,13-00903628,Street Light - 1/Out,11831 S EMERALD AVE,60628.0,1173452.18553188,1826276.82989206,34.0,5.0,53.0,41.67871669942319,-87.64073284330225,"(41.678716699423184,-87.64073284330225)",2013-07-09
74800,07/09/2013,Completed,07/09/2013,13-00904373,Street Light - 1/Out,10732 S NORMAL AVE,60628.0,1174863.10489519,1833729.91052656,34.0,22.0,49.0,41.699137857418,-87.63534730030834,"(41.699137857418,-87.63534730030834)",2013-07-09
74801,07/09/2013,Completed,07/09/2013,13-00906572,Street Light - 1/Out,125 W 109TH ST,60628.0,1177368.67200467,1832676.88822786,34.0,5.0,49.0,41.696192124935095,-87.62620475240513,"(41.69619212493509,-87.62620475240513)",2013-07-09
74802,07/09/2013,Completed,07/09/2013,13-00907479,Street Light - 1/Out,11834 S EMERALD AVE,60628.0,1173452.48553188,1826267.12989206,34.0,5.0,53.0,41.67869007443948,-87.64073203059938,"(41.67869007443948,-87.64073203059938)",2013-07-09
74803,07/09/2013,Completed,07/09/2013,13-00908602,Street Light - 1/Out,2902 W ADDISON ST,60618.0,1156388.58991014,1923789.34186743,33.0,17.0,16.0,41.94666324453129,-87.70056441625374,"(41.94666324453129,-87.70056441625374)",2013-07-09
74804,07/09/2013,Completed,07/09/2013,13-00909132,Street Light - 1/Out,6629 S KEELER AVE,60629.0,1149512.62257107,1860312.65289642,13.0,8.0,65.0,41.77261201182952,-87.72748499970423,"(41.77261201182952,-87.72748499970423)",2013-07-09
74805,07/09/2013,Completed,07/09/2013,13-00909227,Street Light - 1/Out,820 W 37TH ST,60609.0,1171481.18331827,1880526.82009254,11.0,9.0,60.0,41.82762894748424,-87.64636188890991,"(41.82762894748424,-87.64636188890991)",2013-07-09
74832,07/01/2013,Completed - Dup,07/10/2013,13-00857604,Street Light - 1/Out,4447 S LAWLER AVE,60638.0,1143441.65170673,1874676.56677752,23.0,8.0,56.0,41.81214416668156,-87.74938222421534,"(41.812144166681556,-87.74938222421534)",2013-07-01
74833,07/01/2013,Completed - Dup,07/10/2013,13-00864214,Street Light - 1/Out,11201 S ARTESIAN AVE,60655.0,1162047.18400935,1830221.03329456,19.0,22.0,75.0,41.68978431176545,-87.68237064598,"(41.68978431176545,-87.68237064598)",2013-07-01
74834,07/01/2013,Completed,07/10/2013,13-00863181,Street Light - 1/Out,3085 N ELBRIDGE AVE,60618.0,,,35.0,14.0,21.0,,,,2013-07-01
74835,07/02/2013,Completed - Dup,07/10/2013,13-00872277,Street Light - 1/Out,11115 S CAMPBELL AVE,60655.0,1161696.07597386,1830832.29691332,19.0,22.0,75.0,41.69146900288625,-87.68363918767925,"(41.69146900288625,-87.68363918767925)",2013-07-02
74836,07/02/2013,Completed,07/10/2013,13-00873362,Street Light - 1/Out,6145 N KILBOURN AVE,60646.0,1145737.79632523,1940217.24842925,39.0,17.0,12.0,41.991951747004386,-87.73929517472926,"(41.99195174700438,-87.73929517472926)",2013-07-02
74837,07/03/2013,Completed,07/10/2013,13-00873753,Street Light - 1/Out,11600 S PARNELL AVE,60628.0,1174717.55719889,1827971.03498732,34.0,5.0,53.0,41.6833378593572,-87.6360509171702,"(41.6833378593572,-87.6360509171702)",2013-07-03
74838,07/03/2013,Completed,07/10/2013,13-00880357,Street Light - 1/Out,6799 N FAIRFIELD AVE,60645.0,1156766.19002664,1945005.10756962,50.0,24.0,2.0,42.00487273762511,-87.69859864579388,"(42.0048727376251,-87.69859864579388)",2013-07-03
74839,07/03/2013,Completed,07/10/2013,13-00880850,Street Light - 1/Out,6336 N MAPLEWOOD AVE,60659.0,1158173.07998545,1941970.26661292,50.0,24.0,2.0,41.99651628520417,-87.69350605476382,"(41.99651628520417,-87.69350605476382)",2013-07-03
74840,07/05/2013,Completed - Dup,07/10/2013,13-00888278,Street Light - 1/Out,7610 S EGGLESTON AVE,60620.0,1174611.96072856,1854467.73838806,17.0,6.0,69.0,41.75605084328802,-87.63565142783928,"(41.75605084328802,-87.63565142783928)",2013-07-05
74841,07/06/2013,Completed - Dup,07/10/2013,13-00889031,Street Light - 1/Out,6228 N ROCKWELL ST,60659.0,1157864.24260959,1941249.71068555,50.0,24.0,2.0,41.994545377842,-87.69466190513212,"(41.994545377842,-87.69466190513212)",2013-07-06
74842,07/06/2013,Completed - Dup,07/10/2013,13-00889442,Street Light - 1/Out,7610 S EGGLESTON AVE,60620.0,1174611.96072856,1854467.73838806,17.0,6.0,69.0,41.75605084328802,-87.63565142783928,"(41.75605084328802,-87.63565142783928)",2013-07-06
74843,07/07/2013,Completed - Dup,07/10/2013,13-00892202,Street Light - 1/Out,1500 N BOSWORTH AVE,60642.0,1165784.04442945,1910074.65921968,1.0,14.0,24.0,41.90883385219511,-87.66642170698444,"(41.90883385219511,-87.66642170698444)",2013-07-07
74844,07/08/2013,Completed - Dup,07/10/2013,13-00892458,Street Light - 1/Out,3707 N SPAULDING AVE,60618.0,1153728.96298519,1924458.48011508,33.0,17.0,16.0,41.94855286985065,-87.71032257050757,"(41.94855286985065,-87.71032257050757)",2013-07-08
74845,07/08/2013,Completed - Dup,07/10/2013,13-00892557,Street Light - 1/Out,8251 S ABERDEEN ST,60620.0,1170421.25927087,1850090.7239,21.0,6.0,71.0,41.74413196618645,-87.6511365882844,"(41.744131966186444,-87.65113658828439)",2013-07-08
74846,07/08/2013,Completed - Dup,07/10/2013,13-00899516,Street Light - 1/Out,3900 N SAYRE AVE,60634.0,1129040.52137841,1925128.10793382,38.0,16.0,17.0,41.950846985499695,-87.80105877793211,"(41.950846985499695,-87.80105877793211)",2013-07-08
74847,07/08/2013,Completed - Dup,07/10/2013,13-00900099,Street Light - 1/Out,11242 S CAMPBELL AVE,60655.0,1161722.79337211,1829964.07036979,19.0,22.0,75.0,41.689085879961794,-87.68356534856441,"(41.68908587996179,-87.6835653485644)",2013-07-08
74848,07/08/2013,Completed - Dup,07/10/2013,13-00900319,Street Light - 1/Out,7610 S EGGLESTON AVE,60620.0,1174611.96072856,1854467.73838806,17.0,6.0,69.0,41.75605084328802,-87.63565142783928,"(41.75605084328802,-87.63565142783928)",2013-07-08
74849,07/08/2013,Completed - Dup,07/10/2013,13-00900490,Street Light - 1/Out,3240 W SUNNYSIDE AVE,60625.0,1153867.2866327,1929723.48661531,33.0,17.0,14.0,41.96299763856575,-87.70967327407853,"(41.962997638565746,-87.70967327407851)",2013-07-08
74850,07/09/2013,Completed - Dup,07/10/2013,13-00900927,Street Light - 1/Out,9736 S DOBSON AVE,60628.0,1184927.39947981,1840646.77051899,8.0,5.0,50.0,41.717888835565546,-87.59828057956038,"(41.717888835565546,-87.59828057956038)",2013-07-09
74851,07/09/2013,Completed - Dup,07/10/2013,13-00908874,Street Light - 1/Out,1466 W 103RD ST,60643.0,1168480.0520978,1836452.24072727,19.0,22.0,72.0,41.70674794457915,-87.65864104881464,"(41.70674794457915,-87.65864104881464)",2013-07-09
74852,07/09/2013,Completed - Dup,07/10/2013,13-00908896,Street Light - 1/Out,3502 S FRANCISCO AVE,60632.0,1157601.03010413,1881271.63632223,12.0,9.0,58.0,41.82996609481535,-87.69726629048068,"(41.82996609481535,-87.69726629048068)",2013-07-09
74853,07/09/2013,Completed - Dup,07/10/2013,13-00909049,Street Light - 1/Out,7315 S ABERDEEN ST,60621.0,1170248.62916804,1856301.05957969,17.0,7.0,68.0,41.76117770285129,-87.65158881153576,"(41.761177702851285,-87.65158881153575)",2013-07-09
74854,07/09/2013,Completed - Dup,07/10/2013,13-00909061,Street Light - 1/Out,5437 S KOLIN AVE,60632.0,1148287.97981453,1868198.99563258,23.0,8.0,62.0,41.79427698924593,-87.73177201424471,"(41.79427698924593,-87.7317720142447)",2013-07-09
74855,07/09/2013,Completed,07/10/2013,13-00907476,Street Light - 1/Out,8533 S VERNON AVE,60619.0,1180845.15861934,1848514.61852852,6.0,6.0,44.0,41.739573832099424,-87.61299094050297,"(41.739573832099424,-87.61299094050297)",2013-07-09
74856,07/10/2013,Completed - Dup,07/10/2013,13-00909470,Street Light - 1/Out,5849 W ARTHINGTON ST,60644.0,1137450.22917371,1895415.72489295,29.0,15.0,25.0,41.86916519391255,-87.77086090192901,"(41.86916519391255,-87.77086090192901)",2013-07-10
74857,07/10/2013,Completed - Dup,07/10/2013,13-00909471,Street Light - 1/Out,5900 W ARTHINGTON ST,60644.0,1137192.90409266,1895409.0593174,29.0,15.0,25.0,41.86915152563625,-87.77180578350675,"(41.86915152563625,-87.77180578350675)",2013-07-10
74858,07/10/2013,Completed - Dup,07/10/2013,13-00909684,Street Light - 1/Out,3707 N SPAULDING AVE,60618.0,1153728.96298519,1924458.48011508,33.0,17.0,16.0,41.94855286985065,-87.71032257050757,"(41.94855286985065,-87.71032257050757)",2013-07-10
74859,07/10/2013,Completed,07/10/2013,13-00913697,Street Light - 1/Out,8115 S MARYLAND AVE,60619.0,1183314.21950625,1851374.17999405,8.0,6.0,44.0,41.7473637100164,-87.60385596585752,"(41.7473637100164,-87.60385596585752)",2013-07-10
74860,07/10/2013,Completed,07/10/2013,13-00917598,Street Light - 1/Out,4573 S OAKENWALD AVE,60653.0,1185767.0628101001,1874985.04267291,4.0,2.0,39.0,41.812096516991275,-87.59412442973967,"(41.81209651699127,-87.59412442973967)",2013-07-10
74861,07/10/2013,Completed,07/10/2013,13-00917620,Street Light - 1/Out,4622 N HERMITAGE AVE,60640.0,1163964.64141246,1930746.34270954,47.0,19.0,3.0,41.96559672654266,-87.6725199671244,"(41.965596726542664,-87.6725199671244)",2013-07-10
74882,07/01/2013,Completed - Dup,07/11/2013,13-00865011,Street Light - 1/Out,5749 W 59TH ST,60638.0,1138972.50002007,1864872.48001264,13.0,8.0,56.0,41.785322251553886,-87.76601264208011,"(41.785322251553886,-87.76601264208013)",2013-07-01
74883,07/01/2013,Completed,07/11/2013,13-00856402,Street Light - 1/Out,6868 W HOBART AVE,60631.0,1129256.83919789,1937197.79670236,41.0,16.0,10.0,41.983963788169326,-87.7999873995926,"(41.983963788169326,-87.7999873995926)",2013-07-01
74884,07/02/2013,Completed - Dup,07/11/2013,13-00872360,Street Light - 1/Out,5046 S DAMEN AVE,60609.0,1163874.66013093,1871203.58677827,16.0,9.0,61.0,41.80220843964744,-87.6745314667375,"(41.80220843964744,-87.6745314667375)",2013-07-02
74885,07/02/2013,Completed - Dup,07/11/2013,13-00872441,Street Light - 1/Out,4955 N CENTRAL PARK AVE,60625.0,1151490.88967904,1932688.64262346,39.0,17.0,14.0,41.97118135203195,-87.71833222416296,"(41.97118135203195,-87.71833222416296)",2013-07-02
74886,07/02/2013,Completed - Dup,07/11/2013,13-00873478,Street Light - 1/Out,12259 S LOOMIS ST,60643.0,1169220.93039081,1823451.46247254,34.0,5.0,53.0,41.671055697765475,-87.65630213678867,"(41.671055697765475,-87.65630213678867)",2013-07-02
74887,07/02/2013,Completed,07/11/2013,13-00865241,Street Light - 1/Out,5960 N AUSTIN AVE,60646.0,1135249.24820823,1939433.26037701,45.0,16.0,10.0,41.98999358165117,-87.77789453387803,"(41.98999358165117,-87.77789453387801)",2013-07-02
74888,07/03/2013,Completed - Dup,07/11/2013,13-00875902,Street Light - 1/Out,5408 W CRYSTAL ST,60651.0,1139991.61336626,1907797.5296681998,37.0,25.0,25.0,41.9030963508632,-87.76122763525964,"(41.9030963508632,-87.76122763525964)",2013-07-03
74889,07/03/2013,Completed - Dup,07/11/2013,13-00880807,Street Light - 1/Out,5749 W 59TH ST,60638.0,1138972.50002007,1864872.48001264,13.0,8.0,56.0,41.785322251553886,-87.76601264208011,"(41.785322251553886,-87.76601264208013)",2013-07-03
74890,07/03/2013,Completed,07/11/2013,13-00873797,Street Light - 1/Out,4920 N MOBILE AVE,60630.0,1133213.50412165,1932449.60018623,45.0,16.0,11.0,41.970865761957775,-87.7855468002993,"(41.97086576195777,-87.78554680029929)",2013-07-03
74891,07/03/2013,Completed,07/11/2013,13-00873802,Street Light - 1/Out,3601 W ARGYLE ST,60625.0,1151471.28967904,1932983.84262346,39.0,17.0,14.0,41.97199178566881,-87.71839650444292,"(41.971991785668806,-87.71839650444292)",2013-07-03
74892,07/03/2013,Completed,07/11/2013,13-00878089,Street Light - 1/Out,3532 N RETA AVE,60657.0,1169965.96008784,1923670.97573246,44.0,19.0,6.0,41.94605254774019,-87.65066175459901,"(41.94605254774019,-87.65066175459901)",2013-07-03
74893,07/03/2013,Completed,07/11/2013,13-00880924,Street Light - 1/Out,7747 W RASCHER AVE,60656.0,1123685.83001739,1935256.1332788998,41.0,16.0,10.0,41.978729021052594,-87.82051993081501,"(41.978729021052594,-87.82051993081502)",2013-07-03
74894,07/04/2013,Completed,07/11/2013,13-00882144,Street Light - 1/Out,5676 W HIGGINS AVE,60630.0,1137425.15829507,1932525.41860517,45.0,16.0,11.0,41.970998874200575,-87.77005807865194,"(41.97099887420058,-87.77005807865193)",2013-07-04
74895,07/05/2013,Completed - Dup,07/11/2013,13-00887680,Street Light - 1/Out,3116 N LAWNDALE AVE,60618.0,1151219.94133254,1920468.96998502,35.0,25.0,21.0,41.93765501884224,-87.71965029869568,"(41.93765501884224,-87.71965029869568)",2013-07-05
74896,07/06/2013,Completed - Dup,07/11/2013,13-00889434,Street Light - 1/Out,2600 W 83RD PL,60652.0,1160447.37479577,1849178.69011889,18.0,8.0,70.0,41.74184037373549,-87.68770716998768,"(41.741840373735485,-87.68770716998769)",2013-07-06
74897,07/07/2013,Completed,07/11/2013,13-00891153,Street Light - 1/Out,4205 N LINDER AVE,60641.0,1138925.94982738,1927437.42210298,38.0,16.0,15.0,41.95700974378611,-87.76466360811796,"(41.95700974378611,-87.76466360811797)",2013-07-07
74898,07/08/2013,Completed - Dup,07/11/2013,13-00892449,Street Light - 1/Out,819 N PARKSIDE AVE,60651.0,1138535.79691509,1904904.50311372,29.0,15.0,25.0,41.89518405029495,-87.76664541323683,"(41.895184050294944,-87.76664541323683)",2013-07-08
74899,07/08/2013,Completed - Dup,07/11/2013,13-00892465,Street Light - 1/Out,7827 W RASCHER AVE,60656.0,1123163.65900896,1935234.89132323,41.0,16.0,10.0,41.97867929290656,-87.82244074953155,"(41.97867929290656,-87.82244074953155)",2013-07-08
74900,07/08/2013,Completed - Dup,07/11/2013,13-00893999,Street Light - 1/Out,4846 N CENTRAL PARK AVE,60625.0,1151510.91229956,1931964.45677884,39.0,17.0,14.0,41.969193745153525,-87.71827771568562,"(41.96919374515352,-87.71827771568562)",2013-07-08
74901,07/08/2013,Completed - Dup,07/11/2013,13-00894002,Street Light - 1/Out,4844 N CENTRAL PARK AVE,60625.0,1151511.31229956,1931951.05677884,39.0,17.0,14.0,41.96915696680709,-87.71827659859969,"(41.969156966807084,-87.71827659859969)",2013-07-08
74902,07/08/2013,Completed - Dup,07/11/2013,13-00895651,Street Light - 1/Out,4920 N MOBILE AVE,60630.0,1133213.50412165,1932449.60018623,45.0,16.0,11.0,41.970865761957775,-87.7855468002993,"(41.97086576195777,-87.78554680029929)",2013-07-08
74903,07/08/2013,Completed - Dup,07/11/2013,13-00898349,Street Light - 1/Out,12214 S ADA ST,60643.0,1169543.09826875,1823762.34098966,34.0,5.0,53.0,41.67190185034558,-87.65511406138512,"(41.67190185034558,-87.65511406138512)",2013-07-08
74904,07/08/2013,Completed - Dup,07/11/2013,13-00900208,Street Light - 1/Out,1419 N LOCKWOOD AVE,60651.0,1140767.16900929,1908931.00601078,37.0,25.0,25.0,41.90619251254046,-87.75835091791444,"(41.90619251254046,-87.75835091791446)",2013-07-08
74905,07/08/2013,Completed - Dup,07/11/2013,13-00900232,Street Light - 1/Out,5749 W 59TH ST,60638.0,1138972.50002007,1864872.48001264,13.0,8.0,56.0,41.785322251553886,-87.76601264208011,"(41.785322251553886,-87.76601264208013)",2013-07-08
74906,07/08/2013,Completed - Dup,07/11/2013,13-00900294,Street Light - 1/Out,5676 W HIGGINS AVE,60630.0,1137425.15829507,1932525.41860517,45.0,16.0,11.0,41.970998874200575,-87.77005807865194,"(41.97099887420058,-87.77005807865193)",2013-07-08
74907,07/08/2013,Completed - Dup,07/11/2013,13-00900321,Street Light - 1/Out,2434 W PERSHING RD,60632.0,1160649.67161591,1878739.11851656,12.0,9.0,58.0,41.82295408562276,-87.68615076212618,"(41.82295408562276,-87.68615076212619)",2013-07-08
74908,07/08/2013,Completed,07/11/2013,13-00892454,Street Light - 1/Out,2109 N CENTRAL PARK AVE,60647.0,1152033.28829612,1913821.6118288003,26.0,14.0,22.0,41.919398097810614,-87.71683673807631,"(41.919398097810614,-87.71683673807632)",2013-07-08
74909,07/08/2013,Completed,07/11/2013,13-00892455,Street Light - 1/Out,3620 N ELSTON AVE,60618.0,1153968.50009042,1923910.0849123,35.0,17.0,16.0,41.947043253575146,-87.7094567466781,"(41.94704325357515,-87.70945674667811)",2013-07-08
74910,07/08/2013,Completed,07/11/2013,13-00892458,Street Light - 1/Out,3707 N SPAULDING AVE,60618.0,1153728.96298519,1924458.48011508,33.0,17.0,16.0,41.94855286985065,-87.71032257050757,"(41.94855286985065,-87.71032257050757)",2013-07-08
74911,07/08/2013,Completed,07/11/2013,13-00892459,Street Light - 1/Out,5431 W MONTROSE AVE,60641.0,1139346.28169035,1928724.01579394,38.0,16.0,15.0,41.9605326106813,-87.76308684635008,"(41.9605326106813,-87.76308684635008)",2013-07-08
74912,07/08/2013,Completed,07/11/2013,13-00896921,Street Light - 1/Out,1922 N CLEVELAND AVE,60614.0,1172624.96582547,1913060.26417751,43.0,18.0,7.0,41.916877796360616,-87.6412030686993,"(41.916877796360616,-87.6412030686993)",2013-07-08
74913,07/08/2013,Completed,07/11/2013,13-00898174,Street Light - 1/Out,4125 N KENMORE AVE,60613.0,1168426.60413421,1927678.93628624,46.0,19.0,3.0,41.95708405367991,-87.65620348201045,"(41.95708405367991,-87.65620348201047)",2013-07-08
74914,07/08/2013,Completed,07/11/2013,13-00900090,Street Light - 1/Out,5350 N DAMEN AVE,60625.0,1162030.68187818,1935625.06828226,40.0,20.0,4.0,41.97902486644959,-87.6794938097933,"(41.97902486644959,-87.6794938097933)",2013-07-08
74915,07/08/2013,Completed,07/11/2013,13-00900526,Street Light - 1/Out,2722 W PRATT BLVD,60645.0,1156861.99002664,1945008.00756962,50.0,24.0,2.0,42.004878745867565,-87.6982461129277,"(42.00487874586756,-87.6982461129277)",2013-07-08
74916,07/09/2013,Completed - Dup,07/11/2013,13-00900654,Street Light - 1/Out,5914 S ABERDEEN ST,60621.0,1169993.93210715,1865586.24922255,16.0,7.0,68.0,41.78666293623663,-87.6522527874456,"(41.78666293623663,-87.6522527874456)",2013-07-09
74917,07/09/2013,Completed - Dup,07/11/2013,13-00900683,Street Light - 1/Out,8611 S UNION AVE,60620.0,1173145.46282896,1847694.56997083,21.0,6.0,71.0,41.737496904819366,-87.64122545943562,"(41.737496904819366,-87.64122545943563)",2013-07-09
74918,07/09/2013,Completed - Dup,07/11/2013,13-00909044,Street Light - 1/Out,7900 S LAFAYETTE AVE,60620.0,1177308.61712431,1852622.3399264,17.0,6.0,44.0,41.75092641785778,-87.6258244431513,"(41.75092641785777,-87.6258244431513)",2013-07-09
74919,07/09/2013,Completed - Dup,07/11/2013,13-00909069,Street Light - 1/Out,5253 W HIRSCH ST,60651.0,1141004.90832685,1908809.42877138,37.0,25.0,25.0,41.90585451444976,-87.7574805979756,"(41.905854514449764,-87.75748059797559)",2013-07-09
74920,07/09/2013,Completed - Dup,07/11/2013,13-00909204,Street Light - 1/Out,2452 W BERTEAU AVE,60618.0,1159270.86981278,1927818.67457712,47.0,19.0,5.0,41.957661088842116,-87.6898588043748,"(41.95766108884212,-87.6898588043748)",2013-07-09
74921,07/09/2013,Completed,07/11/2013,13-00905742,Street Light - 1/Out,8033 W IRVING PARK RD,60634.0,1121676.40989374,1925597.26452516,36.0,16.0,17.0,41.95225671882272,-87.8281192927027,"(41.95225671882272,-87.82811929270271)",2013-07-09
74922,07/09/2013,Completed,07/11/2013,13-00906856,Street Light - 1/Out,8247 W FOREST PRESERVE AVE,60634.0,1120433.6493771998,1921704.21872626,36.0,16.0,17.0,41.94159371189464,-87.83277140103779,"(41.94159371189464,-87.83277140103779)",2013-07-09
74923,07/09/2013,Completed,07/11/2013,13-00908456,Street Light - 1/Out,4796 W SCHOOL ST,60641.0,1143815.42398133,1921509.38503003,30.0,17.0,15.0,41.94065224147532,-87.74683736821785,"(41.94065224147532,-87.74683736821785)",2013-07-09
74924,07/09/2013,Completed,07/11/2013,13-00908800,Street Light - 1/Out,2759 N MOZART ST,60647.0,1156902.62517828,1918227.32879955,35.0,14.0,22.0,41.93139026848309,-87.69882629375721,"(41.931390268483085,-87.69882629375722)",2013-07-09
74925,07/09/2013,Completed,07/11/2013,13-00909174,Street Light - 1/Out,8611 S UNION AVE,60620.0,1173145.46282896,1847694.56997083,21.0,6.0,71.0,41.737496904819366,-87.64122545943562,"(41.737496904819366,-87.64122545943563)",2013-07-09
74926,07/09/2013,Completed,07/11/2013,13-00909203,Street Light - 1/Out,2444 W BERTEAU AVE,60618.0,1159324.59557341,1927819.53459405,47.0,19.0,5.0,41.95766234158288,-87.68966126674465,"(41.95766234158288,-87.68966126674465)",2013-07-09
74927,07/10/2013,Completed - Dup,07/11/2013,13-00917117,Street Light - 1/Out,720 N MAYFIELD AVE,60644.0,1137015.71118306,1904247.45437221,29.0,15.0,25.0,41.89340844010027,-87.77224417198265,"(41.89340844010027,-87.77224417198266)",2013-07-10
74928,07/10/2013,Completed - Dup,07/11/2013,13-00917602,Street Light - 1/Out,3707 N SPAULDING AVE,60618.0,1153728.96298519,1924458.48011508,33.0,17.0,16.0,41.94855286985065,-87.71032257050757,"(41.94855286985065,-87.71032257050757)",2013-07-10
74929,07/10/2013,Completed - Dup,07/11/2013,13-00917613,Street Light - 1/Out,3300 S CALUMET AVE,60616.0,1179136.75962412,1883186.15568222,2.0,2.0,35.0,41.834754946089966,-87.61819359829036,"(41.83475494608997,-87.61819359829036)",2013-07-10
74930,07/10/2013,Completed - Dup,07/11/2013,13-00917681,Street Light - 1/Out,5676 W HIGGINS AVE,60630.0,1137425.15829507,1932525.41860517,45.0,16.0,11.0,41.970998874200575,-87.77005807865194,"(41.97099887420058,-87.77005807865193)",2013-07-10
74931,07/10/2013,Completed,07/11/2013,13-00909690,Street Light - 1/Out,3232 W SUNNYSIDE AVE,60625.0,1153906.9866327,1929724.38661531,33.0,17.0,14.0,41.96299931521524,-87.70952728675958,"(41.962999315215235,-87.7095272867596)",2013-07-10
74932,07/10/2013,Completed,07/11/2013,13-00912277,Street Light - 1/Out,6309 W BERENICE AVE,60634.0,1133622.58647401,1924931.89870838,38.0,16.0,17.0,41.95022924293361,-87.78421968504726,"(41.95022924293361,-87.78421968504726)",2013-07-10
74933,07/10/2013,Completed,07/11/2013,13-00912943,Street Light - 1/Out,2644 N MONT CLARE AVE,60707.0,1128304.72623192,1916783.66460374,36.0,25.0,18.0,41.927961339546684,-87.80395299714417,"(41.92796133954668,-87.80395299714415)",2013-07-10
74934,07/10/2013,Completed,07/11/2013,13-00914023,Street Light - 1/Out,4845 S WOLCOTT AVE,60609.0,1164503.0098146999,1872548.81833225,20.0,9.0,61.0,41.8058866764325,-87.67218909296905,"(41.8058866764325,-87.67218909296905)",2013-07-10
74935,07/10/2013,Completed,07/11/2013,13-00915382,Street Light - 1/Out,2850 N RIDGEWAY AVE,60618.0,1150906.26323173,1918357.56440154,30.0,25.0,21.0,41.9318673037179,-87.72085856735096,"(41.9318673037179,-87.72085856735097)",2013-07-10
74936,07/10/2013,Completed,07/11/2013,13-00915787,Street Light - 1/Out,1334 W 112TH ST,60643.0,1169434.50097675,1830498.23911249,34.0,22.0,75.0,41.69038863598643,-87.65531751696768,"(41.69038863598643,-87.65531751696768)",2013-07-10
74937,07/10/2013,Completed,07/11/2013,13-00916707,Street Light - 1/Out,7035 W ADDISON ST,60634.0,1128751.97960261,1923126.41542125,36.0,16.0,17.0,41.945359023437916,-87.80216506304266,"(41.945359023437916,-87.80216506304265)",2013-07-10
74938,07/10/2013,Completed,07/11/2013,13-00917630,Street Light - 1/Out,3320 N GREENVIEW AVE,60657.0,1165720.26760897,1922213.27542336,44.0,19.0,6.0,41.94214427737195,-87.66630911748211,"(41.94214427737195,-87.66630911748211)",2013-07-10
74939,07/11/2013,Completed - Dup,07/11/2013,13-00919474,Street Light - 1/Out,3609 S PULASKI RD,60623.0,1150271.70782341,1880733.94220363,22.0,10.0,30.0,41.828636357797855,-87.72417184492454,"(41.828636357797855,-87.72417184492454)",2013-07-11
74940,07/11/2013,Completed - Dup,07/11/2013,13-00922356,Street Light - 1/Out,7221 W BIRCHWOOD AVE,60631.0,1127167.95193074,1949272.45521906,41.0,16.0,9.0,42.017133201671186,-87.80739738524845,"(42.017133201671186,-87.80739738524846)",2013-07-11
74941,07/11/2013,Completed - Dup,07/11/2013,13-00924153,Street Light - 1/Out,5349 S SAWYER AVE,60632.0,1155621.7788175,1868968.49062084,14.0,8.0,63.0,41.79624461823335,-87.70485834860166,"(41.796244618233345,-87.70485834860166)",2013-07-11
74942,07/11/2013,Completed,07/11/2013,13-00918373,Street Light - 1/Out,4300 W IOWA ST,60651.0,1147546.96049965,1905649.93212323,37.0,11.0,23.0,41.89706149592314,-87.73353019457458,"(41.89706149592314,-87.7335301945746)",2013-07-11
74943,07/11/2013,Completed,07/11/2013,13-00920847,Street Light - 1/Out,10401 S AVENUE E,60617.0,1203813.31012165,1836615.17507234,10.0,4.0,52.0,41.70636254647343,-87.52924834903038,"(41.70636254647343,-87.52924834903038)",2013-07-11
74944,07/11/2013,Completed,07/11/2013,13-00921372,Street Light - 1/Out,3304 W MARQUETTE RD,60629.0,1155517.67999506,1859999.84138231,15.0,8.0,66.0,41.7716354162395,-87.70548024340854,"(41.7716354162395,-87.70548024340854)",2013-07-11
74945,07/11/2013,Completed,07/11/2013,13-00923354,Street Light - 1/Out,8618 S INDIANA AVE,60619.0,1179097.51698967,1847898.87227204,6.0,6.0,44.0,41.737924114373214,-87.6194126908067,"(41.73792411437322,-87.61941269080668)",2013-07-11
74946,07/11/2013,Completed,07/11/2013,13-00923644,Street Light - 1/Out,5708 W WEST END AVE,60644.0,1138083.83141668,1900891.49099191,29.0,15.0,25.0,41.884180012842066,-87.76840242988457,"(41.884180012842066,-87.76840242988457)",2013-07-11
74947,07/11/2013,Completed,07/11/2013,13-00925469,Street Light - 1/Out,3802 W WASHINGTON BLVD,60624.0,1151033.12031183,1900148.10107548,28.0,11.0,26.0,41.88189630488545,-87.72087017602026,"(41.88189630488545,-87.72087017602027)",2013-07-11
74948,07/11/2013,Completed,07/11/2013,13-00925605,Street Light - 1/Out,3100 S WESTERN AVE,60608.0,1160917.21688199,1884178.14901723,12.0,9.0,31.0,41.837873869143756,-87.68501865529888,"(41.837873869143756,-87.68501865529888)",2013-07-11
74949,07/11/2013,Completed,07/11/2013,13-00925647,Street Light - 1/Out,3618 N PITTSBURGH AVE,60634.0,1120431.15200429,1923014.40087172,36.0,16.0,17.0,41.94518906274732,-87.83275245821017,"(41.94518906274732,-87.83275245821017)",2013-07-11
74993,07/01/2013,Completed - Dup,07/12/2013,13-00864839,Street Light - 1/Out,5135 S SAYRE AVE,60638.0,1130592.03511426,1869645.63990711,23.0,8.0,56.0,41.79856832710555,-87.79663068515076,"(41.79856832710555,-87.79663068515077)",2013-07-01
74994,07/01/2013,Completed,07/12/2013,13-00865024,Street Light - 1/Out,1240 E 85TH ST,60619.0,1186045.16011436,1848731.78771407,8.0,4.0,45.0,41.740048746586716,-87.59393233870551,"(41.740048746586716,-87.59393233870551)",2013-07-01
74995,07/02/2013,Completed - Dup,07/12/2013,13-00865395,Street Light - 1/Out,3353 W 114TH ST,60655.0,1156043.71121581,1828992.27450019,19.0,22.0,74.0,41.686534755249326,-87.7043824998982,"(41.686534755249326,-87.7043824998982)",2013-07-02
74996,07/02/2013,Completed - Dup,07/12/2013,13-00868621,Street Light - 1/Out,8400 S CONSTANCE AVE,60617.0,1189987.7549699,1849646.5005887002,8.0,4.0,45.0,41.74246494130496,-87.57945804569368,"(41.74246494130496,-87.57945804569368)",2013-07-02
74997,07/02/2013,Completed - Dup,07/12/2013,13-00873024,Street Light - 1/Out,2833 W 85TH ST,60652.0,1158905.5816903,1848257.99997366,18.0,8.0,70.0,41.739345455145845,-87.69338138584587,"(41.73934545514584,-87.69338138584587)",2013-07-02
74998,07/02/2013,Completed - Dup,07/12/2013,13-00873372,Street Light - 1/Out,8400 S CONSTANCE AVE,60617.0,1189987.7549699,1849646.5005887002,8.0,4.0,45.0,41.74246494130496,-87.57945804569368,"(41.74246494130496,-87.57945804569368)",2013-07-02
74999,07/02/2013,Completed,07/12/2013,13-00872461,Street Light - 1/Out,1967 W SUMMERDALE AVE,60640.0,1162250.92027639,1935535.18229175,40.0,20.0,4.0,41.97877359991513,-87.6786863971969,"(41.97877359991513,-87.6786863971969)",2013-07-02
75000,07/02/2013,Completed,07/12/2013,13-00873544,Street Light - 1/Out,1611 E 85TH ST,60617.0,1188475.16121851,1848940.81793402,8.0,4.0,45.0,41.740564708228824,-87.58502259918488,"(41.74056470822882,-87.58502259918487)",2013-07-02
75001,07/02/2013,Completed,07/12/2013,13-00873545,Street Light - 1/Out,1602 E 83RD ST,60617.0,1188390.05158515,1850267.11627116,8.0,4.0,45.0,41.744206230609215,-87.58529218625769,"(41.74420623060922,-87.58529218625769)",2013-07-02
75002,07/03/2013,Completed - Dup,07/12/2013,13-00873751,Street Light - 1/Out,3641 E 113TH ST,60617.0,1202265.25067239,1830647.37866611,10.0,4.0,52.0,41.690025925580976,-87.53511965573935,"(41.69002592558098,-87.53511965573934)",2013-07-03
75003,07/03/2013,Completed - Dup,07/12/2013,13-00879718,Street Light - 1/Out,10549 S EMERALD AVE,60628.0,1173179.49142662,1834879.16379755,34.0,22.0,49.0,41.70232885910722,-87.64147810793362,"(41.70232885910722,-87.64147810793362)",2013-07-03
75004,07/03/2013,Completed - Dup,07/12/2013,13-00879778,Street Light - 1/Out,10549 S EMERALD AVE,60628.0,1173179.49142662,1834879.16379755,34.0,22.0,49.0,41.70232885910722,-87.64147810793362,"(41.70232885910722,-87.64147810793362)",2013-07-03
75005,07/03/2013,Completed - Dup,07/12/2013,13-00880996,Street Light - 1/Out,5837 W SUPERIOR ST,60644.0,1137377.74980662,1904408.21240658,29.0,15.0,25.0,41.893843076121726,-87.7709106414768,"(41.89384307612173,-87.77091064147679)",2013-07-03
75006,07/03/2013,Completed,07/12/2013,13-00874585,Street Light - 1/Out,4951 W POTOMAC AVE,60651.0,1143120.28588708,1908195.37041449,37.0,25.0,25.0,41.90413023887505,-87.7497253080958,"(41.90413023887505,-87.7497253080958)",2013-07-03
75007,07/03/2013,Completed,07/12/2013,13-00880834,Street Light - 1/Out,4452 S SHIELDS AVE,60609.0,1174721.42906598,1875328.3192768001,3.0,9.0,37.0,41.813292078690345,-87.63462901646055,"(41.81329207869034,-87.63462901646055)",2013-07-03
75008,07/03/2013,Completed,07/12/2013,13-00880870,Street Light - 1/Out,4337 S ST LAWRENCE AVE,60653.0,1180984.64459285,1876385.28497285,4.0,2.0,38.0,41.816050438491935,-87.61162289812846,"(41.816050438491935,-87.61162289812846)",2013-07-03
75009,07/03/2013,Completed,07/12/2013,13-00880979,Street Light - 1/Out,3300 S RHODES AVE,60616.0,1180148.06998563,1883167.9900336002,4.0,2.0,35.0,41.83468193433802,-87.61448341936033,"(41.83468193433802,-87.61448341936033)",2013-07-03
75010,07/05/2013,Completed - Dup,07/12/2013,13-00885213,Street Light - 1/Out,4752 S THROOP ST,60609.0,1168462.03087337,1873255.92538215,3.0,9.0,61.0,41.807742567355774,-87.65764850092762,"(41.80774256735577,-87.65764850092762)",2013-07-05
75011,07/05/2013,Completed - Dup,07/12/2013,13-00888063,Street Light - 1/Out,5837 W SUPERIOR ST,60644.0,1137377.74980662,1904408.21240658,29.0,15.0,25.0,41.893843076121726,-87.7709106414768,"(41.89384307612173,-87.77091064147679)",2013-07-05
75012,07/05/2013,Completed - Dup,07/12/2013,13-00888390,Street Light - 1/Out,8435 S CONSTANCE AVE,60617.0,1189992.8549698999,1849412.0005887002,8.0,4.0,45.0,41.74182132867533,-87.5794468867167,"(41.74182132867533,-87.57944688671668)",2013-07-05
75013,07/05/2013,Completed,07/12/2013,13-00885700,Street Light - 1/Out,6517 N ASHLAND AVE,60626.0,1164429.89947383,1943373.73682775,40.0,24.0,1.0,42.00023684827533,-87.67044999636009,"(42.00023684827533,-87.67044999636009)",2013-07-05
75014,07/06/2013,Completed - Dup,07/12/2013,13-00890377,Street Light - 1/Out,5837 W SUPERIOR ST,60644.0,1137377.74980662,1904408.21240658,29.0,15.0,25.0,41.893843076121726,-87.7709106414768,"(41.89384307612173,-87.77091064147679)",2013-07-06
75015,07/06/2013,Completed - Dup,07/12/2013,13-00890422,Street Light - 1/Out,5837 W SUPERIOR ST,60644.0,1137377.74980662,1904408.21240658,29.0,15.0,25.0,41.893843076121726,-87.7709106414768,"(41.89384307612173,-87.77091064147679)",2013-07-06
75016,07/06/2013,Completed - Dup,07/12/2013,13-00890532,Street Light - 1/Out,5837 W MIDWAY PARK,60644.0,1137436.79511481,1902642.02439817,29.0,15.0,25.0,41.88899536816325,-87.77073631553002,"(41.88899536816325,-87.77073631553002)",2013-07-06
75017,07/06/2013,Completed,07/12/2013,13-00890420,Street Light - 1/Out,7827 W RASCHER AVE,60656.0,1123163.65900896,1935234.89132323,41.0,16.0,10.0,41.97867929290656,-87.82244074953155,"(41.97867929290656,-87.82244074953155)",2013-07-06
75018,07/06/2013,Completed,07/12/2013,13-00890530,Street Light - 1/Out,5951 W MIDWAY PARK,60644.0,1136668.77822452,1902627.11689814,29.0,15.0,25.0,41.88896824320104,-87.77355717725042,"(41.88896824320104,-87.77355717725042)",2013-07-06
75019,07/07/2013,Completed,07/12/2013,13-00890587,Street Light - 1/Out,6816 N SACRAMENTO AVE,60645.0,1155134.67502553,1944949.90432498,50.0,24.0,2.0,42.004754291778006,-87.70460258033317,"(42.004754291778006,-87.70460258033317)",2013-07-07
75020,07/07/2013,Completed,07/12/2013,13-00892126,Street Light - 1/Out,910 N MOZART ST,60622.0,1157214.35158435,1906128.47577434,26.0,12.0,24.0,41.89818371099639,-87.69801010649964,"(41.89818371099639,-87.69801010649964)",2013-07-07
75021,07/07/2013,Completed,07/12/2013,13-00892230,Street Light - 1/Out,6098 N HARLEM AVE,60631.0,1127372.87602353,1940125.68981452,41.0,16.0,10.0,41.992030196614046,-87.80685027410642,"(41.992030196614046,-87.80685027410642)",2013-07-07
75022,07/08/2013,Completed - Dup,07/12/2013,13-00895218,Street Light - 1/Out,5133 S SAYRE AVE,60638.0,1130591.73511426,1869656.13990711,23.0,8.0,56.0,41.79859714618047,-87.79663154492174,"(41.79859714618047,-87.79663154492175)",2013-07-08
75023,07/08/2013,Completed - Dup,07/12/2013,13-00896389,Street Light - 1/Out,10549 S EMERALD AVE,60628.0,1173179.49142662,1834879.16379755,34.0,22.0,49.0,41.70232885910722,-87.64147810793362,"(41.70232885910722,-87.64147810793362)",2013-07-08
75024,07/08/2013,Completed - Dup,07/12/2013,13-00900228,Street Light - 1/Out,8600 S KIMBARK AVE,60619.0,1186736.67996799,1848266.46996692,8.0,4.0,45.0,41.73875553475902,-87.59141343138069,"(41.73875553475902,-87.59141343138069)",2013-07-08
75025,07/08/2013,Completed - Dup,07/12/2013,13-00900229,Street Light - 1/Out,8644 S KIMBARK AVE,60619.0,1186616.17996799,1847952.36996692,8.0,4.0,45.0,41.737896461669436,-87.59186482777159,"(41.73789646166944,-87.59186482777159)",2013-07-08
75026,07/08/2013,Completed - Dup,07/12/2013,13-00900256,Street Light - 1/Out,6915 S ARTESIAN AVE,60629.0,1161235.45779867,1858731.92527742,17.0,8.0,66.0,41.768039619017564,-87.6845556785931,"(41.76803961901756,-87.68455567859309)",2013-07-08
75027,07/08/2013,Completed - Dup,07/12/2013,13-00900354,Street Light - 1/Out,8400 S INGLESIDE AVE,60619.0,1184015.56311354,1849488.75851182,8.0,6.0,44.0,41.74217356814348,-87.6013448403043,"(41.74217356814348,-87.6013448403043)",2013-07-08
75028,07/08/2013,Completed - Dup,07/12/2013,13-00900388,Street Light - 1/Out,2635 W 21ST PL,60608.0,1159127.22317378,1889629.19008088,28.0,10.0,30.0,41.85286901200392,-87.69143748268671,"(41.85286901200392,-87.6914374826867)",2013-07-08
75029,07/08/2013,Completed - Dup,07/12/2013,13-00900406,Street Light - 1/Out,5837 W SUPERIOR ST,60644.0,1137377.74980662,1904408.21240658,29.0,15.0,25.0,41.893843076121726,-87.7709106414768,"(41.89384307612173,-87.77091064147679)",2013-07-08
75030,07/08/2013,Completed - Dup,07/12/2013,13-00900417,Street Light - 1/Out,5837 W SUPERIOR ST,60644.0,1137377.74980662,1904408.21240658,29.0,15.0,25.0,41.893843076121726,-87.7709106414768,"(41.89384307612173,-87.77091064147679)",2013-07-08
75031,07/08/2013,Completed,07/12/2013,13-00896364,Street Light - 1/Out,6251 N GLENWOOD AVE,60660.0,1165834.44001275,1941837.88000846,48.0,24.0,77.0,41.99599246862812,-87.66532709665043,"(41.99599246862812,-87.66532709665044)",2013-07-08
75032,07/08/2013,Completed,07/12/2013,13-00897902,Street Light - 1/Out,5701 W MIDWAY PARK,60644.0,1138114.29478669,1902655.08171031,29.0,15.0,25.0,41.889018982893724,-87.76824791687723,"(41.889018982893724,-87.76824791687724)",2013-07-08
75033,07/08/2013,Completed,07/12/2013,13-00900557,Street Light - 1/Out,1304 N SPRINGFIELD AVE,60651.0,1150142.38530236,1908401.05987584,27.0,25.0,23.0,41.90456067963262,-87.72392572429185,"(41.90456067963262,-87.72392572429185)",2013-07-08
75034,07/09/2013,Completed - Dup,07/12/2013,13-00900708,Street Light - 1/Out,5826 W HURON ST,60644.0,1137454.69837646,1904052.31637202,29.0,15.0,25.0,41.89286506778221,-87.77063660247605,"(41.89286506778221,-87.77063660247605)",2013-07-09
75035,07/09/2013,Completed - Dup,07/12/2013,13-00907560,Street Light - 1/Out,1728 N KEELER AVE,60639.0,1148119.42556587,1911162.38110639,30.0,25.0,23.0,41.91217721830065,-87.73128549883633,"(41.91217721830065,-87.73128549883633)",2013-07-09
75036,07/09/2013,Completed - Dup,07/12/2013,13-00908888,Street Light - 1/Out,6915 S ARTESIAN AVE,60629.0,1161235.45779867,1858731.92527742,17.0,8.0,66.0,41.768039619017564,-87.6845556785931,"(41.76803961901756,-87.68455567859309)",2013-07-09
75037,07/09/2013,Completed - Dup,07/12/2013,13-00908987,Street Light - 1/Out,2627 W 21ST PL,60608.0,1159181.22317378,1889630.49008088,28.0,10.0,30.0,41.85287147146627,-87.6912392492347,"(41.85287147146627,-87.69123924923471)",2013-07-09
75038,07/09/2013,Completed - Dup,07/12/2013,13-00909102,Street Light - 1/Out,5837 W SUPERIOR ST,60644.0,1137377.74980662,1904408.21240658,29.0,15.0,25.0,41.893843076121726,-87.7709106414768,"(41.89384307612173,-87.77091064147679)",2013-07-09
75039,07/09/2013,Completed - Dup,07/12/2013,13-00909113,Street Light - 1/Out,9237 S MARQUETTE AVE,60617.0,1195864.60742199,1844238.13577847,7.0,4.0,48.0,41.72748063904177,-87.55810413285829,"(41.72748063904177,-87.5581041328583)",2013-07-09
75040,07/09/2013,Completed - Dup,07/12/2013,13-00909328,Street Light - 1/Out,6517 N ASHLAND AVE,60626.0,1164429.89947383,1943373.73682775,40.0,24.0,1.0,42.00023684827533,-87.67044999636009,"(42.00023684827533,-87.67044999636009)",2013-07-09
75041,07/09/2013,Completed,07/12/2013,13-00900883,Street Light - 1/Out,1635 S DRAKE AVE,60623.0,1152974.23160555,1891578.41631363,24.0,10.0,29.0,41.85834191319152,-87.7139694524958,"(41.858341913191516,-87.71396945249579)",2013-07-09
75042,07/09/2013,Completed,07/12/2013,13-00900891,Street Light - 1/Out,2026 N ALBANY AVE,60647.0,1155197.46988257,1913297.48270443,35.0,14.0,22.0,41.91789683712985,-87.70522516100512,"(41.917896837129845,-87.70522516100512)",2013-07-09
75043,07/09/2013,Completed,07/12/2013,13-00900894,Street Light - 1/Out,6446 N ROCKWELL ST,60645.0,1157819.48470923,1942687.39569904,50.0,24.0,2.0,41.99849135781731,-87.69478710871374,"(41.99849135781731,-87.69478710871373)",2013-07-09
75044,07/09/2013,Completed,07/12/2013,13-00901888,Street Light - 1/Out,401 N CENTRAL PARK BLVD,60624.0,1152187.63281019,1902540.44966639,27.0,11.0,23.0,41.88843847086218,-87.71656765925215,"(41.888438470862184,-87.71656765925214)",2013-07-09
75045,07/09/2013,Completed,07/12/2013,13-00902923,Street Light - 1/Out,2600 W WALTON ST,60622.0,1158893.69828535,1906227.64358926,26.0,12.0,24.0,41.89842154461827,-87.69183926970447,"(41.89842154461827,-87.69183926970449)",2013-07-09
75046,07/09/2013,Completed,07/12/2013,13-00908392,Street Light - 1/Out,2528 W THOMAS ST,60622.0,1159348.69371214,1907232.28740258,26.0,12.0,24.0,41.901169022896454,-87.69014043585918,"(41.90116902289645,-87.69014043585919)",2013-07-09
75047,07/10/2013,Completed - Dup,07/12/2013,13-00910700,Street Light - 1/Out,5124 S SAYRE AVE,60638.0,1130590.43511426,1869703.43990711,23.0,8.0,56.0,41.798726968368285,-87.79663522938884,"(41.79872696836829,-87.79663522938884)",2013-07-10
75048,07/10/2013,Completed - Dup,07/12/2013,13-00910728,Street Light - 1/Out,5122 S SAYRE AVE,60638.0,1130590.03511426,1869719.23990711,23.0,8.0,56.0,41.79877033333193,-87.79663633454031,"(41.79877033333193,-87.79663633454032)",2013-07-10
75049,07/10/2013,Completed - Dup,07/12/2013,13-00910739,Street Light - 1/Out,5120 S SAYRE AVE,60638.0,1130589.53511426,1869738.83990711,23.0,8.0,56.0,41.798824127908404,-87.79663771941587,"(41.79882412790841,-87.79663771941588)",2013-07-10
75050,07/10/2013,Completed - Dup,07/12/2013,13-00911020,Street Light - 1/Out,5417 S MULLIGAN AVE,60638.0,1134970.68908184,1868005.7337104,23.0,8.0,56.0,41.79399198855234,-87.78061155215882,"(41.79399198855234,-87.78061155215882)",2013-07-10
75051,07/10/2013,Completed - Dup,07/12/2013,13-00912038,Street Light - 1/Out,4827 S ADA ST,60609.0,1168143.51941434,1872751.90322941,20.0,9.0,61.0,41.806366340593705,-87.65883122239862,"(41.8063663405937,-87.65883122239862)",2013-07-10
75052,07/10/2013,Completed - Dup,07/12/2013,13-00914937,Street Light - 1/Out,7610 S EGGLESTON AVE,60620.0,1174611.96072856,1854467.73838806,17.0,6.0,69.0,41.75605084328802,-87.63565142783928,"(41.75605084328802,-87.63565142783928)",2013-07-10
75053,07/10/2013,Completed - Dup,07/12/2013,13-00915052,Street Light - 1/Out,9229 S MARQUETTE AVE,60617.0,1195863.10742199,1844291.93577847,7.0,4.0,48.0,41.72762830800605,-87.55810785260407,"(41.727628308006054,-87.55810785260407)",2013-07-10
75054,07/10/2013,Completed - Dup,07/12/2013,13-00916600,Street Light - 1/Out,5135 S SAYRE AVE,60638.0,1130592.03511426,1869645.63990711,23.0,8.0,56.0,41.79856832710555,-87.79663068515076,"(41.79856832710555,-87.79663068515077)",2013-07-10
75055,07/10/2013,Completed - Dup,07/12/2013,13-00917551,Street Light - 1/Out,721 W 17TH PL,60616.0,1171702.33003256,1891729.05998365,25.0,12.0,31.0,41.85836399502438,-87.64522124432553,"(41.85836399502438,-87.64522124432551)",2013-07-10
75056,07/10/2013,Completed - Dup,07/12/2013,13-00917728,Street Light - 1/Out,837 N MOZART ST,60622.0,1157230.06989025,1905533.39343356,26.0,12.0,24.0,41.89655043298155,-87.69796856081021,"(41.89655043298155,-87.69796856081021)",2013-07-10
75057,07/10/2013,Completed,07/12/2013,13-00909584,Street Light - 1/Out,7610 S EGGLESTON AVE,60620.0,1174611.96072856,1854467.73838806,17.0,6.0,69.0,41.75605084328802,-87.63565142783928,"(41.75605084328802,-87.63565142783928)",2013-07-10
75058,07/10/2013,Completed,07/12/2013,13-00909689,Street Light - 1/Out,5434 N OKETO AVE,60656.0,1126025.60836768,1935193.1999656998,41.0,16.0,10.0,41.97851756539917,-87.81191650625972,"(41.978517565399166,-87.81191650625973)",2013-07-10
75059,07/10/2013,Completed,07/12/2013,13-00912985,Street Light - 1/Out,4731 S LOOMIS BLVD,60609.0,1167795.13002991,1873380.26030547,3.0,9.0,61.0,41.80809811779898,-87.66009094005388,"(41.808098117798984,-87.66009094005389)",2013-07-10
75060,07/10/2013,Completed,07/12/2013,13-00914668,Street Light - 1/Out,5237 S NEVA AVE,60638.0,1129566.33640417,1869035.90010731,23.0,8.0,56.0,41.79691259970309,-87.80040609310205,"(41.796912599703084,-87.80040609310207)",2013-07-10
75061,07/10/2013,Completed,07/12/2013,13-00917456,Street Light - 1/Out,1958 N FAIRFIELD AVE,60647.0,1157723.91988144,1912898.32256939,1.0,14.0,22.0,41.91675035980077,-87.69595373653635,"(41.916750359800766,-87.69595373653635)",2013-07-10
75062,07/11/2013,Completed - Dup,07/12/2013,13-00918445,Street Light - 1/Out,2500 W LUNT AVE,60645.0,1158395.78989932,1946378.17247231,50.0,24.0,2.0,42.00860716463644,-87.69256545006316,"(42.00860716463644,-87.69256545006316)",2013-07-11
75063,07/11/2013,Completed - Dup,07/12/2013,13-00921344,Street Light - 1/Out,10549 S EMERALD AVE,60628.0,1173179.49142662,1834879.16379755,34.0,22.0,49.0,41.70232885910722,-87.64147810793362,"(41.70232885910722,-87.64147810793362)",2013-07-11
75064,07/11/2013,Completed - Dup,07/12/2013,13-00924721,Street Light - 1/Out,8435 S CONSTANCE AVE,60617.0,1189992.8549698999,1849412.0005887002,8.0,4.0,45.0,41.74182132867533,-87.5794468867167,"(41.74182132867533,-87.57944688671668)",2013-07-11
75065,07/11/2013,Completed - Dup,07/12/2013,13-00924774,Street Light - 1/Out,11201 S PEORIA ST,60643.0,1172319.4223216998,1830557.22310573,34.0,22.0,75.0,41.69048770008328,-87.64475396025749,"(41.690487700083274,-87.64475396025748)",2013-07-11
75066,07/11/2013,Completed - Dup,07/12/2013,13-00924781,Street Light - 1/Out,11331 S ABERDEEN ST,60643.0,1171023.05597616,1829524.58671978,34.0,22.0,75.0,41.68768231782692,-87.64953003492765,"(41.68768231782692,-87.64953003492765)",2013-07-11
75067,07/11/2013,Completed - Dup,07/12/2013,13-00924839,Street Light - 1/Out,11300 S AVENUE J,60617.0,1202550.40518552,1830648.87686927,10.0,4.0,52.0,41.6900227811655,-87.53407567365593,"(41.6900227811655,-87.53407567365592)",2013-07-11
75068,07/11/2013,Completed - Dup,07/12/2013,13-00925083,Street Light - 1/Out,7610 S EGGLESTON AVE,60620.0,1174611.96072856,1854467.73838806,17.0,6.0,69.0,41.75605084328802,-87.63565142783928,"(41.75605084328802,-87.63565142783928)",2013-07-11
75069,07/11/2013,Completed - Dup,07/12/2013,13-00925534,Street Light - 1/Out,6852 S CALUMET AVE,60637.0,1179661.1443055,1859655.02307116,20.0,3.0,69.0,41.770171453410185,-87.61698909225599,"(41.77017145341018,-87.61698909225599)",2013-07-11
75070,07/11/2013,Completed - Dup,07/12/2013,13-00925536,Street Light - 1/Out,6851 S CALUMET AVE,60637.0,1179660.9443055,1859661.72307116,20.0,3.0,69.0,41.77018984347541,-87.61698962081459,"(41.770189843475414,-87.6169896208146)",2013-07-11
75071,07/11/2013,Completed - Dup,07/12/2013,13-00925648,Street Light - 1/Out,8647 S KIMBARK AVE,60619.0,1186607.87996799,1847930.96996692,8.0,4.0,45.0,41.73783793407567,-87.59189591193628,"(41.73783793407567,-87.59189591193628)",2013-07-11
75072,07/11/2013,Completed - Dup,07/12/2013,13-00925657,Street Light - 1/Out,9225 S MARQUETTE AVE,60617.0,1195862.30742199,1844318.83577847,7.0,4.0,48.0,41.72770214372249,-87.55810989563595,"(41.72770214372249,-87.55810989563595)",2013-07-11
75073,07/11/2013,Completed - Dup,07/12/2013,13-00925698,Street Light - 1/Out,4700 S LOOMIS BLVD,60609.0,1167789.43002991,1873588.16030547,20.0,9.0,61.0,41.80866874087499,-87.66010587304329,"(41.80866874087499,-87.66010587304328)",2013-07-11
75074,07/11/2013,Completed - Dup,07/12/2013,13-00925706,Street Light - 1/Out,5925 S SPAULDING AVE,60629.0,1155408.15641283,1865033.01987213,16.0,8.0,66.0,41.78544940430728,-87.705747074206,"(41.78544940430728,-87.705747074206)",2013-07-11
75075,07/11/2013,Completed,07/12/2013,13-00917841,Street Light - 1/Out,6535 N HOYNE AVE,60645.0,1161116.3751082,1943311.98357486,50.0,24.0,2.0,42.00013714056577,-87.68264143932993,"(42.000137140565776,-87.68264143932993)",2013-07-11
75076,07/11/2013,Completed,07/12/2013,13-00918439,Street Light - 1/Out,2444 N CAMPBELL AVE,60647.0,1159287.538325,1916210.641425,1.0,14.0,22.0,41.92580757212973,-87.69011774345964,"(41.92580757212973,-87.69011774345964)",2013-07-11
75077,07/11/2013,Completed,07/12/2013,13-00920422,Street Light - 1/Out,1225 W ADDISON ST,60613.0,1167372.42002079,1924043.81059453,44.0,19.0,6.0,41.94713190990767,-87.66018392182893,"(41.94713190990767,-87.66018392182893)",2013-07-11
75078,07/11/2013,Completed,07/12/2013,13-00925737,Street Light - 1/Out,1500 W BERTEAU AVE,60613.0,1165313.05351416,1927978.00096957,47.0,19.0,6.0,41.957971639031385,-87.66764123448543,"(41.957971639031385,-87.66764123448544)",2013-07-11
75079,07/12/2013,Completed,07/12/2013,13-00925898,Street Light - 1/Out,638 W 45TH ST,60609.0,1172686.10837558,1875054.36946644,11.0,9.0,61.0,41.8125855017132,-87.64210271758539,"(41.8125855017132,-87.64210271758539)",2013-07-12
75080,07/12/2013,Completed,07/12/2013,13-00927586,Street Light - 1/Out,546 N RIDGEWAY AVE,60624.0,1151290.21950794,1903381.18840562,27.0,11.0,23.0,41.89076319797432,-87.71984123084296,"(41.890763197974316,-87.71984123084296)",2013-07-12
75081,07/12/2013,Completed,07/12/2013,13-00928656,Street Light - 1/Out,4913 S AVERS AVE,60632.0,1151417.93498777,1871845.88002643,14.0,8.0,57.0,41.80422390091051,-87.7201990577157,"(41.80422390091051,-87.7201990577157)",2013-07-12
75082,07/12/2013,Completed,07/12/2013,13-00929261,Street Light - 1/Out,6804 S DAMEN AVE,60636.0,1164200.63123429,1859519.43716707,17.0,7.0,67.0,41.77013876927323,-87.6736647568613,"(41.77013876927323,-87.67366475686131)",2013-07-12
75083,07/12/2013,Completed,07/12/2013,13-00929820,Street Light - 1/Out,3820 W 78TH PL,60652.0,1151968.95053088,1852342.30902117,18.0,8.0,70.0,41.75069224200232,-87.71868942742806,"(41.750692242002316,-87.71868942742805)",2013-07-12
75084,07/12/2013,Completed,07/12/2013,13-00930193,Street Light - 1/Out,10600 S AVENUE E,60617.0,1203827.97261303,1835281.09136755,10.0,4.0,52.0,41.70270133946266,-87.52924027206639,"(41.702701339462664,-87.52924027206639)",2013-07-12
75085,07/12/2013,Completed,07/12/2013,13-00932204,Street Light - 1/Out,4520 N RICHMOND ST,60625.0,1155898.40528566,1929883.40436853,33.0,17.0,14.0,41.96339565265581,-87.70220122702389,"(41.963395652655805,-87.70220122702389)",2013-07-12
75086,07/12/2013,Completed,07/12/2013,13-00932513,Street Light - 1/Out,1400 S PULASKI RD,60623.0,1149942.02227832,1893080.60689179,24.0,10.0,29.0,41.862523588518364,-87.72506060725061,"(41.86252358851837,-87.72506060725061)",2013-07-12
75087,07/12/2013,Completed,07/12/2013,13-00932616,Street Light - 1/Out,3618 W AINSLIE ST,60625.0,1151294.79332346,1932315.06380104,39.0,17.0,14.0,41.97016008823303,-87.71906314586072,"(41.97016008823303,-87.7190631458607)",2013-07-12
75093,07/01/2013,Completed,07/13/2013,13-00860133,Street Light - 1/Out,4600 S SPRINGFIELD AVE,60632.0,1151130.01293343,1873852.05861053,14.0,8.0,57.0,41.80973477514138,-87.721202628396,"(41.80973477514138,-87.721202628396)",2013-07-01
75094,07/08/2013,Completed - Dup,07/13/2013,13-00898054,Street Light - 1/Out,2517 S FRANCISCO AVE,60623.0,1157431.41757891,1887091.02406911,12.0,10.0,30.0,41.84593861942695,-87.69773060498613,"(41.84593861942695,-87.69773060498613)",2013-07-08
75095,07/08/2013,Completed - Dup,07/13/2013,13-00898539,Street Light - 1/Out,2900 W 25TH ST,60623.0,1157425.7908853998,1887267.40768752,12.0,10.0,30.0,41.84642275026211,-87.69774646389301,"(41.84642275026211,-87.69774646389301)",2013-07-08
75096,07/09/2013,Completed - Dup,07/13/2013,13-00900892,Street Light - 1/Out,2132 W ROOSEVELT RD,60608.0,1162193.03780567,1894691.81680146,2.0,12.0,28.0,41.86669790980295,-87.68004356479106,"(41.86669790980295,-87.68004356479108)",2013-07-09
75097,07/09/2013,Completed - Dup,07/13/2013,13-00900929,Street Light - 1/Out,10600 S AVENUE F,60617.0,1203497.04591509,1835280.40869705,10.0,4.0,52.0,41.70270793860344,-87.53045203203844,"(41.70270793860344,-87.53045203203843)",2013-07-09
75098,07/10/2013,Completed - Dup,07/13/2013,13-00911746,Street Light - 1/Out,2943 W 25TH PL,60623.0,1157145.81757891,1886939.32406911,12.0,10.0,30.0,41.84552813291845,-87.6987828528493,"(41.84552813291845,-87.69878285284932)",2013-07-10
75099,07/10/2013,Completed - Dup,07/13/2013,13-00911774,Street Light - 1/Out,2500 S FRANCISCO AVE,60623.0,1157425.7908853998,1887267.40768752,12.0,10.0,30.0,41.84642275026211,-87.69774646389301,"(41.84642275026211,-87.69774646389301)",2013-07-10
75100,07/10/2013,Completed,07/13/2013,13-00909567,Street Light - 1/Out,2700 S DRAKE AVE,60623.0,1153137.91291064,1885831.52297641,22.0,10.0,30.0,41.84256851171049,-87.71352089252838,"(41.84256851171049,-87.71352089252838)",2013-07-10
75101,07/10/2013,Completed,07/13/2013,13-00909569,Street Light - 1/Out,2345 S HARDING AVE,60623.0,1150422.61987045,1887899.12001289,22.0,10.0,30.0,41.84829559975678,-87.72343148472456,"(41.84829559975678,-87.72343148472456)",2013-07-10
75102,07/10/2013,Completed,07/13/2013,13-00911716,Street Light - 1/Out,2500 S SACRAMENTO AVE,60623.0,1156758.38677899,1887252.36620366,12.0,10.0,30.0,41.846395002853185,-87.70019622160282,"(41.846395002853185,-87.70019622160282)",2013-07-10
75103,07/10/2013,Completed,07/13/2013,13-00916015,Street Light - 1/Out,4100 S PULASKI RD,60632.0,1150358.00186824,1877013.87000051,14.0,8.0,57.0,41.81842628899648,-87.72395204012443,"(41.818426288996484,-87.72395204012443)",2013-07-10
75104,07/13/2013,Completed - Dup,07/13/2013,13-00935001,Street Light - 1/Out,8201 S VERNON AVE,60619.0,1180671.13060912,1850718.61757842,6.0,6.0,44.0,41.745625854022,-87.61356100427739,"(41.745625854022,-87.61356100427737)",2013-07-13
75105,07/13/2013,Completed,07/13/2013,13-00934942,Street Light - 1/Out,509 W 129TH PL,60628.0,1175250.69012188,1818803.71609379,9.0,5.0,53.0,41.658169398621176,-87.63437150275116,"(41.658169398621176,-87.63437150275116)",2013-07-13
75106,07/13/2013,Completed,07/13/2013,13-00934958,Street Light - 1/Out,8200 S VERNON AVE,60619.0,1180670.83060912,1850729.71757842,6.0,6.0,44.0,41.74565632056584,-87.61356176331024,"(41.745656320565836,-87.61356176331023)",2013-07-13
75107,07/11/2013,Completed - Dup,07/14/2013,13-00925674,Street Light - 1/Out,5415 N RAVENSWOOD AVE,60640.0,1163386.79067258,1936050.2632281997,40.0,20.0,77.0,41.980163104047215,-87.67449462045751,"(41.98016310404721,-87.67449462045751)",2013-07-11
75108,07/14/2013,Completed - Dup,07/14/2013,13-00936765,Street Light - 1/Out,2725 E 78TH ST,60649.0,1195776.70709959,1853774.65620864,7.0,4.0,43.0,41.75365179654807,-87.55811142847686,"(41.75365179654807,-87.55811142847686)",2013-07-14
75109,07/14/2013,Completed,07/14/2013,13-00935215,Street Light - 1/Out,219 S TROY ST,60612.0,1155414.90022224,1898776.05560676,28.0,11.0,27.0,41.87804433677166,-87.70481716509121,"(41.87804433677166,-87.70481716509121)",2013-07-14
75139,07/01/2013,Completed,07/15/2013,13-00858814,Street Light - 1/Out,4350 S KILPATRICK AVE,60632.0,1145741.59997528,1875718.68071862,23.0,8.0,56.0,41.814960688248284,-87.74091957238609,"(41.81496068824828,-87.74091957238609)",2013-07-01
75140,07/02/2013,Completed,07/15/2013,13-00865392,Street Light - 1/Out,2900 W 79TH ST,60652.0,1158122.29012365,1852105.90527997,18.0,8.0,70.0,41.749920673909,-87.69614686278472,"(41.749920673909,-87.69614686278472)",2013-07-02
75141,07/03/2013,Completed - Dup,07/15/2013,13-00873776,Street Light - 1/Out,11609 S ARTESIAN AVE,60655.0,1162142.76036596,1827584.71690084,19.0,22.0,75.0,41.68254779952923,-87.68209369871683,"(41.68254779952923,-87.68209369871683)",2013-07-03
75142,07/03/2013,Completed - Dup,07/15/2013,13-00878417,Street Light - 1/Out,7500 S WOOD ST,60620.0,1165651.45996625,1854919.26998971,17.0,6.0,71.0,41.75748462392636,-87.66847694170265,"(41.75748462392636,-87.66847694170266)",2013-07-03
75143,07/03/2013,Completed,07/15/2013,13-00874619,Street Light - 1/Out,10814 S RIDGEWAY AVE,60655.0,1153271.26812053,1832634.15867534,19.0,22.0,74.0,41.696583895524036,-87.71443627519497,"(41.696583895524036,-87.71443627519497)",2013-07-03
75144,07/03/2013,Completed,07/15/2013,13-00874659,Street Light - 1/Out,534 W 37TH ST,60609.0,1173226.85187292,1880377.99028145,11.0,9.0,60.0,41.82718206180166,-87.63996169957981,"(41.82718206180166,-87.63996169957981)",2013-07-03
75145,07/03/2013,Completed,07/15/2013,13-00880883,Street Light - 1/Out,2257 E 95TH ST,60617.0,1192949.12527305,1842415.0940066,7.0,4.0,51.0,41.72254959472973,-87.56884309792095,"(41.72254959472973,-87.56884309792096)",2013-07-03
75146,07/03/2013,Completed,07/15/2013,13-00880923,Street Light - 1/Out,2052 W 82ND PL,60620.0,1163894.20992714,1849940.33433217,18.0,6.0,71.0,41.74385878246226,-87.67505665143915,"(41.74385878246226,-87.67505665143916)",2013-07-03
75147,07/05/2013,Completed - Dup,07/15/2013,13-00885783,Street Light - 1/Out,10319 S CALHOUN AVE,60617.0,1194841.55701226,1837058.78120172,10.0,4.0,51.0,41.70780503396193,-87.56208723570845,"(41.707805033961925,-87.56208723570845)",2013-07-05
75148,07/05/2013,Completed - Dup,07/15/2013,13-00886071,Street Light - 1/Out,2269 W HOWARD ST,60645.0,1159886.8600141,1950363.00308952,49.0,24.0,2.0,42.01951089057851,-87.68696870023018,"(42.01951089057851,-87.68696870023017)",2013-07-05
75149,07/05/2013,Completed - Dup,07/15/2013,13-00888256,Street Light - 1/Out,10319 S CALHOUN AVE,60617.0,1194841.55701226,1837058.78120172,10.0,4.0,51.0,41.70780503396193,-87.56208723570845,"(41.707805033961925,-87.56208723570845)",2013-07-05
75150,07/05/2013,Completed - Dup,07/15/2013,13-00888487,Street Light - 1/Out,34 N LOCKWOOD AVE,60644.0,1141052.18002582,1899757.59942301,28.0,15.0,25.0,41.88101433281272,-87.75753009301661,"(41.88101433281272,-87.75753009301661)",2013-07-05
75151,07/05/2013,Completed,07/15/2013,13-00884265,Street Light - 1/Out,2318 W 80TH ST,60620.0,1162298.48400195,1851553.16081474,18.0,8.0,70.0,41.74831797214708,-87.68085874939682,"(41.74831797214708,-87.68085874939683)",2013-07-05
75152,07/05/2013,Completed,07/15/2013,13-00886069,Street Light - 1/Out,2269 W HOWARD ST,60645.0,1159886.8600141,1950363.00308952,49.0,24.0,2.0,42.01951089057851,-87.68696870023018,"(42.01951089057851,-87.68696870023017)",2013-07-05
75153,07/06/2013,Completed - Dup,07/15/2013,13-00890511,Street Light - 1/Out,7029 S LAFLIN ST,60636.0,1167549.92353265,1858121.50097617,17.0,7.0,67.0,41.766231500639975,-87.66142765438356,"(41.766231500639975,-87.66142765438356)",2013-07-06
75154,07/06/2013,Completed,07/15/2013,13-00890509,Street Light - 1/Out,7033 S LAFLIN ST,60636.0,1167550.72353265,1858094.70097617,17.0,7.0,67.0,41.766157940770846,-87.66142548944184,"(41.76615794077084,-87.66142548944183)",2013-07-06
75155,07/08/2013,Completed - Dup,07/15/2013,13-00892451,Street Light - 1/Out,1058 S PULASKI RD,60624.0,1149869.17210442,1895265.64092148,24.0,11.0,29.0,41.86852099574424,-87.72527122012018,"(41.868520995744234,-87.72527122012018)",2013-07-08
75156,07/08/2013,Completed - Dup,07/15/2013,13-00899238,Street Light - 1/Out,7500 S WOOD ST,60620.0,1165651.45996625,1854919.26998971,17.0,6.0,71.0,41.75748462392636,-87.66847694170265,"(41.75748462392636,-87.66847694170266)",2013-07-08
75157,07/08/2013,Completed - Dup,07/15/2013,13-00900494,Street Light - 1/Out,10322 S CALHOUN AVE,60617.0,1194841.85701226,1837039.58120172,10.0,4.0,51.0,41.70775233988218,-87.56208676684359,"(41.70775233988218,-87.5620867668436)",2013-07-08
75158,07/08/2013,Completed,07/15/2013,13-00900388,Street Light - 1/Out,2635 W 21ST PL,60608.0,1159127.22317378,1889629.19008088,28.0,10.0,30.0,41.85286901200392,-87.69143748268671,"(41.85286901200392,-87.6914374826867)",2013-07-08
75159,07/09/2013,Completed - Dup,07/15/2013,13-00908953,Street Light - 1/Out,1336 N WALLER AVE,60651.0,1138098.70412081,1908324.07577162,29.0,25.0,25.0,41.9045756877389,-87.76816803114914,"(41.9045756877389,-87.76816803114914)",2013-07-09
75160,07/09/2013,Completed,07/15/2013,13-00900889,Street Light - 1/Out,1212 W HUBBARD ST,60642.0,1168252.02309833,1903225.55293057,27.0,12.0,24.0,41.88998644422375,-87.65755375188415,"(41.88998644422375,-87.65755375188415)",2013-07-09
75161,07/10/2013,Completed - Dup,07/15/2013,13-00909452,Street Light - 1/Out,9736 S DOBSON AVE,60628.0,1184927.39947981,1840646.77051899,8.0,5.0,50.0,41.717888835565546,-87.59828057956038,"(41.717888835565546,-87.59828057956038)",2013-07-10
75162,07/10/2013,Completed - Dup,07/15/2013,13-00909574,Street Light - 1/Out,4400 S LAWLER AVE,60638.0,1143435.95170673,1874989.26677752,23.0,8.0,56.0,41.813002370358355,-87.74939533825851,"(41.81300237035836,-87.74939533825852)",2013-07-10
75163,07/10/2013,Completed - Dup,07/15/2013,13-00909575,Street Light - 1/Out,5437 S KOLIN AVE,60632.0,1148287.97981453,1868198.99563258,23.0,8.0,62.0,41.79427698924593,-87.73177201424471,"(41.79427698924593,-87.7317720142447)",2013-07-10
75164,07/10/2013,Completed - Dup,07/15/2013,13-00910127,Street Light - 1/Out,4447 S LAWLER AVE,60638.0,1143441.65170673,1874676.56677752,23.0,8.0,56.0,41.81214416668156,-87.74938222421534,"(41.812144166681556,-87.74938222421534)",2013-07-10
75165,07/10/2013,Completed - Dup,07/15/2013,13-00910147,Street Light - 1/Out,912 N AVERS AVE,60651.0,1150554.68528256,1905811.88268157,27.0,11.0,23.0,41.897447672274396,-87.72247894009405,"(41.897447672274396,-87.72247894009404)",2013-07-10
75166,07/10/2013,Completed - Dup,07/15/2013,13-00917451,Street Light - 1/Out,6809 S INDIANA AVE,60637.0,1178768.11411206,1859912.62169809,20.0,3.0,69.0,41.7708986952128,-87.62025471638458,"(41.7708986952128,-87.62025471638458)",2013-07-10
75167,07/10/2013,Completed,07/15/2013,13-00909612,Street Light - 1/Out,3510 W 16TH ST,60623.0,1153195.56462016,1891818.64549863,24.0,10.0,29.0,41.85899674551993,-87.71315064531997,"(41.85899674551993,-87.71315064531998)",2013-07-10
75168,07/10/2013,Completed,07/15/2013,13-00912902,Street Light - 1/Out,1508 W JARVIS AVE,60626.0,1164965.41771506,1949138.93642976,49.0,24.0,1.0,42.016045273536726,-87.66831519789736,"(42.016045273536726,-87.66831519789736)",2013-07-10
75169,07/10/2013,Completed,07/15/2013,13-00915817,Street Light - 1/Out,7537 W EVERELL AVE,60631.0,1125205.0200272,1940282.47979937,41.0,16.0,10.0,41.99249673888588,-87.81482100661661,"(41.992496738885876,-87.81482100661661)",2013-07-10
75170,07/10/2013,Completed,07/15/2013,13-00917605,Street Light - 1/Out,632 W 30TH ST,60616.0,1172445.3393946001,1885011.72408023,11.0,9.0,60.0,41.83991470939253,-87.64269224886685,"(41.83991470939253,-87.64269224886684)",2013-07-10
75171,07/11/2013,Completed - Dup,07/15/2013,13-00917951,Street Light - 1/Out,7500 S WOOD ST,60620.0,1165651.45996625,1854919.26998971,17.0,6.0,71.0,41.75748462392636,-87.66847694170265,"(41.75748462392636,-87.66847694170266)",2013-07-11
75172,07/11/2013,Completed - Dup,07/15/2013,13-00923325,Street Light - 1/Out,3931 W ADAMS ST,60624.0,1150217.76560928,1898722.95346646,28.0,11.0,26.0,41.87800147105431,-87.7239013288238,"(41.87800147105431,-87.7239013288238)",2013-07-11
75173,07/11/2013,Completed - Dup,07/15/2013,13-00923353,Street Light - 1/Out,3923 W ADAMS ST,60624.0,1150271.46560928,1898724.25346646,28.0,11.0,26.0,41.878003991880064,-87.7237041198173,"(41.878003991880064,-87.7237041198173)",2013-07-11
75174,07/11/2013,Completed - Dup,07/15/2013,13-00924231,Street Light - 1/Out,943 W 34TH ST,60608.0,1170573.03302229,1882389.65909312,11.0,9.0,60.0,41.832760631805456,-87.6496393681163,"(41.832760631805456,-87.6496393681163)",2013-07-11
75175,07/11/2013,Completed - Dup,07/15/2013,13-00924829,Street Light - 1/Out,10747 S PULASKI RD,60655.0,1151587.44427283,1832985.39549066,19.0,22.0,74.0,41.69758079515813,-87.72059236188788,"(41.69758079515813,-87.72059236188788)",2013-07-11
75176,07/11/2013,Completed - Dup,07/15/2013,13-00925571,Street Light - 1/Out,4848 S LAVERGNE AVE,60638.0,1143843.9807883,1872020.86268856,23.0,8.0,56.0,41.804848987089706,-87.74797281133236,"(41.804848987089706,-87.74797281133236)",2013-07-11
75177,07/11/2013,Completed,07/15/2013,13-00925664,Street Light - 1/Out,1616 W TOUHY AVE,60626.0,1164367.96999697,1947918.10288098,49.0,24.0,1.0,42.01270800081522,-87.67054839786518,"(42.01270800081522,-87.67054839786518)",2013-07-11
75178,07/12/2013,Completed - Dup,07/15/2013,13-00925908,Street Light - 1/Out,5000 S LAWLER AVE,60638.0,1143537.98986802,1871003.62398217,23.0,8.0,56.0,41.80206323490761,-87.74912043023869,"(41.80206323490761,-87.74912043023868)",2013-07-12
75179,07/12/2013,Completed - Dup,07/15/2013,13-00930585,Street Light - 1/Out,7625 S HERMITAGE AVE,60620.0,1166004.36103143,1854129.46376846,17.0,6.0,71.0,41.755309794183596,-87.66720601670163,"(41.75530979418359,-87.66720601670163)",2013-07-12
75180,07/12/2013,Completed - Dup,07/15/2013,13-00932986,Street Light - 1/Out,6443 S WOLCOTT AVE,60636.0,1164791.56618864,1861956.23197044,15.0,7.0,67.0,41.77681320146477,-87.67142988176637,"(41.776813201464776,-87.67142988176637)",2013-07-12
75181,07/12/2013,Completed - Dup,07/15/2013,13-00933267,Street Light - 1/Out,1336 N WALLER AVE,60651.0,1138098.70412081,1908324.07577162,29.0,25.0,25.0,41.9045756877389,-87.76816803114914,"(41.9045756877389,-87.76816803114914)",2013-07-12
75182,07/12/2013,Completed,07/15/2013,13-00925903,Street Light - 1/Out,3340 W 114TH ST,60655.0,1156131.09137626,1828994.7055047,19.0,22.0,74.0,41.68653967531026,-87.70406254754809,"(41.686539675310264,-87.7040625475481)",2013-07-12
75183,07/12/2013,Completed,07/15/2013,13-00925904,Street Light - 1/Out,11000 S GREEN ST,60643.0,1172609.53019339,1831898.79910341,34.0,22.0,75.0,41.694162826105035,-87.64365253562836,"(41.69416282610504,-87.64365253562836)",2013-07-12
75184,07/12/2013,Completed,07/15/2013,13-00927606,Street Light - 1/Out,6295 N BROADWAY,60660.0,1167157.45302442,1941960.63017407,49.0,24.0,77.0,41.996300873572046,-87.6604568194998,"(41.996300873572046,-87.6604568194998)",2013-07-12
75185,07/12/2013,Completed,07/15/2013,13-00927779,Street Light - 1/Out,1051 W BALMORAL AVE,60640.0,1168107.521325,1936033.749775,48.0,20.0,77.0,41.980016841559895,-87.65713410172751,"(41.9800168415599,-87.6571341017275)",2013-07-12
75186,07/12/2013,Completed,07/15/2013,13-00928280,Street Light - 1/Out,1247 W ARGYLE ST,60640.0,1166966.49996664,1933339.46031252,46.0,20.0,3.0,41.97264826932119,-87.66140804128817,"(41.97264826932119,-87.66140804128817)",2013-07-12
75187,07/12/2013,Completed,07/15/2013,13-00928540,Street Light - 1/Out,5201 N WINTHROP AVE,60640.0,1167932.31508147,1934703.81068682,48.0,20.0,77.0,41.97637124546874,-87.65781701022934,"(41.97637124546874,-87.65781701022935)",2013-07-12
75188,07/13/2013,Completed - Dup,07/15/2013,13-00934125,Street Light - 1/Out,5735 S SPAULDING AVE,60629.0,1155361.45867006,1866400.18148897,14.0,8.0,63.0,41.789202029819954,-87.70588170976566,"(41.789202029819954,-87.70588170976566)",2013-07-13
75189,07/13/2013,Completed - Dup,07/15/2013,13-00935007,Street Light - 1/Out,2700 S DRAKE AVE,60623.0,1153137.91291064,1885831.52297641,22.0,10.0,30.0,41.84256851171049,-87.71352089252838,"(41.84256851171049,-87.71352089252838)",2013-07-13
75190,07/14/2013,Completed - Dup,07/15/2013,13-00935674,Street Light - 1/Out,2630 N MARSHFIELD AVE,60614.0,1164886.06458203,1917536.01912411,32.0,19.0,7.0,41.9293274025442,-87.66950828304795,"(41.9293274025442,-87.66950828304793)",2013-07-14
75191,07/14/2013,Completed - Dup,07/15/2013,13-00936310,Street Light - 1/Out,7027 S LAFLIN ST,60636.0,1167549.52353265,1858134.90097617,17.0,7.0,67.0,41.7662682805742,-87.66142873685587,"(41.7662682805742,-87.66142873685588)",2013-07-14
75192,07/14/2013,Completed - Dup,07/15/2013,13-00936761,Street Light - 1/Out,7029 S LAFLIN ST,60636.0,1167549.92353265,1858121.50097617,17.0,7.0,67.0,41.766231500639975,-87.66142765438356,"(41.766231500639975,-87.66142765438356)",2013-07-14
75193,07/14/2013,Completed - Dup,07/15/2013,13-00936813,Street Light - 1/Out,2052 W 82ND PL,60620.0,1163894.20992714,1849940.33433217,18.0,6.0,71.0,41.74385878246226,-87.67505665143915,"(41.74385878246226,-87.67505665143916)",2013-07-14
75194,07/15/2013,Completed - Dup,07/15/2013,13-00942595,Street Light - 1/Out,8545 S SACRAMENTO AVE,60652.0,1157882.80200682,1847679.39088113,18.0,8.0,70.0,41.73777846661842,-87.69714438005603,"(41.73777846661842,-87.69714438005603)",2013-07-15
75195,07/15/2013,Completed - Dup,07/15/2013,13-00943988,Street Light - 1/Out,6120 S MULLIGAN AVE,60638.0,1135123.12753169,1863270.56358821,23.0,8.0,64.0,41.78099512883889,-87.78016427173979,"(41.78099512883889,-87.7801642717398)",2013-07-15
