SERVICE REQUEST TYPE,SERVICE REQUEST NUMBER,DATE SERVICE REQUEST WAS RECEIVED,"LOCATION OF BUILDING ON THE LOT (IF GARAGE, CHANGE TYPE CODE TO BGD).",IS THE BUILDING DANGEROUS OR HAZARDOUS?,IS BUILDING OPEN OR BOARDED?,"IF THE BUILDING IS OPEN, WHERE IS THE ENTRY POINT?",IS THE BUILDING CURRENTLY VACANT OR OCCUPIED?,IS THE BUILDING VACANT DUE TO FIRE?,"ANY PEOPLE USING PROPERTY? (HOMELESS, CHILDEN, GANGS)",ADDRESS STREET NUMBER,ADDRESS STREET DIRECTION,ADDRESS STREET NAME,ADDRESS STREET SUFFIX,ZIP CODE,X COORDINATE,Y COORDINATE,Ward,Police District,Community Area,LATITUDE,LONGITUDE,Location,date
Vacant/Abandoned Building,13-00858023,07/01/2013,Front,,Open,,Vacant,False,False,231,N,LA CROSSE,AVE,60644.0,1144002.17426575,1901171.44370699,28.0,15.0,25.0,41.88483926849472,-87.74666228439169,"(41.88483926849473, -87.74666228439168)",2013-07-01
Vacant/Abandoned Building,13-00866086,07/02/2013,Front,,Open,REAR,Vacant,False,False,333,E,PERSHING,RD,60653.0,1179251.07999418,1879202.68172596,3.0,2.0,38.0,41.82382137920288,-87.61789585442742,"(41.823821379202876, -87.6178958544274)",2013-07-02
Vacant/Abandoned Building,13-00867920,07/02/2013,Front,,Open,FRONT,Vacant,False,False,4259,W,VAN BUREN,ST,60624.0,1148061.48940614,1897682.19288715,24.0,11.0,26.0,41.87518724567822,-87.73184551052903,"(41.87518724567822, -87.73184551052901)",2013-07-02
Vacant/Abandoned Building,13-00857824,07/01/2013,Front,,Open,,Vacant,False,False,4111,W,ADAMS,ST,60624.0,1149020.0405974,1898693.82592853,28.0,11.0,26.0,41.87794479537054,-87.72829987971718,"(41.87794479537054, -87.72829987971718)",2013-07-01
Vacant/Abandoned Building,13-00858107,07/01/2013,Front,,Open,,Vacant,False,True,6320,S,CAMPBELL,AVE,60629.0,1160789.70083271,1862670.24028558,15.0,8.0,66.0,41.778856127871315,-87.68608094997809,"(41.77885612787131, -87.68608094997809)",2013-07-01
Vacant/Abandoned Building,13-00869433,07/02/2013,Front,,Open,"SIDE DOOR IS OPEN AND DAMAGED, BROKEN GLASS",Vacant,False,False,8942,S,CARPENTER,ST,60620.0,1170884.23990696,1845460.89211644,21.0,22.0,73.0,41.731416983196176,-87.64957496153053,"(41.73141698319618, -87.64957496153053)",2013-07-02
Vacant/Abandoned Building,13-00907260,07/09/2013,Front,,Open,,Vacant,False,False,7838,S,PHILLIPS,AVE,60649.0,1193888.29418065,1853470.81219587,7.0,4.0,43.0,41.75286450899859,-87.56504159316314,"(41.75286450899859, -87.56504159316314)",2013-07-09
Vacant/Abandoned Building,13-00901669,07/09/2013,Front,,Open,,Vacant,False,False,3401,N,HALSTED,ST,60657.0,1170322.82000681,1922797.0483662,44.0,19.0,6.0,41.94364665032721,-87.64937569866188,"(41.94364665032721, -87.64937569866188)",2013-07-09
Vacant/Abandoned Building,13-00886217,07/05/2013,Front,,Open,ALL OPEN,Vacant,False,False,2831,W,BELMONT,AVE,60618.0,1156906.7397828002,1921141.6631288999,33.0,14.0,21.0,41.93938732428433,-87.69873189767256,"(41.939387324284326, -87.69873189767257)",2013-07-05
Vacant/Abandoned Building,13-00895449,07/08/2013,Front,,Open,FRONT DOOR,Vacant,False,False,1630,S,DRAKE,AVE,60623.0,1152973.33160555,1891612.01631363,24.0,10.0,29.0,41.858434133290494,-87.7139718664004,"(41.858434133290494, -87.71397186640039)",2013-07-08
Vacant/Abandoned Building,13-00896501,07/08/2013,Front,,Open,,Vacant,False,False,3115,W,FILLMORE,ST,60612.0,1155707.51919534,1895207.55417089,24.0,11.0,29.0,41.86824611536228,-87.70383882563603,"(41.868246115362275, -87.70383882563601)",2013-07-08
Vacant/Abandoned Building,13-00888945,07/06/2013,Front,,Open,FRONT AND REAR,Vacant,False,True,1665,S,MILLARD,AVE,60623.0,1152316.04402582,1891335.17696924,24.0,10.0,29.0,41.85768743946184,-87.7163918503236,"(41.857687439461834, -87.7163918503236)",2013-07-06
Vacant/Abandoned Building,13-00881073,07/04/2013,Front,,Open,SIDE,Vacant,False,False,1427,S,KARLOV,AVE,60623.0,1149281.69226764,1892879.94180307,24.0,10.0,29.0,41.861985752007925,-87.72748981482012,"(41.86198575200792, -87.72748981482012)",2013-07-04
Vacant/Abandoned Building,13-00864526,07/01/2013,Front,,Open,ALL DOORS/ REAR FENCE NOT SECURE,Vacant,False,True,1311,S,TRIPP,AVE,60623.0,1148259.12453116,1893626.70810797,24.0,10.0,29.0,41.864054710042794,-87.73122431026457,"(41.8640547100428, -87.73122431026457)",2013-07-01
Vacant/Abandoned Building,13-00872871,07/02/2013,Front,,Open,REAR,Vacant,False,True,1935,S,TRUMBULL,AVE,60623.0,1153721.37089579,1890339.06438039,24.0,10.0,29.0,41.854926166506864,-87.71125991975401,"(41.85492616650687, -87.711259919754)",2013-07-02
Vacant/Abandoned Building,13-00874436,07/03/2013,Front,,Open,FRONT AND REAR,Vacant,False,False,1320,S,KOLIN,AVE,60623.0,1147593.71372176,1893549.36182873,24.0,10.0,29.0,41.863855242722245,-87.7336690151837,"(41.86385524272224, -87.7336690151837)",2013-07-03
Vacant/Abandoned Building,13-00877707,07/03/2013,Front,,Open,THE FRONT AND REAR DOORS HAVE BEEN BROKEN,Vacant,False,True,2411,S,CHRISTIANA,AVE,60623.0,1154411.98788206,1887780.05588638,22.0,10.0,30.0,41.8478901921002,-87.70879335104804,"(41.847890192100195, -87.70879335104804)",2013-07-03
Vacant/Abandoned Building,13-00879695,07/03/2013,Front,,Open,,Vacant,False,False,11814,S,LOWE,AVE,60628.0,1174091.80699074,1826548.52102192,34.0,5.0,53.0,41.679448130198544,-87.6383835656259,"(41.67944813019854, -87.63838356562589)",2013-07-03
Vacant/Abandoned Building,13-00920259,07/11/2013,Front,,Open,,Vacant,False,False,7400,S,STONY ISLAND,AVE,60649.0,1188094.58930989,1856234.6980755,5.0,3.0,43.0,41.76058887494808,-87.58618489229593,"(41.760588874948084, -87.58618489229593)",2013-07-11
Vacant/Abandoned Building,13-00907141,07/09/2013,Front,,Open,?,Vacant,False,False,5006,S,CHAMPLAIN,AVE,60615.0,1181443.10792848,1871941.29112335,4.0,2.0,38.0,41.80384518376557,-87.6100783683688,"(41.80384518376556, -87.6100783683688)",2013-07-09
Vacant/Abandoned Building,13-00891659,07/07/2013,Front,,Boarded,,Vacant,False,True,4015,W,JACKSON,BLVD,60624.0,1149671.02359276,1898384.28207152,28.0,11.0,26.0,41.8770827544116,-87.72591765170641,"(41.8770827544116, -87.7259176517064)",2013-07-07
Vacant/Abandoned Building,13-00885884,07/05/2013,Front,,Open,FRONT AND REAR,Vacant,False,True,532,N,SPRINGFIELD,AVE,60624.0,1150294.33600197,1903270.57849295,27.0,11.0,23.0,41.89047915348606,-87.72350151943526,"(41.89047915348606, -87.72350151943525)",2013-07-05
Vacant/Abandoned Building,13-00887710,07/05/2013,Front,,Open,"FRONT AND BANK, BUSTED WINDOWS FRONT AND BACK.",Vacant,True,False,170,N,LA CROSSE,AVE,60644.0,1144016.54017476,1900751.06498052,28.0,15.0,25.0,41.88368542945163,-87.74662008401722,"(41.88368542945163, -87.74662008401722)",2013-07-05
Vacant/Abandoned Building,13-00889481,07/06/2013,Front,,Open,ALL ENTIRES OPEN,Vacant,False,True,629,N,LAWNDALE,AVE,60624.0,1151607.52459123,1903944.41260149,27.0,11.0,23.0,41.892302511329326,-87.71866110487395,"(41.89230251132933, -87.71866110487393)",2013-07-06
Vacant/Abandoned Building,13-00872694,07/02/2013,Front,,Open,WHOLE BUILDING,Vacant,False,True,4930,W,KINZIE,ST,60644.0,1143428.44997003,1902275.42031755,28.0,15.0,25.0,41.88787945613151,-87.7487414958226,"(41.88787945613151, -87.74874149582259)",2013-07-02
Vacant/Abandoned Building,13-00879356,07/03/2013,Rear,,Open,"REAR,FRONT",Vacant,False,True,7642,S,MARQUETTE,AVE,60649.0,1195654.07109882,1854686.46007699,7.0,4.0,43.0,41.756156885642966,-87.55853074373016,"(41.75615688564296, -87.55853074373015)",2013-07-03
Vacant/Abandoned Building,13-00881425,07/04/2013,Front,,Open,,Vacant,False,True,854,N,LAWNDALE,AVE,60651.0,1151562.6007937,1905448.4464314,27.0,11.0,23.0,41.89643061479835,-87.71878652817475,"(41.89643061479834, -87.71878652817473)",2013-07-04
Vacant/Abandoned Building,13-00881566,07/04/2013,Front,,Open,"DOORS, WINDOWS AND FRONT GATE",Vacant,False,False,5445,S,FEDERAL,ST,60609.0,1176633.14816617,1868882.99099123,3.0,2.0,40.0,41.795562627688135,-87.62781085232727,"(41.79556262768813, -87.62781085232727)",2013-07-04
Vacant/Abandoned Building,13-00859257,07/01/2013,,,,,,,,5125,W,WASHINGTON,BLVD,60644.0,1142113.59500478,1900020.55761552,28.0,15.0,25.0,41.88171631498048,-87.75362607332504,"(41.88171631498048, -87.75362607332505)",2013-07-01
Vacant/Abandoned Building,13-00859262,07/01/2013,,,,,,,,652,W,GARFIELD,BLVD,60609.0,1172877.05008166,1868416.24427346,3.0,9.0,61.0,41.794365591735456,-87.6415983029753,"(41.79436559173545, -87.6415983029753)",2013-07-01
Vacant/Abandoned Building,13-00860810,07/01/2013,Rear,,Open,,Vacant,False,True,3837,S,CALUMET,AVE,60653.0,1179154.53990596,1879615.36229338,3.0,2.0,35.0,41.82495601244453,-87.61823742166322,"(41.82495601244453, -87.61823742166324)",2013-07-01
Vacant/Abandoned Building,13-00861014,07/01/2013,Front,,Open,,Vacant,False,True,4357,W,ADAMS,ST,60624.0,1147375.01041243,1898655.94048188,28.0,11.0,26.0,41.87787249665388,-87.7343410598813,"(41.87787249665388, -87.7343410598813)",2013-07-01
Vacant/Abandoned Building,13-00924491,07/11/2013,Front,,Open,,Vacant,False,False,7251,S,COLES,AVE,60649.0,1194471.24166707,1857630.34581669,7.0,3.0,43.0,41.764264278337976,-87.56276883195859,"(41.764264278337976, -87.5627688319586)",2013-07-11
Vacant/Abandoned Building,13-00925362,07/11/2013,Front,,Open,SIDE,Vacant,False,True,3048,E,80TH,ST,60617.0,1197959.6100338001,1852510.97999537,7.0,4.0,46.0,41.750129927151,-87.55015420184506,"(41.750129927151, -87.55015420184506)",2013-07-11
Vacant/Abandoned Building,13-00911998,07/10/2013,Front,,Open,REAR,Vacant,False,False,1933,S,TRUMBULL,AVE,60623.0,1153720.77089579,1890354.66438039,24.0,10.0,29.0,41.85496898664185,-87.71126170720372,"(41.85496898664185, -87.71126170720372)",2013-07-10
Vacant/Abandoned Building,13-00912327,07/10/2013,Rear,,Open,,Vacant,False,False,3442,W,JACKSON,BLVD,60624.0,1153463.66231857,1898476.78919117,28.0,11.0,27.0,41.87726210537992,-87.71198964137474,"(41.87726210537992, -87.71198964137473)",2013-07-10
Vacant/Abandoned Building,13-00917138,07/10/2013,Front,,Boarded,NONE,Vacant,False,False,2117,E,98TH,ST,60617.0,1191727.37238334,1840409.29576645,7.0,4.0,51.0,41.717075168095455,-87.5733829997978,"(41.71707516809545, -87.5733829997978)",2013-07-10
Vacant/Abandoned Building,13-00908533,07/09/2013,Front,,Open,FRONT DOOR,Vacant,False,True,6738,S,DORCHESTER,AVE,60637.0,1186704.90723107,1860456.27988642,5.0,3.0,43.0,41.772206282556965,-87.59114455358002,"(41.772206282556965, -87.59114455358002)",2013-07-09
Vacant/Abandoned Building,13-00895298,07/08/2013,,,,,,,,116,W,107TH,ST,60628.0,1177495.88831717,1834008.3520256002,34.0,5.0,49.0,41.69984298549973,-87.62569891487314,"(41.69984298549973, -87.62569891487314)",2013-07-08
Vacant/Abandoned Building,13-00895300,07/08/2013,,,,,,,,9143,S,ESSEX,AVE,60617.0,1194425.44440364,1844826.24952415,7.0,4.0,48.0,41.72912992238899,-87.56335663322945,"(41.72912992238899, -87.56335663322943)",2013-07-08
Vacant/Abandoned Building,13-00895562,07/08/2013,,,,,,,,9900,S,CLYDE,AVE,60617.0,1192147.27978649,1839752.22269891,7.0,4.0,51.0,41.71526191168285,-87.5718663732738,"(41.71526191168285, -87.57186637327382)",2013-07-08
Vacant/Abandoned Building,13-00895803,07/08/2013,,,,,,,,2402,E,97TH,ST,60617.0,1193764.74948173,1841150.12021261,7.0,4.0,51.0,41.71905847101735,-87.5658969289197,"(41.71905847101735, -87.5658969289197)",2013-07-08
Vacant/Abandoned Building,13-00888773,07/06/2013,Rear,,Open,BACK DOOR,Vacant,False,True,2117,N,MASON,AVE,60639.0,1136393.23001691,1913329.28837225,29.0,25.0,19.0,41.918341253932006,-87.77431299341761,"(41.918341253932006, -87.77431299341761)",2013-07-06
Vacant/Abandoned Building,13-00891473,07/07/2013,Front,,Open,FRONT AND REAR OPEN,Vacant,False,True,4238,W,IOWA,ST,60651.0,1147852.59992133,1905659.64440144,37.0,11.0,23.0,41.897082278484795,-87.7324073655893,"(41.897082278484795, -87.7324073655893)",2013-07-07
Vacant/Abandoned Building,13-00863074,07/01/2013,Front,,Open,NOT BOARDED... UNKEPT .. CREATING A RODENT PROBLEM,Vacant,False,False,1422,N,LOCKWOOD,AVE,60651.0,1140766.56900929,1908951.00601078,37.0,25.0,25.0,41.90624740587351,-87.75835262951551,"(41.90624740587351, -87.75835262951551)",2013-07-01
Vacant/Abandoned Building,13-00872688,07/02/2013,Front,,Boarded,FRONT,Occupied,False,True,6917,S,DORCHESTER,AVE,60637.0,1186733.51693246,1859370.90990354,5.0,3.0,43.0,41.769227254795844,-87.59107401718725,"(41.769227254795844, -87.59107401718725)",2013-07-02
Vacant/Abandoned Building,13-00858959,07/01/2013,,,,,,,,6836,S,CLAREMONT,AVE,60636.0,1161912.8738831999,1859269.90241434,17.0,8.0,66.0,41.769501855786295,-87.68205768907707,"(41.7695018557863, -87.68205768907708)",2013-07-01
Vacant/Abandoned Building,13-00942614,07/15/2013,Front,,Open,,Vacant,False,True,727,W,RANDOLPH,ST,60661.0,1171262.55019868,1901218.28128688,27.0,12.0,28.0,41.88441276705683,-87.64655682285475,"(41.88441276705683, -87.64655682285475)",2013-07-15
Vacant/Abandoned Building,13-00913538,07/10/2013,Front,,Boarded,ENTIRE PROPERTY -- FRONT AND REAR FILLED WITH WEEDS - 3-4' IN SOME SPOTS,Vacant,False,False,9144,S,LUELLA,AVE,60617.0,1192766.2966148998,1844775.86292461,7.0,4.0,48.0,41.72903222330762,-87.56943602847203,"(41.72903222330762, -87.56943602847201)",2013-07-10
Vacant/Abandoned Building,13-00913564,07/10/2013,Front,,Open,NOT BOARDED -- NOT BEING MAINTAINED - NEEDS TO BE SECURE,Vacant,False,False,9148,S,LUELLA,AVE,60617.0,1192767.0966148998,1844749.06292461,7.0,4.0,48.0,41.728958662109655,-87.56943396919688,"(41.728958662109655, -87.56943396919688)",2013-07-10
Vacant/Abandoned Building,13-00917747,07/11/2013,Front,,Boarded,,Vacant,False,False,4300,S,VERNON,AVE,60653.0,1179990.38012512,1876599.31637219,3.0,2.0,38.0,41.816660614942066,-87.61526346601063,"(41.81666061494207, -87.61526346601063)",2013-07-11
Vacant/Abandoned Building,13-00924414,07/11/2013,Front,,Boarded,NONE,Vacant,False,False,9516,S,BENNETT,AVE,60617.0,1190510.98987427,1842245.33392842,7.0,4.0,51.0,41.72214282375081,-87.57777898875919,"(41.72214282375081, -87.57777898875918)",2013-07-11
Vacant/Abandoned Building,13-00902193,07/09/2013,Front,,Open,YARDS FILLED WITH RODENTS -BECAUSE OF THE TALL WEEDS,Vacant,False,False,4400,S,OAKENWALD,AVE,60653.0,1185209.7122006,1876076.46020238,4.0,2.0,39.0,41.81510458078463,-87.59613440822784,"(41.81510458078463, -87.59613440822785)",2013-07-09
Vacant/Abandoned Building,13-00907142,07/09/2013,Front,,Open,?,Vacant,False,False,5008,S,CHAMPLAIN,AVE,60615.0,1181443.60792848,1871919.99112335,4.0,2.0,38.0,41.80378672324543,-87.61007719197822,"(41.80378672324543, -87.61007719197822)",2013-07-09
Vacant/Abandoned Building,13-00907779,07/09/2013,Front,,Open,FRONT/REAR DOOR,Vacant,True,False,2454,E,74TH,ST,60649.0,1194006.61157601,1856373.6173242,7.0,3.0,43.0,41.76082713075913,-87.56451295118902,"(41.760827130759125, -87.56451295118903)",2013-07-09
Vacant/Abandoned Building,13-00894986,07/08/2013,Front,,Open,DOORS AND WINDOWS,Vacant,False,False,1947,S,AVERS,AVE,60623.0,1151049.92870637,1890058.49236737,24.0,10.0,29.0,41.85420893375261,-87.72107270003107,"(41.85420893375261, -87.72107270003107)",2013-07-08
Vacant/Abandoned Building,13-00894987,07/08/2013,Front,,Open,FRONT,Vacant,False,True,1803,W,21ST,ST,60608.0,1164673.03512417,1890110.89972217,25.0,12.0,31.0,41.85407530395198,-87.67106895012121,"(41.85407530395198, -87.6710689501212)",2013-07-08
Vacant/Abandoned Building,13-00895299,07/08/2013,,,,,,,,149,N,HOMAN,BLVD,60624.0,1153690.18922955,1900886.26999938,28.0,11.0,27.0,41.88386946690073,-87.71109375052738,"(41.88386946690073, -87.71109375052738)",2013-07-08
Vacant/Abandoned Building,13-00895699,07/08/2013,Front,,Open,FRONT DOOR,Vacant,False,True,1906,S,MILLARD,AVE,60623.0,1152345.95597895,1890294.36608833,24.0,10.0,29.0,41.85483074195517,-87.71630950883345,"(41.85483074195517, -87.71630950883346)",2013-07-08
Vacant/Abandoned Building,13-00897460,07/08/2013,,,,,,,,3438,W,12TH,PL,60623.0,1153643.9006936,1894076.72003161,24.0,10.0,29.0,41.86518425758739,-87.71144490075999,"(41.86518425758739, -87.71144490075999)",2013-07-08
Vacant/Abandoned Building,13-00885580,07/05/2013,Garage,,Open,,Vacant,False,False,3320,W,FULTON,BLVD,60624.0,1154170.80150477,1901803.81889836,28.0,11.0,27.0,41.886377736927045,-87.7093043853801,"(41.88637773692705, -87.7093043853801)",2013-07-05
Vacant/Abandoned Building,13-00878168,07/03/2013,Rear,,Open,REAR DOOR,Vacant,False,True,7737,S,SOUTH SHORE,DR,60649.0,1197218.98958565,1854789.66937207,7.0,4.0,43.0,41.7564012809235,-87.55279234743902,"(41.7564012809235, -87.55279234743901)",2013-07-03
Vacant/Abandoned Building,13-00879266,07/03/2013,Front,,Open,REAR,Vacant,False,False,4205,W,WALTON,ST,60651.0,1148175.09251961,1906002.94011076,37.0,11.0,23.0,41.89801811368624,-87.73121403741614,"(41.898018113686234, -87.73121403741612)",2013-07-03
Vacant/Abandoned Building,13-00865226,07/02/2013,Rear,,Open,REAR,Vacant,False,True,723,W,RANDOLPH,ST,60661.0,1171275.85019868,1901218.48128688,27.0,12.0,28.0,41.884413023783715,-87.64650797803971,"(41.884413023783715, -87.6465079780397)",2013-07-02
Vacant/Abandoned Building,13-00871836,07/02/2013,Front,,Boarded,"WINDOWS OPEN, REAR WINDOWS OPEN",Vacant,False,False,420,N,TRUMBULL,AVE,60624.0,1153308.58001952,1902617.06832524,27.0,11.0,23.0,41.88862653733797,-87.71244907902235,"(41.88862653733797, -87.71244907902236)",2013-07-02
Vacant/Abandoned Building,13-00958554,07/16/2013,Front,,Open,,Vacant,False,True,7812,S,LOOMIS,ST,,,,,,,,,,2013-07-16
Vacant/Abandoned Building,13-00961015,07/16/2013,Front,,Open,REAR,Vacant,False,False,2100,E,75TH,ST,60649.0,1191513.63170445,1855651.28910066,5.0,3.0,43.0,41.758905780786705,-87.57367306349859,"(41.7589057807867, -87.57367306349859)",2013-07-16
Vacant/Abandoned Building,13-00935409,07/14/2013,Front,,Open,,Vacant,False,False,1860,S,KILDARE,AVE,60623.0,1147922.59003165,1890585.24846667,24.0,10.0,29.0,41.85571503687952,-87.73253785691637,"(41.85571503687952, -87.73253785691638)",2013-07-14
Vacant/Abandoned Building,13-00939729,07/15/2013,Front,,Open,,Occupied,True,False,4423,S,UNION,AVE,60609.0,1172371.63000789,1875452.18000409,11.0,9.0,61.0,41.81368406850116,-87.6432445042078,"(41.81368406850116, -87.6432445042078)",2013-07-15
Vacant/Abandoned Building,13-00939752,07/15/2013,Front,,Boarded,,Occupied,True,False,4425,S,UNION,AVE,60609.0,1172372.23000789,1875429.68000409,11.0,9.0,61.0,41.813622313069075,-87.64324296614006,"(41.813622313069075, -87.64324296614006)",2013-07-15
Vacant/Abandoned Building,13-00939763,07/15/2013,Front,,Boarded,,Occupied,True,False,4427,S,UNION,AVE,60609.0,1172372.83000789,1875407.18000409,11.0,9.0,61.0,41.81356055763634,-87.64324142807449,"(41.81356055763634, -87.6432414280745)",2013-07-15
Vacant/Abandoned Building,13-00928308,07/12/2013,Front,,Open,,Vacant,False,False,4243,W,FILLMORE,ST,60624.0,1148262.36889507,1895030.65488296,24.0,11.0,29.0,41.8679072470766,-87.73117624941624,"(41.8679072470766, -87.73117624941624)",2013-07-12
Vacant/Abandoned Building,13-00934715,07/13/2013,Front,,Open,"WINDOWS,FRONT/REAR DOOR",Vacant,False,True,6429,S,TALMAN,AVE,60629.0,1159814.89581291,1861895.96021163,15.0,8.0,66.0,41.77675147258004,-87.68967593301159,"(41.77675147258004, -87.6896759330116)",2013-07-13
Vacant/Abandoned Building,13-00924903,07/11/2013,Front,,Open,FRONT & REAR DOORS & GANGWAY GATE,Vacant,False,False,1500,S,KILDARE,AVE,60623.0,1147961.50958143,1892363.00969472,24.0,10.0,29.0,41.860592688706014,-87.73234932768592,"(41.860592688706014, -87.73234932768592)",2013-07-11
Vacant/Abandoned Building,13-00924914,07/11/2013,Front,,Open,FRONT & REAR DOORS,Vacant,False,False,1341,S,KEELER,AVE,60623.0,1148598.4610772,1893433.92463292,24.0,10.0,29.0,41.86351915126978,-87.72998358083755,"(41.86351915126977, -87.72998358083755)",2013-07-11
Vacant/Abandoned Building,13-00926453,07/12/2013,Rear,,Open,,Vacant,False,True,3920,W,GLADYS,AVE,60624.0,1150312.98026691,1898068.15401577,28.0,11.0,26.0,41.87620277252572,-87.72356880175366,"(41.876202772525716, -87.72356880175366)",2013-07-12
Vacant/Abandoned Building,13-00927615,07/12/2013,Rear,,Open,THE BACK,Vacant,False,True,8701,S,MARQUETTE,AVE,60617.0,1195764.12002251,1847807.44998666,7.0,4.0,46.0,41.73727762391817,-87.55835450011568,"(41.73727762391817, -87.55835450011567)",2013-07-12
Vacant/Abandoned Building,13-00927749,07/12/2013,Front,,Boarded,FRONT,Vacant,False,True,6208,S,TALMAN,AVE,60629.0,1159773.85589265,1863387.58640629,15.0,8.0,66.0,41.780845547924116,-87.68978546161526,"(41.78084554792412, -87.68978546161526)",2013-07-12
Vacant/Abandoned Building,13-00908539,07/09/2013,Front,,Open,FRONT,Vacant,False,True,6508,S,CALIFORNIA,AVE,60629.0,1158831.79151447,1861360.61502673,15.0,8.0,66.0,41.77530254376997,-87.69329458677399,"(41.77530254376997, -87.69329458677399)",2013-07-09
Vacant/Abandoned Building,13-00914156,07/10/2013,Front,,Boarded,,Vacant,False,True,851,W,50TH,ST,60609.0,1171474.99387144,1871692.81520541,3.0,9.0,61.0,41.80338769729006,-87.64664359701591,"(41.80338769729006, -87.6466435970159)",2013-07-10
Vacant/Abandoned Building,13-00916752,07/10/2013,Front,,Open,WHOLE BUILDING,Vacant,False,True,5060,W,FULTON,ST,60644.0,1142587.51987279,1901468.71269424,28.0,15.0,25.0,41.885681432027155,-87.75184977980139,"(41.885681432027155, -87.75184977980139)",2013-07-10
Vacant/Abandoned Building,13-00916771,07/10/2013,Front,,Open,FRONT,Vacant,False,False,1533,S,KILDARE,AVE,60623.0,1147968.70958143,1892140.20969472,24.0,10.0,29.0,41.85998115956343,-87.73232862297638,"(41.85998115956343, -87.73232862297638)",2013-07-10
Vacant/Abandoned Building,13-00896518,07/08/2013,Front,,Open,FRONT DOOR,Vacant,False,True,7720,S,COLES,AVE,60649.0,1196796.43113034,1854572.29929177,7.0,4.0,43.0,41.75581531196188,-87.55434811833608,"(41.75581531196188, -87.55434811833608)",2013-07-08
Vacant/Abandoned Building,13-00903339,07/09/2013,Front,,Open,IN THE DOR AND THE WINDOWS,Vacant,False,True,6142,S,FRANCISCO,AVE,60629.0,1158100.44997855,1863777.95019861,15.0,8.0,66.0,41.781950965296566,-87.69590992896154,"(41.78195096529657, -87.69590992896154)",2013-07-09
Vacant/Abandoned Building,13-00892274,07/08/2013,Front,,Open,FRONT & REAR,Vacant,False,False,5718,S,MAPLEWOOD,AVE,60629.0,1160348.49601208,1866663.49253275,16.0,8.0,63.0,41.78982326114495,-87.68758850693207,"(41.789823261144946, -87.68758850693206)",2013-07-08
Vacant/Abandoned Building,13-00895769,07/08/2013,,,,,,,,2919,W,61ST,ST,60629.0,1157888.79320975,1864053.47650623,15.0,8.0,66.0,41.78271135181675,-87.69667844389019,"(41.78271135181675, -87.69667844389019)",2013-07-08
Vacant/Abandoned Building,13-00887689,07/05/2013,Front,,Boarded,FRONT AND REAR,Vacant,False,True,6238,S,MAPLEWOOD,AVE,60629.0,1160443.1005341,1863204.46477808,15.0,8.0,66.0,41.780329266141464,-87.68733690924448,"(41.78032926614146, -87.68733690924448)",2013-07-05
Vacant/Abandoned Building,13-00864501,07/01/2013,Front,,Boarded,"FRONT DOOR,",Vacant,False,True,4510,W,HARRISON,ST,60624.0,1146329.8699003,1896975.58220266,24.0,11.0,26.0,41.873281344132316,-87.73822137690658,"(41.873281344132316, -87.7382213769066)",2013-07-01
Vacant/Abandoned Building,13-00879726,07/03/2013,Front,,Boarded,,Vacant,False,False,7847,S,COLES,AVE,60649.0,1197515.01251479,1853697.24199924,7.0,4.0,43.0,41.75339620856288,-87.55174387818657,"(41.75339620856288, -87.55174387818658)",2013-07-03
Vacant/Abandoned Building,13-00966275,07/17/2013,Front,,Open,,Vacant,False,False,53,W,116TH,ST,60628.0,1177900.52720311,1827700.56598568,34.0,5.0,53.0,41.68252436783799,-87.624407385554,"(41.68252436783799, -87.62440738555398)",2013-07-17
Vacant/Abandoned Building,13-00967884,07/17/2013,Front,,Open,,Vacant,False,False,722,N,PARKSIDE,AVE,60644.0,1138550.5435236,1904232.18567802,29.0,15.0,25.0,41.8933388602459,-87.7666075619257,"(41.8933388602459, -87.7666075619257)",2013-07-17
Vacant/Abandoned Building,13-00938498,07/15/2013,Front,,Open,FRONT DOOR AND BACK DOOR,Vacant,False,False,718,N,PARKSIDE,AVE,60644.0,1138551.1435236,1904203.88567802,29.0,15.0,25.0,41.89326119063374,-87.76660604482004,"(41.893261190633744, -87.76660604482005)",2013-07-15
Vacant/Abandoned Building,13-00934741,07/13/2013,Front,,Open,ALL DOORS AND WINDOWS,Vacant,False,True,5537,W,GLADYS,AVE,60644.0,1139632.34173353,1897795.84643436,29.0,15.0,25.0,41.875657049256894,-87.7627916067882,"(41.875657049256894, -87.7627916067882)",2013-07-13
Vacant/Abandoned Building,13-00926536,07/12/2013,Front,,Open,BOARDS PULLED OFF OF THE FRONT OF THE BLDG.,Vacant,True,True,7919,S,ESSEX,AVE,60617.0,1194231.51139211,1852948.02011668,7.0,4.0,46.0,41.75142150887049,-87.56380100004404,"(41.75142150887049, -87.56380100004405)",2013-07-12
Vacant/Abandoned Building,13-00928006,07/12/2013,Front,,Open,,Vacant,False,False,9332,S,STEWART,AVE,60620.0,1175752.69371598,1843041.47153436,21.0,6.0,49.0,41.7246702585081,-87.63181226503761,"(41.72467025850809, -87.63181226503761)",2013-07-12
Vacant/Abandoned Building,13-00929604,07/12/2013,Front,,Open,FRONT/SIDE AND REAR,Vacant,False,True,5911,W,IOWA,ST,60651.0,1136892.30632991,1905397.91513058,29.0,15.0,25.0,41.89656766416658,-87.77266979081716,"(41.896567664166575, -87.77266979081715)",2013-07-12
Vacant/Abandoned Building,13-00907025,07/09/2013,Front,,Open,,Vacant,False,True,2418,W,MEDILL,AVE,60647.0,1159885.78048957,1915581.73001915,1.0,14.0,22.0,41.92406945993722,-87.68793689341133,"(41.924069459937215, -87.68793689341133)",2013-07-09
Vacant/Abandoned Building,13-00907603,07/09/2013,Front,,Open,WHOLE BUILDING,Vacant,False,True,4460,W,CONGRESS,PKWY,60624.0,1146733.05573356,1897317.62612568,24.0,11.0,26.0,41.87421227327385,-87.73673233989206,"(41.87421227327385, -87.73673233989206)",2013-07-09
Vacant/Abandoned Building,13-00881855,07/04/2013,Front,,Open,FRONT & REAR,Vacant,False,False,6221,S,MICHIGAN,AVE,60637.0,1178252.50287509,1863782.02042204,20.0,3.0,40.0,41.78152844224351,-87.62202742296151,"(41.78152844224351, -87.6220274229615)",2013-07-04
Vacant/Abandoned Building,13-00867086,07/02/2013,Front,,Boarded,,Vacant,False,False,10841,S,LONGWOOD,DR,60643.0,1164970.32192076,1832614.52960947,19.0,22.0,75.0,41.69629136175593,-87.67160162644726,"(41.69629136175593, -87.67160162644727)",2013-07-02
Vacant/Abandoned Building,13-00878537,07/03/2013,,,Open,NO,Vacant,False,False,3031,N,SPAULDING,AVE,60618.0,1153857.5987753,1919975.56098808,35.0,14.0,21.0,41.936248844932535,-87.70996956104065,"(41.93624884493254, -87.70996956104064)",2013-07-03
Vacant/Abandoned Building,13-00878971,07/03/2013,Front,,Boarded,,Vacant,False,False,6830,S,CAMPBELL,AVE,60629.0,1160886.73190383,1859285.82907073,15.0,8.0,66.0,41.76956682171864,-87.68581864331196,"(41.76956682171864, -87.68581864331195)",2013-07-03
Vacant/Abandoned Building,13-00963955,07/17/2013,Front,,Open,,Vacant,False,False,4717,S,BISHOP,ST,60609.0,1167461.84390947,1873465.87236864,20.0,9.0,61.0,41.80834020467741,-87.66131089499146,"(41.808340204677414, -87.66131089499146)",2013-07-17
Vacant/Abandoned Building,13-00965950,07/17/2013,Front,,Open,,Vacant,False,False,1500,N,SPRINGFIELD,AVE,60651.0,1150103.55451981,1909689.65936889,30.0,25.0,23.0,41.908097479527115,-87.72403474005372,"(41.908097479527115, -87.72403474005374)",2013-07-17
Vacant/Abandoned Building,13-00968626,07/17/2013,Front,,Open,,Vacant,False,True,5227,S,CARPENTER,ST,60609.0,1170200.78331295,1870146.21707998,16.0,9.0,61.0,41.799171503845145,-87.65136173319388,"(41.79917150384515, -87.65136173319387)",2013-07-17
Vacant/Abandoned Building,13-00929966,07/12/2013,Front,,Open,FRONT AND REAR,Vacant,False,True,536,N,DRAKE,AVE,60624.0,1152621.14012866,1903402.26742832,27.0,11.0,23.0,41.89079482461953,-87.71495284670831,"(41.89079482461953, -87.71495284670831)",2013-07-12
Vacant/Abandoned Building,13-00930184,07/12/2013,Front,,Open,"REAR DOOR, WINDOWS",Vacant,False,True,4034,W,KAMERLING,AVE,60651.0,1149241.34511344,1908687.26009112,27.0,25.0,23.0,41.9053635591053,-87.72722809850683,"(41.905363559105304, -87.72722809850683)",2013-07-12
Vacant/Abandoned Building,13-00931835,07/12/2013,Front,,Open,,Vacant,False,False,2310,S,HOMAN,AVE,60623.0,1154060.65351715,1888439.73068403,22.0,10.0,30.0,41.84970742185374,-87.71006519697657,"(41.84970742185374, -87.71006519697656)",2013-07-12
Vacant/Abandoned Building,13-00934194,07/13/2013,Front,,Open,BACK DOOR,Vacant,False,True,620,N,LARAMIE,AVE,60644.0,1141584.78322814,1903632.92988354,28.0,15.0,25.0,41.89163889392976,-87.75547855924307,"(41.89163889392976, -87.75547855924307)",2013-07-13
Vacant/Abandoned Building,13-00916789,07/10/2013,Front,,Open,?,Vacant,False,False,1821,S,FAIRFIELD,AVE,60608.0,1158318.21682041,1891036.26523366,28.0,10.0,29.0,41.85674673354528,-87.69436837268127,"(41.85674673354528, -87.69436837268127)",2013-07-10
Vacant/Abandoned Building,13-00895603,07/08/2013,,,,,,,,8350,S,SAGINAW,AVE,60617.0,1195278.08898016,1850450.30963322,7.0,4.0,46.0,41.74454184408067,-87.56004813481434,"(41.74454184408067, -87.56004813481435)",2013-07-08
Vacant/Abandoned Building,13-00896117,07/08/2013,Front,,Open,,Vacant,False,True,1251,N,LAMON,AVE,60651.0,1143469.99809025,1907965.93477207,37.0,25.0,25.0,41.90349410604664,-87.748446455419,"(41.90349410604664, -87.748446455419)",2013-07-08
Vacant/Abandoned Building,13-00899812,07/08/2013,Front,,Open,,Vacant,False,False,2127,W,GLADYS,AVE,60612.0,1162178.41752516,1898413.82968474,2.0,12.0,28.0,41.876911757383134,-87.67999323578918,"(41.876911757383134, -87.67999323578918)",2013-07-08
Vacant/Abandoned Building,13-00890132,07/06/2013,Front,,Open,,Vacant,False,False,1063,W,VERNON PARK,PL,60607.0,1169423.70601094,1897053.30922503,25.0,12.0,28.0,41.87302396396544,-87.6534304107865,"(41.873023963965444, -87.6534304107865)",2013-07-06
Vacant/Abandoned Building,13-00980767,07/18/2013,Front,,Open,,Vacant,True,False,7245,S,CHAMPLAIN,AVE,60619.0,1181818.18268142,1857118.87328173,6.0,3.0,69.0,41.76316243114066,-87.60916062947041,"(41.763162431140664, -87.6091606294704)",2013-07-18
Vacant/Abandoned Building,13-00982170,07/19/2013,Front,,Open,FRONT,Vacant,False,False,9036,S,RACINE,AVE,60620.0,1169909.73329697,1844864.93907613,21.0,22.0,73.0,41.729802790706,-87.65316220004746,"(41.729802790706, -87.65316220004746)",2013-07-19
Vacant/Abandoned Building,13-00969242,07/17/2013,Front,,Open,WINDOWS,Vacant,False,False,7114,S,WINCHESTER,AVE,60636.0,1164585.52397455,1857490.46016883,17.0,7.0,67.0,41.764562869089715,-87.67231105384197,"(41.764562869089715, -87.67231105384197)",2013-07-17
Vacant/Abandoned Building,13-00971381,07/17/2013,Front,,Open,WHOLE BUILDING,Vacant,False,True,4059,W,KINZIE,ST,60624.0,1149258.34007486,1902272.90683244,28.0,11.0,26.0,41.887761576573865,-87.72733209622659,"(41.887761576573865, -87.72733209622659)",2013-07-17
Vacant/Abandoned Building,13-00974189,07/18/2013,Front,,Open,,Vacant,False,False,1429,S,KARLOV,AVE,60623.0,1149282.09226764,1892866.44180307,24.0,10.0,29.0,41.86194869863138,-87.7274886961769,"(41.86194869863138, -87.7274886961769)",2013-07-18
Vacant/Abandoned Building,13-00974296,07/18/2013,Front,,Open,REAR,Vacant,False,True,10619,S,WABASH,AVE,60628.0,1178456.12958411,1834544.69183225,9.0,5.0,49.0,41.7012930728561,-87.62216671429302,"(41.7012930728561, -87.62216671429303)",2013-07-18
Vacant/Abandoned Building,13-00962065,07/16/2013,Front,,Open,FRONT AND BACK,Vacant,False,True,1401,W,73RD,ST,60636.0,1168250.97312272,1856346.30829985,17.0,7.0,67.0,41.76134508276032,-87.65890906873295,"(41.761345082760315, -87.65890906873295)",2013-07-16
Vacant/Abandoned Building,13-00962482,07/16/2013,Front,,Open,FRONT,Vacant,False,True,2121,W,71ST,PL,60636.0,1163482.4299667,1857228.28997934,17.0,7.0,67.0,41.76386662836161,-87.67636154197716,"(41.763866628361605, -87.67636154197716)",2013-07-16
Vacant/Abandoned Building,13-00965239,07/17/2013,,,,,,,,7000,S,WINCHESTER,AVE,60636.0,1164564.52231894,1858246.29287766,17.0,7.0,67.0,41.766637421021095,-87.67236674258085,"(41.76663742102109, -87.67236674258086)",2013-07-17
Vacant/Abandoned Building,13-00968005,07/17/2013,,,,,,,,2815,N,SPRINGFIELD,AVE,60618.0,1149902.5101256,1918434.42781053,30.0,25.0,21.0,41.93209784054316,-87.72454523092335,"(41.93209784054316, -87.72454523092334)",2013-07-17
Vacant/Abandoned Building,13-00947509,07/16/2013,Front,,Open,,Vacant,False,True,3020,N,MENARD,AVE,60634.0,1137188.23120715,1919488.99420537,30.0,25.0,19.0,41.93522991389576,-87.77124369731995,"(41.93522991389576, -87.77124369731995)",2013-07-16
Vacant/Abandoned Building,13-00957827,07/16/2013,Front,,Open,,Vacant,True,True,7043,S,JUSTINE,ST,60636.0,1167222.34407634,1858018.57316862,17.0,7.0,67.0,41.765956068889366,-87.66263129469853,"(41.76595606888937, -87.66263129469851)",2013-07-16
Vacant/Abandoned Building,13-00957912,07/16/2013,Front,,Open,FRONT AND BACK,Vacant,True,True,7021,S,JUSTINE,ST,60636.0,1167218.14407634,1858166.07316862,17.0,7.0,67.0,41.766360918236316,-87.66264247354988,"(41.76636091823631, -87.66264247354987)",2013-07-16
Vacant/Abandoned Building,13-00957935,07/16/2013,Front,,Open,FRONT AND BACK,Vacant,True,True,7023,S,JUSTINE,ST,60636.0,1167218.54407634,1858152.67316862,17.0,7.0,67.0,41.76632413830901,-87.6626413903833,"(41.76632413830901, -87.66264139038329)",2013-07-16
Vacant/Abandoned Building,13-00932429,07/12/2013,Front,,Open,,Vacant,False,False,2323,N,LATROBE,AVE,60639.0,1141003.95260515,1914944.43529245,37.0,25.0,19.0,41.92268966803002,-87.75733275704692,"(41.922689668030024, -87.75733275704694)",2013-07-12
Vacant/Abandoned Building,13-00916591,07/10/2013,Front,,Open,FRONT,Vacant,True,False,6335,S,ELIZABETH,ST,60636.0,1169071.82267556,1862768.16681711,16.0,7.0,67.0,41.77894977406279,-87.65571515007507,"(41.77894977406279, -87.65571515007508)",2013-07-10
Vacant/Abandoned Building,13-00896713,07/08/2013,Front,,Open,GETTING IN THROUGH SIDE OF BUILDING,Vacant,False,True,1954,W,51ST,ST,60609.0,1164106.24408815,1870852.8821131,16.0,9.0,61.0,41.801241189581326,-87.67369202076021,"(41.801241189581326, -87.67369202076021)",2013-07-08
Vacant/Abandoned Building,13-00886606,07/05/2013,Front,,Open,"FRONT/REAR DOORS, WINDOWS",Vacant,False,True,8549,S,CARPENTER,ST,60620.0,1170808.90477382,1848123.8429985,21.0,6.0,71.0,41.73872613429917,-87.64977346248358,"(41.73872613429917, -87.64977346248358)",2013-07-05
Vacant/Abandoned Building,13-00888729,07/06/2013,Front,,Open,FRONT DOOR,Vacant,False,False,10549,S,WABASH,AVE,60628.0,1178442.39507517,1835007.26557248,9.0,5.0,49.0,41.70256275091053,-87.62220301914994,"(41.70256275091053, -87.62220301914994)",2013-07-06
Vacant/Abandoned Building,13-00889404,07/06/2013,Front,,Open,FRONT DOOR,Vacant,False,True,4359,W,ADAMS,ST,60624.0,1147361.51041243,1898655.64048188,28.0,11.0,26.0,41.87787193195037,-87.73439063672537,"(41.877871931950374, -87.73439063672537)",2013-07-06
Vacant/Abandoned Building,13-00889490,07/06/2013,Front,,Open,FRONT DOOR,Vacant,False,True,6225,S,MICHIGAN,AVE,60637.0,1178253.40287509,1863754.12042204,20.0,3.0,40.0,41.78145186139038,-87.62202496951815,"(41.78145186139038, -87.62202496951814)",2013-07-06
Vacant/Abandoned Building,13-00890827,07/07/2013,Rear,,Open,REAR,Vacant,False,True,419,W,79TH,PL,60620.0,1174835.90111553,1852191.23528109,17.0,6.0,44.0,41.74979885346251,-87.63489846570906,"(41.74979885346251, -87.63489846570907)",2013-07-07
Vacant/Abandoned Building,13-00878713,07/03/2013,Front,,Open,WINDOWS AND REAR DOOR,Vacant,False,True,16,S,SEELEY,AVE,60612.0,1162746.78222225,1899947.37236644,2.0,12.0,28.0,41.88110803982203,-87.67786337059574,"(41.88110803982203, -87.67786337059574)",2013-07-03
Vacant/Abandoned Building,13-00881394,07/04/2013,Front,,Open,REAR DOOR,Vacant,False,True,4356,W,ARMITAGE,AVE,60639.0,1146943.52013171,1912930.99680253,30.0,25.0,20.0,41.917053044657024,-87.73556020099922,"(41.917053044657024, -87.73556020099922)",2013-07-04
Vacant/Abandoned Building,13-00885126,07/05/2013,Rear,,Open,REAR,Vacant,False,False,1214,W,73RD,ST,60636.0,1169447.389925,1856379.227175,17.0,7.0,67.0,41.76140959257175,-87.65452315006986,"(41.76140959257175, -87.65452315006986)",2013-07-05
Vacant/Abandoned Building,13-00885148,07/05/2013,Rear,,Open,REAR,Vacant,False,False,1216,W,73RD,ST,60636.0,1169427.789925,1856378.727175,17.0,7.0,67.0,41.76140864490926,-87.6545950002058,"(41.76140864490926, -87.6545950002058)",2013-07-05
Vacant/Abandoned Building,13-00859057,07/01/2013,,,,,,,,33,E,122ND,ST,60628.0,1178644.14618285,1824077.3692814999,9.0,5.0,53.0,41.67256494611137,-87.62179483513262,"(41.67256494611137, -87.62179483513263)",2013-07-01
Vacant/Abandoned Building,13-00861874,07/01/2013,Front,,Open,ALL DOORS AND WINDOWS,Vacant,False,True,1222,W,71ST,PL,60636.0,1169361.32558311,1857371.38987497,17.0,7.0,67.0,41.764134078498785,-87.65480989955451,"(41.76413407849878, -87.6548098995545)",2013-07-01
Vacant/Abandoned Building,13-00866323,07/02/2013,Rear,,Boarded,,Vacant,False,False,4318,W,ADAMS,ST,60624.0,1147637.74728207,1898661.74747428,28.0,11.0,26.0,41.87788339591826,-87.73337619650799,"(41.87788339591826, -87.73337619650798)",2013-07-02
Vacant/Abandoned Building,13-00858628,07/01/2013,Front,,Open,BACK YARD TREE HAS FALLEN OVER ONTO THE CALLERS PROPERTY,Vacant,False,False,2024,W,71ST,ST,60636.0,1163995.45000238,1857572.57002704,17.0,7.0,67.0,41.76480061322651,-87.67447153460053,"(41.764800613226505, -87.67447153460051)",2013-07-01
Vacant/Abandoned Building,13-00858782,07/01/2013,,,,,,,,2828,W,WILCOX,ST,60612.0,1157558.24660457,1899229.68809354,2.0,11.0,27.0,41.87924580756126,-87.69693492897598,"(41.87924580756126, -87.69693492897599)",2013-07-01
Vacant/Abandoned Building,13-00858912,07/01/2013,,,,,,,,2824,W,ARTHINGTON,ST,60612.0,1157675.24333022,1895914.88288399,2.0,11.0,27.0,41.87014727382753,-87.69659562798503,"(41.87014727382753, -87.69659562798505)",2013-07-01
Vacant/Abandoned Building,13-00986678,07/19/2013,Front,,Open,REAR,Vacant,False,False,8213,S,KINGSTON,AVE,60617.0,1194603.30161214,1851007.98177619,7.0,4.0,46.0,41.746088755521534,-87.56250228545186,"(41.74608875552153, -87.56250228545184)",2013-07-19
Vacant/Abandoned Building,13-00965366,07/17/2013,,,,,,,,1239,S,AVERS,AVE,60623.0,1150905.70002535,1894172.22042337,24.0,10.0,29.0,41.865500313005775,-87.72149448107383,"(41.865500313005775, -87.72149448107383)",2013-07-17
Vacant/Abandoned Building,13-00967050,07/17/2013,,,,,,,,5125,W,WASHINGTON,BLVD,60644.0,1142113.59500478,1900020.55761552,28.0,15.0,25.0,41.88171631498048,-87.75362607332504,"(41.88171631498048, -87.75362607332505)",2013-07-17
Vacant/Abandoned Building,13-00973217,07/18/2013,Rear,,Open,REAR,Vacant,False,True,651,N,SPAULDING,AVE,60624.0,1154260.06330523,1904149.50943406,27.0,11.0,23.0,41.89281275993924,-87.70891390921263,"(41.89281275993924, -87.70891390921263)",2013-07-18
Vacant/Abandoned Building,13-00961638,07/16/2013,Front,,Open,FRONT,Vacant,False,False,5229,W,GLADYS,AVE,60644.0,1141573.52303335,1897840.69370821,29.0,15.0,25.0,41.8757444859014,-87.7556631060313,"(41.8757444859014, -87.7556631060313)",2013-07-16
Vacant/Abandoned Building,13-00903153,07/09/2013,Front,,Open,,Vacant,False,True,7338,S,MAY,ST,60621.0,1169922.76261758,1856137.80437908,17.0,7.0,68.0,41.76073679021111,-87.65278786912535,"(41.76073679021112, -87.65278786912535)",2013-07-09
Vacant/Abandoned Building,13-00889919,07/06/2013,Front,,Open,SIDE WINDOW,Vacant,False,True,4811,S,WABASH,AVE,60615.0,1177527.84301724,1873145.56541658,3.0,2.0,38.0,41.807239332248564,-87.62440107888521,"(41.807239332248564, -87.6244010788852)",2013-07-06
Vacant/Abandoned Building,13-00890253,07/06/2013,Front,,Open,ALL DOORS AND WINDOWS UNSECURED,Vacant,False,True,55,W,116TH,ST,60628.0,1177890.52720311,1827700.36598568,34.0,5.0,53.0,41.682524044806186,-87.62444399740136,"(41.68252404480619, -87.62444399740134)",2013-07-06
Vacant/Abandoned Building,13-00879978,07/03/2013,Front,,Open,,Vacant,False,True,4926,S,ST LAWRENCE,AVE,60615.0,1181089.23676821,1872484.60037059,4.0,2.0,38.0,41.805344233743746,-87.61135944206629,"(41.805344233743746, -87.61135944206629)",2013-07-03
Vacant/Abandoned Building,13-00873222,07/02/2013,Front,,Open,ALL DOORS AND WINDOWS UNSECURED,Vacant,False,True,11357,S,ABERDEEN,ST,60643.0,1171027.55597616,1829385.08671978,34.0,22.0,75.0,41.68729940916339,-87.64951761472119,"(41.687299409163394, -87.64951761472119)",2013-07-02
Vacant/Abandoned Building,13-01001711,07/22/2013,Front,,Open,,Vacant,False,True,11925,S,PRINCETON,AVE,60628.0,1176427.6447023998,1825852.68808131,34.0,5.0,53.0,41.67748663731078,-87.6298542279351,"(41.67748663731078, -87.62985422793511)",2013-07-22
Vacant/Abandoned Building,13-00989971,07/20/2013,Front,,Open,DOORS,Vacant,False,False,4215,S,CAMPBELL,AVE,60632.0,1160392.06273027,1876645.21982813,12.0,9.0,58.0,41.817213497862056,-87.68715360000412,"(41.817213497862056, -87.68715360000412)",2013-07-20
Vacant/Abandoned Building,13-00991685,07/20/2013,Front,,Open,REAR DOOR,Vacant,True,False,731,W,RANDOLPH,SD,60661.0,1171194.1900072999,1901173.99996767,27.0,12.0,28.0,41.88429275713339,-87.64680914920376,"(41.88429275713339, -87.64680914920376)",2013-07-20
Vacant/Abandoned Building,13-00998932,07/22/2013,Front,,Open,FRONT AND BACK,Vacant,False,True,311,N,PARKSIDE,AVE,60644.0,1138539.77148423,1901506.69898947,29.0,15.0,25.0,41.885859974432066,-87.76671322297119,"(41.88585997443206, -87.76671322297119)",2013-07-22
Vacant/Abandoned Building,13-00977012,07/18/2013,Front,,Open,FRONT,Vacant,True,False,2459,S,CENTRAL PARK,AVE,60623.0,1152760.79388428,1887426.55316637,22.0,10.0,30.0,41.84695292998328,-87.71486267545124,"(41.846952929983274, -87.71486267545123)",2013-07-18
Vacant/Abandoned Building,13-00975024,07/18/2013,Front,,Open,FRONT AND REAR,Vacant,False,True,3532,S,GILES,AVE,60653.0,1178842.70828354,1881621.83250516,2.0,2.0,35.0,41.830469038585385,-87.6193202526383,"(41.830469038585385, -87.61932025263829)",2013-07-18
Vacant/Abandoned Building,13-00943916,07/15/2013,Front,,Open,THE FRONT DOOR,Vacant,False,True,2744,S,SPAULDING,AVE,60623.0,1154808.33530737,1885581.4311916,22.0,10.0,30.0,41.84184898622213,-87.70739754350771,"(41.84184898622213, -87.70739754350772)",2013-07-15
Vacant/Abandoned Building,13-00945171,07/15/2013,Rear,,Open,REAR 2ND FLOOR IS OPEN,Vacant,False,True,5742,S,EMERALD,AVE,60621.0,1172282.71902449,1866789.71830265,20.0,7.0,68.0,41.78991532997797,-87.64382552387693,"(41.78991532997797, -87.64382552387693)",2013-07-15
Vacant/Abandoned Building,13-00945814,07/16/2013,Front,,Boarded,,Vacant,False,True,4300,S,VERNON,AVE,60653.0,1179990.38012512,1876599.31637219,3.0,2.0,38.0,41.816660614942066,-87.61526346601063,"(41.81666061494207, -87.61526346601063)",2013-07-16
Vacant/Abandoned Building,13-00958278,07/16/2013,Garage,,Open,GARAGE DOOR BUSTED OPEN,Vacant,False,True,4609,W,JACKSON,BLVD,60644.0,1145647.53989784,1898289.95472334,24.0,11.0,25.0,41.8769010959184,-87.74069325212184,"(41.8769010959184, -87.74069325212184)",2013-07-16
Vacant/Abandoned Building,13-00930295,07/12/2013,Front,,Open,,Vacant,False,True,6348,S,WOLCOTT,AVE,60636.0,1164775.08059888,1862563.67731751,15.0,7.0,67.0,41.77848045954645,-87.67147317828987,"(41.778480459546444, -87.67147317828987)",2013-07-12
Vacant/Abandoned Building,13-00932123,07/12/2013,Garage,,Open,,Vacant,False,False,6147,S,LANGLEY,AVE,60637.0,1181949.51349014,1864402.38642617,20.0,3.0,42.0,41.783146063379,-87.60845427733723,"(41.783146063379, -87.60845427733723)",2013-07-12
Vacant/Abandoned Building,13-00932396,07/12/2013,Front,,Open,FRONT,Vacant,False,False,11811,S,WALLACE,ST,60628.0,1174431.04702418,1826569.70232956,34.0,5.0,53.0,41.67949873964793,-87.63714117873273,"(41.679498739647926, -87.63714117873273)",2013-07-12
Vacant/Abandoned Building,13-00933485,07/13/2013,Front,,Open,FRONT,Vacant,False,True,8801,S,PARNELL,AVE,60620.0,1174174.88721023,1846549.02800901,21.0,22.0,71.0,41.73433060678018,-87.63748787653486,"(41.73433060678019, -87.63748787653486)",2013-07-13
Vacant/Abandoned Building,13-00933842,07/13/2013,Front,,Open,,Vacant,False,False,6210,S,INGLESIDE,AVE,60637.0,1183517.52001423,1863963.40999096,20.0,3.0,42.0,41.78190505549187,-87.60271919595161,"(41.78190505549187, -87.60271919595161)",2013-07-13
Vacant/Abandoned Building,13-00934084,07/13/2013,Front,,Open,FRONT AND REAR,Vacant,False,True,7140,S,HARVARD,AVE,60621.0,1175194.1700321,1857602.19018272,6.0,7.0,69.0,41.76463917288537,-87.63342430605358,"(41.76463917288537, -87.63342430605358)",2013-07-13
Vacant/Abandoned Building,13-00934095,07/13/2013,Front,,Open,FRONT,Vacant,False,True,7134,S,HARVARD,AVE,60621.0,1175193.1700321,1857642.49018272,6.0,7.0,69.0,41.76474978308824,-87.633426769402,"(41.76474978308824, -87.633426769402)",2013-07-13
Vacant/Abandoned Building,13-00934329,07/13/2013,Front,,Open,,Vacant,False,False,11927,S,PRINCETON,AVE,60628.0,1176428.0447023998,1825839.28808131,34.0,5.0,53.0,41.67744985666276,-87.62985316426908,"(41.67744985666276, -87.62985316426908)",2013-07-13
Vacant/Abandoned Building,13-00934746,07/13/2013,Front,,Open,REAR DOOR,Vacant,False,True,1054,N,LEAMINGTON,AVE,60651.0,1141835.152304,1906533.99020084,37.0,15.0,25.0,41.899595115394156,-87.75448717479898,"(41.89959511539416, -87.75448717479898)",2013-07-13
Vacant/Abandoned Building,13-00934783,07/13/2013,Front,,Open,,Vacant,False,True,1434,N,KEDVALE,AVE,60651.0,1148452.81382065,1909335.17457367,37.0,25.0,23.0,41.90715675408389,-87.7301079214894,"(41.907156754083886, -87.7301079214894)",2013-07-13
Vacant/Abandoned Building,13-00935637,07/14/2013,Rear,,Open,REAR,Vacant,False,True,6040,S,SANGAMON,ST,60621.0,1171009.78928181,1864775.58770118,16.0,7.0,68.0,41.78441624554245,-87.64855179956173,"(41.784416245542445, -87.64855179956174)",2013-07-14
Vacant/Abandoned Building,13-00937316,07/15/2013,Rear,,Open,REAR,Vacant,False,False,7131,S,DAMEN,AVE,60636.0,1164257.08723398,1857368.3560047,17.0,7.0,67.0,41.764234718130375,-87.67351829912016,"(41.764234718130375, -87.67351829912015)",2013-07-15
Vacant/Abandoned Building,13-00939905,07/15/2013,Front,,Open,,Vacant,False,True,119,W,116TH,ST,60628.0,1177459.17860954,1827689.53417879,34.0,5.0,53.0,41.682504049370095,-87.62602331035464,"(41.68250404937009, -87.62602331035463)",2013-07-15
Vacant/Abandoned Building,13-00940869,07/15/2013,Front,,Open,,Vacant,True,False,1059,W,104TH,ST,60643.0,1171092.88298776,1835850.41722621,34.0,22.0,73.0,41.705039874067545,-87.64909043257887,"(41.705039874067545, -87.64909043257886)",2013-07-15
Vacant/Abandoned Building,13-00942736,07/15/2013,Front,,Open,2ND FLOOR,Vacant,False,False,4308,W,POTOMAC,AVE,60651.0,1147418.90262225,1908308.45311218,37.0,25.0,23.0,41.904359213701504,-87.73393231360168,"(41.904359213701504, -87.73393231360168)",2013-07-15
Vacant/Abandoned Building,13-00943118,07/15/2013,Rear,,Open,,Vacant,False,True,10844,S,STATE,ST,60628.0,1178178.78996633,1832965.82001666,34.0,5.0,49.0,41.6969667054345,-87.62322989967606,"(41.6969667054345, -87.62322989967606)",2013-07-15
Vacant/Abandoned Building,13-00919136,07/11/2013,Front,,Open,OPEN DOOR,Vacant,False,False,5900,S,STATE,ST,60621.0,1177284.26121793,1865899.99312228,20.0,2.0,40.0,41.787362299087036,-87.6255132760561,"(41.78736229908703, -87.6255132760561)",2013-07-11
Vacant/Abandoned Building,13-00923914,07/11/2013,Front,,Open,FRONT,Vacant,False,False,6341,S,MAY,ST,60621.0,1169739.58197565,1862746.09402374,16.0,7.0,68.0,41.77887473818189,-87.65326772861393,"(41.77887473818189, -87.65326772861393)",2013-07-11
Vacant/Abandoned Building,13-00929289,07/12/2013,Rear,,Open,,Vacant,False,False,6241,S,MAY,ST,60621.0,1169721.26163072,1863408.38762871,16.0,7.0,68.0,41.78069254903982,-87.65331569159983,"(41.78069254903982, -87.65331569159983)",2013-07-12
Vacant/Abandoned Building,13-00905890,07/09/2013,Front,,Open,FRONT DOOR/WINDOW,Vacant,False,False,11579,S,LA SALLE,ST,60628.0,1177342.07860954,1827891.13417879,34.0,5.0,53.0,41.68305990757483,-87.6264459095603,"(41.68305990757483, -87.6264459095603)",2013-07-09
Vacant/Abandoned Building,13-00906156,07/09/2013,Front,,Open,,Vacant,False,True,11156,S,ASHLAND,AVE,60643.0,1167409.9451952,1830600.53249619,34.0,22.0,75.0,41.690712836074745,-87.66272661378801,"(41.69071283607475, -87.66272661378801)",2013-07-09
Vacant/Abandoned Building,13-00909635,07/10/2013,,,,,,,,6150,S,UNIVERSITY,AVE,60637.0,1184822.58987141,1864792.41230417,20.0,3.0,42.0,41.784149380302665,-87.59790854254099,"(41.784149380302665, -87.59790854254098)",2013-07-10
Vacant/Abandoned Building,13-00915967,07/10/2013,Front,,Boarded,,Vacant,True,False,1419,N,LECLAIRE,AVE,60651.0,1142110.45989956,1908961.65038386,37.0,25.0,25.0,41.90625179006256,-87.7534156783707,"(41.906251790062555, -87.75341567837071)",2013-07-10
Vacant/Abandoned Building,13-00895265,07/08/2013,,,,,,,,200,W,107TH,PL,60628.0,1176852.99001532,1833660.2900224,34.0,5.0,49.0,41.698902324425454,-87.62806336612628,"(41.698902324425454, -87.62806336612628)",2013-07-08
Vacant/Abandoned Building,13-00895644,07/08/2013,,,,,,,,1435,N,SPRINGFIELD,AVE,60651.0,1150116.69858311,1909266.49759667,30.0,25.0,23.0,41.90693602628638,-87.7239974977148,"(41.90693602628638, -87.72399749771482)",2013-07-08
Vacant/Abandoned Building,13-00898037,07/08/2013,Front,,Open,ALL AROUND,Vacant,False,False,908,W,71ST,ST,60621.0,1171446.77537646,1857762.00093369,17.0,7.0,68.0,41.76516056711675,-87.6471548117677,"(41.76516056711675, -87.64715481176772)",2013-07-08
Vacant/Abandoned Building,13-00881775,07/04/2013,Rear,,Open,BACK DOOR AND FRONT DOOR OPEN,Vacant,False,True,655,W,116TH,ST,60628.0,1173915.15767411,1828219.28583354,34.0,5.0,53.0,41.684036882603785,-87.6389808881467,"(41.68403688260378, -87.6389808881467)",2013-07-04
Vacant/Abandoned Building,13-00887182,07/05/2013,Front,,Open,FRONT/REAR DOORS. WINDOWS,Vacant,False,False,11826,S,STEWART,AVE,60628.0,1175751.61419319,1826492.87447509,34.0,5.0,53.0,41.67925852873549,-87.63230963883059,"(41.67925852873549, -87.63230963883059)",2013-07-05
Vacant/Abandoned Building,13-00875673,07/03/2013,Front,,Open,FRONT AND REAR,Vacant,False,True,2735,W,35TH,PL,60632.0,1158707.05167585,1881004.41873069,12.0,9.0,58.0,41.82921027449834,-87.69321557754493,"(41.829210274498344, -87.69321557754493)",2013-07-03
Vacant/Abandoned Building,13-00880602,07/03/2013,Front,,Open,,Vacant,False,True,1624,N,HAMLIN,AVE,60647.0,1150799.45012136,1910526.74730896,30.0,25.0,23.0,41.91038093546602,-87.72145642286614,"(41.91038093546602, -87.72145642286614)",2013-07-03
Vacant/Abandoned Building,13-00858981,07/01/2013,Front,,Open,IN THE BACK,Vacant,False,True,4335,W,POTOMAC,AVE,60651.0,1147236.50262225,1908303.55311218,37.0,25.0,23.0,41.90434926299885,-87.73460245035201,"(41.90434926299885, -87.73460245035201)",2013-07-01
Vacant/Abandoned Building,13-00859402,07/01/2013,,,,,,,,751,W,30TH,ST,60616.0,1171692.56402708,1884992.24560981,11.0,9.0,60.0,41.83987783570755,-87.6454551712237,"(41.839877835707554, -87.6454551712237)",2013-07-01
Vacant/Abandoned Building,13-00861295,07/01/2013,Front,,Open,,Vacant,False,True,1644,W,PRYOR,AVE,60643.0,1167326.8451952,1830664.63249619,34.0,22.0,75.0,41.690890512158326,-87.66302902309799,"(41.69089051215833, -87.66302902309799)",2013-07-01
Vacant/Abandoned Building,13-01009798,07/23/2013,Front,,Open,,Vacant,False,False,2951,W,ADAMS,ST,60612.0,1156743.65447606,1898878.35690782,28.0,11.0,27.0,41.87829825636054,-87.69993550443081,"(41.87829825636054, -87.69993550443081)",2013-07-23
Vacant/Abandoned Building,13-01009940,07/23/2013,Front,,Open,,Vacant,False,False,3134,W,DOUGLAS,BLVD,60623.0,1155583.57999998,1893286.55962827,24.0,10.0,29.0,41.862977193756144,-87.70434550482531,"(41.862977193756144, -87.7043455048253)",2013-07-23
Vacant/Abandoned Building,13-00999172,07/22/2013,Front,,Open,WINDOWS,Vacant,False,False,10858,S,FAIRFIELD,AVE,60655.0,1159971.32632125,1832509.7228160999,19.0,22.0,75.0,41.696107688904256,-87.68990785885973,"(41.69610768890426, -87.68990785885974)",2013-07-22
Vacant/Abandoned Building,13-01001712,07/22/2013,Front,,Open,,Vacant,False,True,5227,W,GLADYS,AVE,60644.0,1141587.92303335,1897841.09370821,29.0,15.0,25.0,41.87574531758948,-87.75561022393049,"(41.87574531758948, -87.75561022393049)",2013-07-22
Vacant/Abandoned Building,13-00929281,07/12/2013,Front,,Open,,Vacant,False,False,3364,S,CALUMET,AVE,60616.0,1179146.78407497,1882737.12562893,2.0,2.0,35.0,41.83352254553167,-87.61817053343408,"(41.83352254553167, -87.6181705334341)",2013-07-12
Vacant/Abandoned Building,13-00924531,07/11/2013,Front,,Open,FRONT AND REAR,Vacant,False,True,12022,S,PRINCETON,AVE,60628.0,1176446.54179659,1825210.3729833001,34.0,5.0,53.0,41.67572360103729,-87.62980425525734,"(41.67572360103729, -87.62980425525734)",2013-07-11
Vacant/Abandoned Building,13-00924902,07/11/2013,Front,,Boarded,REAR,Vacant,False,True,12151,S,EGGLESTON,AVE,60628.0,1175487.84912346,1824316.20319282,34.0,5.0,53.0,41.67329128331773,-87.6333398525098,"(41.67329128331773, -87.6333398525098)",2013-07-11
Vacant/Abandoned Building,13-00879019,07/03/2013,Front,,Open,,Vacant,False,False,11022,S,LOWE,AVE,60628.0,1173939.40060702,1831783.12192698,34.0,22.0,49.0,41.69381606664006,-87.63878695670608,"(41.69381606664006, -87.6387869567061)",2013-07-03
Vacant/Abandoned Building,13-00880516,07/03/2013,Front,,Boarded,NONE,Vacant,False,False,11727,S,LOWE,AVE,60628.0,1174056.33307755,1827144.89896779,34.0,5.0,53.0,41.681085471452725,-87.6384958099097,"(41.681085471452725, -87.6384958099097)",2013-07-03
Vacant/Abandoned Building,13-00872776,07/02/2013,Front,,Open,,Vacant,False,True,11335,S,LOWE,AVE,60628.0,1174003.20987848,1829708.76397043,34.0,22.0,49.0,41.688122296118415,-87.63861458719252,"(41.688122296118415, -87.63861458719252)",2013-07-02
Vacant/Abandoned Building,13-00858853,07/01/2013,,,,,,,,11115,S,ALBANY,AVE,60655.0,1157672.94001796,1830652.45999311,19.0,22.0,74.0,41.69105782156589,-87.69837331296452,"(41.69105782156589, -87.69837331296452)",2013-07-01
Vacant/Abandoned Building,13-00858909,07/01/2013,,,,,,,,906,W,MONROE,ST,60607.0,1170363.82379101,1899765.52542253,2.0,12.0,28.0,41.88044599377546,-87.64989952185555,"(41.88044599377546, -87.64989952185555)",2013-07-01
Vacant/Abandoned Building,13-01022717,07/25/2013,Front,,Open,,Vacant,False,True,2208,N,LAVERGNE,AVE,60639.0,1142697.05311444,1914219.64847612,31.0,25.0,19.0,41.92066940174341,-87.7511297599239,"(41.92066940174341, -87.7511297599239)",2013-07-25
Vacant/Abandoned Building,13-01022723,07/25/2013,Front,,Open,,Vacant,False,True,3126,W,DOUGLAS,BLVD,60623.0,1155649.27999998,1893288.35962827,24.0,10.0,29.0,41.862980812032816,-87.70410427719416,"(41.862980812032816, -87.70410427719416)",2013-07-25
Vacant/Abandoned Building,13-01015501,07/24/2013,Front,,Open,,Vacant,False,True,8623,S,MARYLAND,AVE,60619.0,1183400.59198309,1847983.57338899,8.0,6.0,44.0,41.73805750726203,-87.60364482609897,"(41.73805750726202, -87.60364482609899)",2013-07-24
Vacant/Abandoned Building,13-01001144,07/22/2013,,,,,,,,4111,W,NORTH,AVE,60639.0,1148664.76928954,1910316.46908028,30.0,25.0,23.0,41.90984543091121,-87.72930392642141,"(41.90984543091121, -87.7293039264214)",2013-07-22
Vacant/Abandoned Building,13-01001434,07/22/2013,Front,,Open,FRONT,Vacant,False,False,2233,N,KARLOV,AVE,60639.0,1148683.32401659,1914529.06423309,31.0,25.0,20.0,41.92140483753373,-87.72912673941816,"(41.92140483753373, -87.72912673941815)",2013-07-22
Vacant/Abandoned Building,13-01004002,07/23/2013,Front,,Open,REAR DOOR,Vacant,False,False,901,N,KEELER,AVE,60651.0,1148217.31469633,1905684.56671348,37.0,11.0,23.0,41.89714365023588,-87.73106716665589,"(41.89714365023588, -87.73106716665588)",2013-07-23
Vacant/Abandoned Building,13-00989696,07/20/2013,Rear,,Open,REAR,Vacant,True,False,8625,S,RACINE,AVE,60620.0,1169829.11861419,1847594.5130176998,21.0,6.0,71.0,41.73729487817169,-87.65337851953264,"(41.73729487817169, -87.65337851953264)",2013-07-20
Vacant/Abandoned Building,13-00993717,07/21/2013,Rear,,Open,REAR HOME AND GARAGE,Vacant,False,True,3801,W,GRAND,AVE,60651.0,1150800.5327715,1908281.12588562,27.0,25.0,23.0,41.90421871351303,-87.72151128683981,"(41.904218713513025, -87.72151128683981)",2013-07-21
Vacant/Abandoned Building,13-00995551,07/22/2013,Front,,Open,ALL AROUND,Vacant,False,False,2255,N,LOREL,AVE,60639.0,1140348.31728078,1914477.85546826,37.0,25.0,19.0,41.92142138211645,-87.75975327341541,"(41.92142138211645, -87.7597532734154)",2013-07-22
Vacant/Abandoned Building,13-00961506,07/16/2013,,,,,,,,117,W,110TH,PL,60628.0,1177378.05012053,1831680.8564861,34.0,5.0,49.0,41.69345865792849,-87.62620035523119,"(41.693458657928495, -87.62620035523118)",2013-07-16
Vacant/Abandoned Building,13-00963933,07/17/2013,Front,,Open,,Vacant,False,False,8951,S,PARNELL,AVE,60620.0,1174202.45586823,1845584.02508013,21.0,22.0,71.0,41.73168189823637,-87.63741546286091,"(41.73168189823637, -87.63741546286091)",2013-07-17
Vacant/Abandoned Building,13-00946823,07/16/2013,Front,,Open,REAR WINDOW,Vacant,False,False,2210,N,LAVERGNE,AVE,60639.0,1142696.65311444,1914233.14847612,31.0,25.0,19.0,41.92070645460481,-87.75113089287203,"(41.92070645460481, -87.75113089287203)",2013-07-16
Vacant/Abandoned Building,13-00946853,07/16/2013,Rear,,Open,,Vacant,False,False,2215,N,LAWLER,AVE,60639.0,1142361.29671376,1914258.55801748,31.0,25.0,19.0,41.92078242208457,-87.75236244552582,"(41.92078242208457, -87.75236244552582)",2013-07-16
Vacant/Abandoned Building,13-00914176,07/10/2013,Rear,,Open,REAR,Vacant,True,True,7146,S,MORGAN,ST,60621.0,1170879.21383097,1857437.60280923,17.0,7.0,68.0,41.764282783706825,-87.64924454824593,"(41.76428278370683, -87.64924454824592)",2013-07-10
Vacant/Abandoned Building,13-00906836,07/09/2013,Front,,Open,,Vacant,False,True,3122,N,HARDING,AVE,60618.0,1149511.03997032,1920469.82010589,31.0,25.0,21.0,41.93769074881807,-87.72593084751507,"(41.93769074881807, -87.72593084751507)",2013-07-09
Vacant/Abandoned Building,13-00878041,07/03/2013,Front,,Open,DOORS AND WINDOWS,Vacant,False,True,16,W,113TH,PL,60628.0,1178163.275294,1829713.87869876,34.0,5.0,49.0,41.688043259164274,-87.62338484029449,"(41.68804325916427, -87.6233848402945)",2013-07-03
Vacant/Abandoned Building,13-00879999,07/03/2013,Front,,Open,FROM AND REAR,Vacant,False,True,4948,W,WRIGHTWOOD,AVE,60639.0,1142958.89117448,1916843.21133367,31.0,25.0,19.0,41.92786384432055,-87.75010213668352,"(41.92786384432055, -87.75010213668352)",2013-07-03
Vacant/Abandoned Building,13-01013655,07/24/2013,Garage,,Open,GARAGE,Vacant,False,False,4845,W,HURON,ST,60644.0,1143928.11221174,1904200.29116635,28.0,15.0,25.0,41.893152170974005,-87.7468582361628,"(41.893152170974005, -87.7468582361628)",2013-07-24
Vacant/Abandoned Building,13-01018637,07/24/2013,Front,,Open,,Vacant,False,True,5001,S,WABASH,AVE,60615.0,1177561.19868837,1871884.20998999,3.0,2.0,38.0,41.80377730305127,-87.62431690503193,"(41.80377730305127, -87.62431690503193)",2013-07-24
Vacant/Abandoned Building,13-00996477,07/22/2013,Front,,Open,REAR DOOR,Occupied,False,True,2652,W,GRAND,AVE,60612.0,1158536.8522709,1904229.37452716,26.0,12.0,24.0,41.89294543538645,-87.69320470252977,"(41.89294543538645, -87.69320470252978)",2013-07-22
Vacant/Abandoned Building,13-00976958,07/18/2013,Front,,Boarded,,Vacant,False,True,3444,W,PARKER,AVE,60647.0,1152947.47997805,1918074.39999049,35.0,14.0,22.0,41.931050019458546,-87.71336488265352,"(41.93105001945855, -87.71336488265352)",2013-07-18
Vacant/Abandoned Building,13-00977013,07/18/2013,Garage,,Open,,Vacant,False,True,2325,N,RIDGEWAY,AVE,60647.0,1150993.81998832,1915196.00068119,35.0,25.0,22.0,41.92318998469997,-87.7206198297488,"(41.923189984699974, -87.7206198297488)",2013-07-18
Vacant/Abandoned Building,13-00900782,07/09/2013,Front,,Open,REAR,Vacant,False,True,3805,W,FULLERTON,AVE,60647.0,1150589.64102346,1915685.04490571,35.0,25.0,22.0,41.92453988043378,-87.7220921271975,"(41.924539880433784, -87.7220921271975)",2013-07-09
Vacant/Abandoned Building,13-00895843,07/08/2013,,,,,,,,2625,W,24TH,ST,60608.0,1159243.91637218,1887974.46351873,12.0,10.0,30.0,41.84832587041332,-87.69105460581518,"(41.84832587041332, -87.69105460581518)",2013-07-08
Vacant/Abandoned Building,13-00895849,07/08/2013,,,,,,,,3151,N,MONTICELLO,AVE,60618.0,1151514.55899384,1920711.16640368,35.0,25.0,21.0,41.93831383268947,-87.71856113475941,"(41.93831383268947, -87.71856113475941)",2013-07-08
Vacant/Abandoned Building,13-00883558,07/05/2013,Front,,Open,,Occupied,False,True,3633,W,BELMONT,AVE,60618.0,1151493.65899384,1921033.46640368,35.0,25.0,21.0,41.939198660754656,-87.71862945356777,"(41.939198660754656, -87.71862945356777)",2013-07-05
Vacant/Abandoned Building,13-01032437,07/26/2013,Front,,Open,,Vacant,False,True,2911,N,DAWSON,AVE,60618.0,1153316.6080753,1919285.13999297,35.0,14.0,21.0,41.934365053230366,-87.71197615711763,"(41.93436505323037, -87.71197615711763)",2013-07-26
Vacant/Abandoned Building,13-01018631,07/24/2013,Front,,Open,,Vacant,False,True,5845,S,GREEN,ST,60621.0,1171640.32449714,1866010.76131243,16.0,7.0,68.0,41.78779189838651,-87.646203820302,"(41.78779189838651, -87.64620382030202)",2013-07-24
Vacant/Abandoned Building,13-01022078,07/25/2013,Front,,Open,,Vacant,False,True,3046,W,JACKSON,BLVD,60612.0,1156028.93446955,1898529.86199265,28.0,11.0,27.0,41.87735639548505,-87.70256921125248,"(41.87735639548505, -87.70256921125248)",2013-07-25
Vacant/Abandoned Building,13-01022084,07/25/2013,Front,,Open,FRONT,Vacant,True,False,734,N,PINE,AVE,60644.0,1139391.45320544,1904333.14482094,37.0,15.0,25.0,41.89360062152026,-87.76351669491764,"(41.893600621520264, -87.76351669491764)",2013-07-25
Vacant/Abandoned Building,13-01024636,07/25/2013,Front,,Open,1ST FLOOR AND REAR,Vacant,False,True,759,S,KOLMAR,AVE,60624.0,1146132.53988554,1896185.07292597,24.0,11.0,26.0,41.871115842529825,-87.73896597704703,"(41.87111584252983, -87.73896597704703)",2013-07-25
Vacant/Abandoned Building,13-01025816,07/25/2013,Front,,Open,ALL OVER,Vacant,False,False,2734,S,KILDARE,AVE,60623.0,1148165.41497952,1885472.96440925,22.0,10.0,30.0,41.841681602554644,-87.73177800843872,"(41.84168160255464, -87.73177800843872)",2013-07-25
Vacant/Abandoned Building,13-01026381,07/25/2013,Rear,,Open,,Vacant,False,True,3129,S,HARDING,AVE,60623.0,1150539.26020478,1883554.39011262,22.0,10.0,30.0,41.83637083098245,-87.72311669569945,"(41.836370830982446, -87.72311669569943)",2013-07-25
Vacant/Abandoned Building,13-01026507,07/25/2013,Front,,Boarded,,Vacant,False,False,5225,S,GREEN,ST,60609.0,1171523.02002869,1870236.06757996,3.0,9.0,61.0,41.79938917437844,-87.64651015260587,"(41.79938917437844, -87.64651015260587)",2013-07-25
Vacant/Abandoned Building,13-01026610,07/25/2013,,,,,,,,4042,W,WEST END,AVE,60624.0,1149287.14988884,1900663.434302,28.0,11.0,26.0,41.8833444495722,-87.72726803973829,"(41.8833444495722, -87.7272680397383)",2013-07-25
Vacant/Abandoned Building,13-01026612,07/25/2013,,,,,,,,1651,S,PULASKI,RD,60623.0,1149989.32210865,1891406.76841425,24.0,10.0,29.0,41.85792945459375,-87.72493051554041,"(41.85792945459375, -87.7249305155404)",2013-07-25
Vacant/Abandoned Building,13-01026914,07/25/2013,Front,,Open,NONE,Vacant,False,False,3749,N,ODELL,AVE,60634.0,1126412.99937682,1923976.23347933,36.0,16.0,17.0,41.947730478156686,-87.81074342119754,"(41.94773047815669, -87.81074342119754)",2013-07-25
Vacant/Abandoned Building,13-01009800,07/23/2013,Front,,Open,,Vacant,False,False,5738,S,WALLACE,ST,60621.0,1173255.07517306,1866849.50447528,3.0,7.0,68.0,41.79005793502709,-87.64025841976927,"(41.79005793502709, -87.64025841976927)",2013-07-23
Vacant/Abandoned Building,13-00995124,07/22/2013,Front,,Open,WINDOWS,Vacant,False,False,3900,S,STATE,ST,60609.0,1176927.41852895,1879144.23052685,3.0,2.0,38.0,41.823713764252616,-87.62642224706913,"(41.823713764252616, -87.62642224706912)",2013-07-22
Vacant/Abandoned Building,13-00999564,07/22/2013,Front,,Boarded,,Vacant,False,False,3829,S,WABASH,AVE,60653.0,1177355.32002004,1879625.47003326,3.0,2.0,35.0,41.825024653223046,-87.62483788292464,"(41.825024653223046, -87.62483788292464)",2013-07-22
Vacant/Abandoned Building,13-01001101,07/22/2013,Front,,Boarded,UNKNOWN IF BUILDING IS SECURED,Vacant,False,False,921,S,PULASKI,RD,60624.0,1149857.10808569,1895680.25988838,24.0,11.0,26.0,41.869658992888,-87.72530472843195,"(41.869658992888, -87.72530472843196)",2013-07-22
Vacant/Abandoned Building,13-01001277,07/22/2013,Rear,,Open,REAR,Vacant,False,True,1803,W,21ST,ST,60608.0,1164673.03512417,1890110.89972217,25.0,12.0,31.0,41.85407530395198,-87.67106895012121,"(41.85407530395198, -87.6710689501212)",2013-07-22
Vacant/Abandoned Building,13-01002198,07/22/2013,Front,,Boarded,NONE,Vacant,False,False,1634,S,HOMAN,AVE,60623.0,1153972.9455944,1891474.34991197,24.0,10.0,29.0,41.85803651498452,-87.71030628861509,"(41.85803651498452, -87.7103062886151)",2013-07-22
Vacant/Abandoned Building,13-01004163,07/23/2013,Rear,,Boarded,,Vacant,False,False,5316,S,LOWE,AVE,60609.0,1172866.93841399,1869638.13419874,3.0,9.0,61.0,41.79771881015157,-87.64159932720018,"(41.797718810151565, -87.64159932720018)",2013-07-23
Vacant/Abandoned Building,13-00979698,07/18/2013,Front,,Open,WHOLE BUILDING,Vacant,False,True,4411,W,WEST END,AVE,60624.0,1146914.4111113998,1900609.10897495,28.0,11.0,26.0,41.88324102652032,-87.73598236742733,"(41.88324102652032, -87.73598236742733)",2013-07-18
Vacant/Abandoned Building,13-00990312,07/20/2013,Rear,,Open,,Vacant,False,True,323,N,AVERS,AVE,60624.0,1150576.69996778,1901621.20639141,27.0,11.0,26.0,41.88594759065355,-87.72250765495049,"(41.88594759065355, -87.72250765495049)",2013-07-20
Vacant/Abandoned Building,13-00965318,07/17/2013,,,,,,,,3250,N,ODELL,AVE,60634.0,1126530.01223287,1920427.23007779,36.0,16.0,17.0,41.937989624181654,-87.81039288588987,"(41.93798962418166, -87.81039288588988)",2013-07-17
Vacant/Abandoned Building,13-00971415,07/17/2013,Front,,Open,REAR,Vacant,False,True,3659,S,WABASH,AVE,60653.0,1177327.15259681,1880777.77047841,3.0,2.0,35.0,41.82818729667513,-87.62490636116966,"(41.828187296675125, -87.62490636116966)",2013-07-17
Vacant/Abandoned Building,13-00933854,07/13/2013,Front,,Open,REAR AND FRONT,Vacant,False,True,6714,S,EVANS,AVE,60637.0,1182373.07420097,1860658.12011291,6.0,3.0,42.0,41.77286163643706,-87.6070173282004,"(41.772861636437064, -87.60701732820041)",2013-07-13
Vacant/Abandoned Building,13-00914778,07/10/2013,Rear,,Open,,Vacant,False,True,2317,W,19TH,ST,60608.0,1161223.45782686,1890688.36831376,25.0,12.0,31.0,41.855732246711824,-87.6837142088198,"(41.85573224671182, -87.68371420881978)",2013-07-10
Vacant/Abandoned Building,13-00924864,07/11/2013,Rear,,Open,REAR,Vacant,False,False,7023,S,VERNON,AVE,60637.0,1180461.52128852,1858551.50807858,6.0,3.0,69.0,41.76712496459143,-87.61408909376856,"(41.76712496459143, -87.61408909376857)",2013-07-11
Vacant/Abandoned Building,13-00912612,07/10/2013,Front,,Boarded,,Vacant,False,False,7039,S,CALUMET,AVE,60637.0,1179699.60739159,1858301.52989429,6.0,3.0,69.0,41.76645644761254,-87.61688943039887,"(41.76645644761254, -87.61688943039886)",2013-07-10
Vacant/Abandoned Building,13-00888470,07/06/2013,Front,,Boarded,,Vacant,False,False,7126,S,ST LAWRENCE,AVE,60619.0,1181468.77298168,1857900.26701147,6.0,3.0,69.0,41.76531472059386,-87.61041719900196,"(41.76531472059386, -87.61041719900196)",2013-07-06
Vacant/Abandoned Building,13-00891069,07/07/2013,Front,,Boarded,,Vacant,False,False,3030,N,OSCEOLA,AVE,60707.0,1125895.98129547,1919313.39659483,36.0,25.0,17.0,41.934943715054814,-87.81274798820559,"(41.934943715054814, -87.81274798820559)",2013-07-07
Vacant/Abandoned Building,13-00891929,07/07/2013,Front,,Open,,Occupied,False,True,1708,N,OAK PARK,AVE,60707.0,1130820.46007757,1910613.35473119,36.0,25.0,25.0,41.910986241224606,-87.79485080051697,"(41.9109862412246, -87.79485080051697)",2013-07-07
Vacant/Abandoned Building,13-00879508,07/03/2013,Garage,,Boarded,,Vacant,False,True,7029,S,VERNON,AVE,60637.0,1180462.62128852,1858511.40807858,6.0,3.0,69.0,41.76701490080574,-87.61408629094144,"(41.76701490080574, -87.61408629094146)",2013-07-03
Vacant/Abandoned Building,13-00883844,07/05/2013,Front,,Open,WINDOWS,Vacant,False,True,7632,S,VERNON,AVE,60619.0,1180566.18543234,1854504.87266902,6.0,6.0,69.0,41.75601816658808,-87.61382952285038,"(41.75601816658808, -87.61382952285038)",2013-07-05
Vacant/Abandoned Building,13-00858855,07/01/2013,,,,,,,,2550,N,NEWCASTLE,AVE,60707.0,1130333.10542156,1915865.41978149,36.0,25.0,18.0,41.92540695623161,-87.79652043450231,"(41.925406956231605, -87.79652043450231)",2013-07-01
Vacant/Abandoned Building,13-00861682,07/01/2013,Rear,,Open,,Vacant,False,True,7349,S,VERNON,AVE,60619.0,1180518.23311977,1856384.51051748,6.0,3.0,69.0,41.76117719498257,-87.61394765224556,"(41.76117719498257, -87.61394765224556)",2013-07-01
Vacant/Abandoned Building,13-00861931,07/01/2013,Front,,Boarded,,Vacant,False,True,2218,N,NARRAGANSETT,AVE,60639.0,1133386.71398598,1914049.71129525,36.0,25.0,19.0,41.92037142881949,-87.78534243808512,"(41.920371428819486, -87.78534243808512)",2013-07-01
Vacant/Abandoned Building,13-01048619,07/30/2013,Rear,,Open,REAR,Vacant,True,True,6949,S,CARPENTER,ST,60621.0,1170513.23653253,1858734.03928437,17.0,7.0,68.0,41.76784834700671,-87.65054822511902,"(41.767848347006705, -87.65054822511902)",2013-07-30
Vacant/Abandoned Building,13-01027398,07/25/2013,Front,,Open,FRONT DOOR,Vacant,False,True,5900,S,STATE,ST,60621.0,1177284.26121793,1865899.99312228,20.0,2.0,40.0,41.787362299087036,-87.6255132760561,"(41.78736229908703, -87.6255132760561)",2013-07-25
Vacant/Abandoned Building,13-01029100,07/26/2013,Front,,Open,REAR DOOR IS MISSING,Vacant,False,True,1911,W,RACE,AVE,60622.0,1163563.34359913,1903770.2332106999,26.0,12.0,24.0,41.89158112763689,-87.67475728140785,"(41.89158112763689, -87.67475728140784)",2013-07-26
Vacant/Abandoned Building,13-01031637,07/26/2013,Rear,,Open,REAR WINDOW CATS ARE GOING INTO BUILDING,Vacant,False,False,2953,S,EMERALD,AVE,60616.0,1171778.36402708,1885302.54560981,11.0,9.0,60.0,41.84072743971264,-87.64513119990968,"(41.840727439712644, -87.64513119990968)",2013-07-26
Vacant/Abandoned Building,13-01032930,07/26/2013,Front,,Open,,Vacant,False,True,6542,S,EBERHART,AVE,60637.0,1180700.25352743,1861742.8968753999,20.0,3.0,42.0,41.77587697529118,-87.61311609125929,"(41.77587697529118, -87.61311609125929)",2013-07-26
Vacant/Abandoned Building,13-01032946,07/26/2013,Front,,Open,,Vacant,False,True,5901,S,STATE,ST,60621.0,1177284.46121793,1865893.29312228,20.0,2.0,40.0,41.78734390909575,-87.62551274498848,"(41.787343909095746, -87.62551274498848)",2013-07-26
Vacant/Abandoned Building,13-01006371,07/23/2013,Front,,Open,,Vacant,False,False,2537,W,MOFFAT,ST,60647.0,1159160.39352508,1912208.06019268,1.0,14.0,22.0,41.914826811061076,-87.69069515275561,"(41.91482681106108, -87.69069515275561)",2013-07-23
Vacant/Abandoned Building,13-01009732,07/23/2013,Front,,Open,"NOT SURE, BUT SQUATTERS HAVE BEEN SEEN GOING IN AND OUT",Vacant,False,True,5734,S,UNION,AVE,60621.0,1172612.68869003,1866853.61551251,20.0,7.0,68.0,41.790083402650936,-87.64261374182449,"(41.79008340265094, -87.64261374182448)",2013-07-23
Vacant/Abandoned Building,13-00985493,07/19/2013,Front,,Open,REAR,Vacant,False,True,5805,S,ADA,ST,60636.0,1168319.80972688,1866239.31869365,16.0,7.0,67.0,41.78849126389332,-87.65837220129869,"(41.78849126389332, -87.65837220129869)",2013-07-19
Vacant/Abandoned Building,13-00999395,07/22/2013,Front,,Open,REAR,Vacant,False,True,1836,S,LAFLIN,ST,60608.0,1166663.25466644,1891142.50022044,25.0,12.0,31.0,41.85686375429018,-87.6637345619606,"(41.85686375429018, -87.6637345619606)",2013-07-22
Vacant/Abandoned Building,13-00967943,07/17/2013,Front,,Boarded,,Vacant,False,True,4621,S,HERMITAGE,AVE,60609.0,1165455.67783075,1874056.29162687,20.0,9.0,61.0,41.81000319414853,-87.66865229896196,"(41.810003194148535, -87.66865229896197)",2013-07-17
Vacant/Abandoned Building,13-00961588,07/16/2013,,,,,,,,880,N,PAULINA,ST,60622.0,1164895.87678081,1906156.94998553,1.0,12.0,24.0,41.898102286194266,-87.66979572575632,"(41.898102286194266, -87.66979572575633)",2013-07-16
Vacant/Abandoned Building,13-00934300,07/13/2013,Rear,,Open,REAR,Vacant,False,True,5642,S,WABASH,AVE,60637.0,1177676.97716734,1867629.07251772,20.0,2.0,40.0,41.792098182284704,-87.62402106241949,"(41.792098182284704, -87.62402106241949)",2013-07-13
Vacant/Abandoned Building,13-00935400,07/14/2013,Front,,Open,WINDOWS ARE ALL BROKEN,Vacant,False,False,946,W,51ST,PL,60609.0,1170874.053603,1870680.93822913,20.0,9.0,61.0,41.800624152114565,-87.64887707990049,"(41.80062415211456, -87.6488770799005)",2013-07-14
Vacant/Abandoned Building,13-00938994,07/15/2013,Front,,Open,WINDOWS ARE DOORS,Vacant,False,False,1158,W,48TH,ST,60609.0,1169330.69701345,1872963.52980017,3.0,9.0,61.0,41.80692141762874,-87.65447094270178,"(41.80692141762874, -87.65447094270178)",2013-07-15
Vacant/Abandoned Building,13-00915460,07/10/2013,Front,,Open,THE FRONT OF THE HOME,Vacant,False,False,335,E,91ST,ST,60619.0,1179996.84997458,1844740.24030905,6.0,6.0,44.0,41.72923592755679,-87.61621420663994,"(41.729235927556786, -87.61621420663994)",2013-07-10
Vacant/Abandoned Building,13-00918288,07/11/2013,Front,,Boarded,FRONT,Vacant,False,True,8400,S,VERNON,AVE,60619.0,1180819.30152454,1849402.64779055,6.0,6.0,44.0,41.742011280695465,-87.61305844412077,"(41.74201128069547, -87.61305844412077)",2013-07-11
Vacant/Abandoned Building,13-00906516,07/09/2013,Front,,Boarded,,Vacant,False,False,7813,S,ST LAWRENCE,AVE,60619.0,1181587.62573142,1853334.93060754,6.0,6.0,69.0,41.75278421732657,-87.61012224678986,"(41.75278421732657, -87.61012224678986)",2013-07-09
Vacant/Abandoned Building,13-00891776,07/07/2013,Front,,Open,TOP WINDOW IS BUSTED OUT AND HANGING GLASS ALL OVER THE SIDEWALLK,Vacant,False,False,1559,N,MILWAUKEE,AVE,60622.0,1162997.61848325,1910428.94219595,1.0,14.0,24.0,41.9098650234205,-87.67664773539637,"(41.9098650234205, -87.67664773539637)",2013-07-07
Vacant/Abandoned Building,13-00894514,07/08/2013,Rear,,Open,BASEMENT DOOR FRAME KICKED IN,Vacant,False,True,916,W,50TH,PL,60609.0,1171056.27862762,1871349.98411358,20.0,9.0,61.0,41.802456101793524,-87.64818924569927,"(41.80245610179352, -87.64818924569926)",2013-07-08
Vacant/Abandoned Building,13-00895721,07/08/2013,,,,,,,,1917,S,ALLPORT,ST,60608.0,1168340.56497386,1890820.02132708,25.0,12.0,31.0,41.85594278511492,-87.6575872531538,"(41.85594278511492, -87.65758725315379)",2013-07-08
Vacant/Abandoned Building,13-00873281,07/02/2013,Front,,Open,FRONT,Vacant,False,True,830,W,54TH,ST,60609.0,1171686.30422219,1869014.04010952,20.0,9.0,61.0,41.796032217985136,-87.64594718607309,"(41.79603221798513, -87.6459471860731)",2013-07-02
Vacant/Abandoned Building,13-00877084,07/03/2013,Front,,Open,,Vacant,False,False,9424,S,INDIANA,AVE,60619.0,1179249.50401007,1842531.98173093,6.0,6.0,49.0,41.7231932413454,-87.61901903241557,"(41.7231932413454, -87.61901903241557)",2013-07-03
Vacant/Abandoned Building,13-00880053,07/03/2013,Front,,Open,WHOLE BUILDING,Vacant,False,True,3316,W,WALNUT,ST,60624.0,1154199.87741554,1901431.39143139,28.0,11.0,27.0,41.88535517848575,-87.70920755805157,"(41.88535517848576, -87.70920755805157)",2013-07-03
Vacant/Abandoned Building,13-00881567,07/04/2013,Front,,Open,,Vacant,False,True,700,E,75TH,ST,60619.0,1182192.09012133,1855436.80739162,6.0,3.0,69.0,41.75853802363445,-87.607842197443,"(41.75853802363445, -87.60784219744302)",2013-07-04
Vacant/Abandoned Building,13-00859305,07/01/2013,,,,,,,,453,W,62ND,ST,60621.0,1174332.65922024,1863831.41269121,20.0,7.0,68.0,41.78175206076814,-87.63639694028471,"(41.78175206076814, -87.63639694028471)",2013-07-01
Vacant/Abandoned Building,13-01037672,07/28/2013,Front,,Open,,Vacant,False,False,7025,S,MORGAN,ST,60621.0,1170857.8704898998,1858241.7638728002,17.0,7.0,68.0,41.766489967841395,-87.64929933725449,"(41.766489967841395, -87.64929933725449)",2013-07-28
Vacant/Abandoned Building,13-01044105,07/29/2013,Front,,Open,FRONT AND REAR,Vacant,False,True,4233,W,JACKSON,BLVD,60624.0,1148214.78180797,1898350.04358965,28.0,11.0,26.0,41.87701695623246,-87.73126547639063,"(41.87701695623246, -87.73126547639063)",2013-07-29
Vacant/Abandoned Building,13-01031198,07/26/2013,Front,,Open,FRONT AND REAR DOOR NOW MISSING,Vacant,False,True,6756,S,LOOMIS,BLVD,60636.0,1168161.572325,1859921.095275,17.0,7.0,67.0,41.77115668610145,-87.6591340339037,"(41.771156686101456, -87.6591340339037)",2013-07-26
Vacant/Abandoned Building,13-01023913,07/25/2013,Front,,Open,"FRONT AND BACK DOORS, AND WINDOWS..",Vacant,False,True,7116,S,GREEN,ST,60621.0,1171865.7448921,1857666.59237192,17.0,7.0,68.0,41.764889572388796,-87.64562196187224,"(41.7648895723888, -87.64562196187224)",2013-07-25
Vacant/Abandoned Building,13-01056591,07/31/2013,Front,,Open,FRONT AND REAR,Vacant,False,True,6911,S,CLAREMONT,AVE,60636.0,1161930.16569763,1858652.51830086,17.0,8.0,66.0,41.76780730704214,-87.68201144213816,"(41.76780730704214, -87.68201144213816)",2013-07-31
Vacant/Abandoned Building,13-01045428,07/29/2013,,,,,,,,5414,S,PRINCETON,AVE,60609.0,1175208.0249911002,1868987.24543233,3.0,9.0,37.0,41.795880689175036,-87.63303368294504,"(41.79588068917504, -87.63303368294505)",2013-07-29
Vacant/Abandoned Building,13-01045647,07/29/2013,,,,,,,,7120,S,DAMEN,AVE,60636.0,1164254.98723398,1857442.2560047002,17.0,7.0,67.0,41.764437554205706,-87.6735239184652,"(41.7644375542057, -87.67352391846521)",2013-07-29
Vacant/Abandoned Building,13-01046769,07/29/2013,Front,,Open,SIDE,Vacant,False,True,1512,W,72ND,ST,60636.0,1167309.04326823,1856982.41628111,17.0,7.0,67.0,41.76311086134503,-87.66234313793016,"(41.76311086134503, -87.66234313793015)",2013-07-29
Vacant/Abandoned Building,13-01047292,07/29/2013,Front,,Boarded,NONE,Vacant,False,False,7138,S,WOOD,ST,60636.0,1165583.96423376,1857350.52940291,17.0,7.0,67.0,41.764157766412275,-87.66865545760656,"(41.76415776641227, -87.66865545760656)",2013-07-29
Vacant/Abandoned Building,13-01049368,07/30/2013,,,,,,,,5426,S,INGLESIDE,AVE,60615.0,1183447.46180206,1869797.7308268996,5.0,2.0,41.0,41.79791656448111,-87.60279428846293,"(41.79791656448111, -87.60279428846292)",2013-07-30
Vacant/Abandoned Building,13-01036659,07/27/2013,Front,,Open,,Vacant,False,False,6556,S,WOODLAWN,AVE,60637.0,1185343.41909209,1861771.91179772,20.0,3.0,42.0,41.775848626654955,-87.59609395360735,"(41.775848626654955, -87.59609395360734)",2013-07-27
Vacant/Abandoned Building,13-01037900,07/28/2013,Front,,Boarded,,Vacant,False,False,2022,W,68TH,PL,60636.0,1164060.36597242,1859230.59990573,17.0,7.0,67.0,41.76934911137907,-87.67418702688971,"(41.76934911137907, -87.67418702688971)",2013-07-28
Vacant/Abandoned Building,13-01040631,07/29/2013,Front,,Open,REAR,Vacant,False,True,1915,W,RACE,AVE,60622.0,1163536.44359913,1903769.4332106998,26.0,12.0,24.0,41.89157949889394,-87.67485609507679,"(41.89157949889394, -87.67485609507679)",2013-07-29
Vacant/Abandoned Building,13-01030660,07/26/2013,Front,,Open,DOORS,Vacant,False,False,11415,S,HARVARD,AVE,60628.0,1175995.86126794,1829228.81542063,34.0,5.0,49.0,41.68676091495794,-87.63133399446501,"(41.68676091495794, -87.63133399446502)",2013-07-26
Vacant/Abandoned Building,13-01030817,07/26/2013,Front,,Open,"REAR, SOME DOORS ARE MISSING",Vacant,False,True,6711,S,UNION,AVE,60621.0,1172894.48993009,1860381.46358819,6.0,7.0,68.0,41.77231686981005,-87.64177131954008,"(41.77231686981005, -87.64177131954008)",2013-07-26
Vacant/Abandoned Building,13-01032140,07/26/2013,Front,,Open,FRONT AND REAR,Vacant,False,True,6650,S,MICHIGAN,AVE,60637.0,1178083.38163371,1860938.93712637,20.0,3.0,69.0,41.773730564926254,-87.62273358795011,"(41.77373056492626, -87.62273358795011)",2013-07-26
Vacant/Abandoned Building,13-01033022,07/26/2013,Front,,Boarded,FRONT,Vacant,True,True,6632,S,PEORIA,ST,60621.0,1171448.58257434,1860862.6378847,17.0,7.0,68.0,41.7736690525776,-87.64705750639871,"(41.7736690525776, -87.64705750639872)",2013-07-26
Vacant/Abandoned Building,13-01033240,07/26/2013,Front,,Open,,Vacant,False,False,2658,W,GRAND,AVE,60612.0,1158503.2522709,1904246.97452716,26.0,12.0,24.0,41.8929944191436,-87.69332762055241,"(41.89299441914359, -87.69332762055241)",2013-07-26
Vacant/Abandoned Building,13-01033331,07/26/2013,Front,,Open,,Vacant,False,False,2259,N,LOREL,AVE,60639.0,1140347.51728078,1914504.65546826,37.0,25.0,19.0,41.92149493889982,-87.75975555422495,"(41.92149493889982, -87.75975555422495)",2013-07-26
Vacant/Abandoned Building,13-01010823,07/23/2013,Front,,Boarded,,Vacant,False,False,7634,S,UNION,AVE,60620.0,1172956.54202199,1854251.0730131,17.0,6.0,71.0,41.75549296594463,-87.64172453905736,"(41.755492965944626, -87.64172453905738)",2013-07-23
Vacant/Abandoned Building,13-01011219,07/23/2013,Rear,,Open,,Vacant,False,True,7528,S,PARNELL,AVE,60620.0,1173850.47249285,1854986.98361382,17.0,6.0,69.0,41.75749262817632,-87.63842673440351,"(41.757492628176315, -87.63842673440352)",2013-07-23
Vacant/Abandoned Building,13-01016552,07/24/2013,Front,,Open,FRONT DOOR -BASEMENT WINDOW -1 FL WINDOW  ARE OPEN,Vacant,False,False,6144,S,MAY,ST,60621.0,1169703.86471041,1864050.3535860002,16.0,7.0,68.0,41.78245455780242,-87.65336086042767,"(41.782454557802424, -87.65336086042765)",2013-07-24
Vacant/Abandoned Building,13-01017634,07/24/2013,Front,,Open,SIDE,Vacant,False,True,7025,S,HONORE,ST,60636.0,1165232.05058016,1858094.17842829,17.0,7.0,67.0,41.766205895883814,-87.66992428814116,"(41.76620589588381, -87.66992428814116)",2013-07-24
Vacant/Abandoned Building,13-01023487,07/25/2013,Front,,Open,,Vacant,False,True,7259,S,PAULINA,ST,60636.0,1166268.70120637,1856562.07101043,17.0,7.0,67.0,41.761979582723015,-87.66616813869467,"(41.761979582723015, -87.66616813869467)",2013-07-25
Vacant/Abandoned Building,13-01000368,07/22/2013,Front,,Open,FRONT DOOR,Vacant,False,True,1232,W,72ND,ST,60636.0,1169280.68518946,1857038.28428346,17.0,7.0,67.0,41.76322173897739,-87.65511509244774,"(41.76322173897739, -87.65511509244773)",2013-07-22
Vacant/Abandoned Building,13-01001550,07/22/2013,Front,,Boarded,,Vacant,False,False,8028,S,GREEN,ST,60620.0,1172032.57890704,1851617.38351287,21.0,6.0,71.0,41.74828611518469,-87.64518782143824,"(41.74828611518469, -87.64518782143824)",2013-07-22
Vacant/Abandoned Building,13-01004436,07/23/2013,Rear,,Boarded,NONE,Vacant,False,False,6817,S,DAMEN,AVE,60636.0,1164204.36597242,1859376.99990573,17.0,7.0,67.0,41.76974782339622,-87.67365507145797,"(41.76974782339623, -87.67365507145797)",2013-07-23
Vacant/Abandoned Building,13-01008633,07/23/2013,Rear,,Open,,Vacant,False,False,3610,W,POLK,ST,60624.0,1152441.15068033,1896128.24917086,24.0,11.0,27.0,41.87083770706693,-87.715806078929,"(41.870837707066926, -87.715806078929)",2013-07-23
Vacant/Abandoned Building,13-00980653,07/18/2013,Front,,Boarded,REAR,Vacant,False,True,2913,W,WILCOX,ST,60612.0,1156990.78193432,1899215.94282363,2.0,11.0,27.0,41.879219616916025,-87.69901894326942,"(41.87921961691602, -87.69901894326942)",2013-07-18
Vacant/Abandoned Building,13-00981612,07/19/2013,Front,,Open,"FRONT, FIRST FLOOR ALL OPEN WINDOWS THAT WERE BOARDED",Vacant,False,False,5805,S,CALUMET,AVE,60637.0,1179474.2070907,1866600.04809363,20.0,2.0,40.0,41.78923356281579,-87.61746238840752,"(41.78923356281579, -87.61746238840752)",2013-07-19
Vacant/Abandoned Building,13-00981760,07/19/2013,Front,,Open,ALL OVER,Vacant,False,False,7251,S,GREEN,ST,60621.0,1171891.52522811,1856769.17630105,17.0,7.0,68.0,41.76242638618696,-87.64555377014076,"(41.76242638618696, -87.64555377014076)",2013-07-19
Vacant/Abandoned Building,13-00984651,07/19/2013,Front,,Open,SIDE,Vacant,False,True,2204,W,WARREN,BLVD,60612.0,1161714.97649219,1900319.87748988,2.0,12.0,28.0,41.88215178871139,-87.68164170941685,"(41.88215178871139, -87.68164170941685)",2013-07-19
Vacant/Abandoned Building,13-00985227,07/19/2013,,,Open,FRONT DOOR & WINDOW,Vacant,False,True,319,N,AVERS,AVE,60624.0,1150577.89996778,1901579.80639141,27.0,11.0,26.0,41.88583396119331,-87.72250433042379,"(41.88583396119331, -87.72250433042379)",2013-07-19
Vacant/Abandoned Building,13-00985475,07/19/2013,Front,,Open,"FRONT/REAR DOORS, WINDOWS",Vacant,False,True,6200,S,INGLESIDE,AVE,60637.0,1183515.92001423,1864023.00999096,20.0,3.0,42.0,41.78206864051973,-87.6027232052869,"(41.782068640519725, -87.6027232052869)",2013-07-19
Vacant/Abandoned Building,13-00989571,07/20/2013,Front,,Open,FRONT AND REAR,Vacant,True,False,6954,S,LAFLIN,ST,60636.0,1167535.82353265,1858617.60097617,17.0,7.0,67.0,41.7675931662835,-87.66146513209961,"(41.7675931662835, -87.66146513209961)",2013-07-20
Vacant/Abandoned Building,13-00990264,07/20/2013,Front,,Open,WHOLE BUILDNG,Vacant,False,True,4316,W,ADAMS,ST,60624.0,1147651.24728207,1898662.04747428,28.0,11.0,26.0,41.87788396018371,-87.73332661965124,"(41.87788396018371, -87.73332661965124)",2013-07-20
Vacant/Abandoned Building,13-00990678,07/20/2013,Rear,,Open,NONE,Vacant,False,False,7605,S,HERMITAGE,AVE,60620.0,1166000.76103143,1854263.56376846,17.0,6.0,71.0,41.75567785981031,-87.66721540470573,"(41.755677859810305, -87.66721540470574)",2013-07-20
Vacant/Abandoned Building,13-00993063,07/21/2013,Front,,Boarded,NONE,Vacant,False,False,2022,W,68TH,PL,60636.0,1164060.36597242,1859230.59990573,17.0,7.0,67.0,41.76934911137907,-87.67418702688971,"(41.76934911137907, -87.67418702688971)",2013-07-21
Vacant/Abandoned Building,13-00996723,07/22/2013,Front,,Open,"FRONT/REAR DOORS, WINDOWS",Occupied,False,True,361,E,68TH,ST,60637.0,1179740.76597256,1860001.78248116,20.0,3.0,69.0,41.771121176854145,-87.61668664346969,"(41.771121176854145, -87.61668664346969)",2013-07-22
Vacant/Abandoned Building,13-00996990,07/22/2013,Rear,,Open,,Occupied,False,True,1243,W,73RD,ST,60636.0,1169196.889925,1856372.327175,17.0,7.0,67.0,41.761396078814585,-87.65544145340387,"(41.761396078814585, -87.65544145340388)",2013-07-22
Vacant/Abandoned Building,13-00998636,07/22/2013,Front,,Open,REAR,Vacant,True,False,2459,N,LONG,AVE,60639.0,1139970.98152584,1915828.86642935,31.0,25.0,19.0,41.92513561942271,-87.76110659388374,"(41.92513561942271, -87.76110659388375)",2013-07-22
Vacant/Abandoned Building,13-00972015,07/17/2013,Rear,,Open,REAR,Vacant,False,True,6741,S,RACINE,AVE,60636.0,1169481.8093812,1860085.66891947,17.0,7.0,68.0,41.77157979478461,-87.65428975561755,"(41.77157979478461, -87.65428975561757)",2013-07-17
Vacant/Abandoned Building,13-00976976,07/18/2013,Front,,Open,FRONT,Vacant,True,False,6829,S,WINCHESTER,AVE,60636.0,1164534.5098849,1859376.92791917,17.0,7.0,67.0,41.769740670798505,-87.67244490662473,"(41.7697406707985, -87.67244490662473)",2013-07-18
Vacant/Abandoned Building,13-00976991,07/18/2013,Front,,Open,REAR,Vacant,True,False,7216,S,HARVARD,AVE,60621.0,1175206.77607828,1857099.19508289,17.0,7.0,69.0,41.76325861433783,-87.63339310350136,"(41.76325861433783, -87.63339310350136)",2013-07-18
Vacant/Abandoned Building,13-00966120,07/17/2013,,,,,,,,2237,S,HAMLIN,AVE,60623.0,1151395.86462984,1888663.5683336002,22.0,10.0,30.0,41.85037431690152,-87.71983954711241,"(41.85037431690152, -87.7198395471124)",2013-07-17
Vacant/Abandoned Building,13-00932385,07/12/2013,,,,,,,,106,S,CALIFORNIA,AVE,60612.0,1157740.71331913,1899505.6349334999,2.0,11.0,27.0,41.879999317464325,-87.69625741880293,"(41.879999317464325, -87.69625741880293)",2013-07-12
Vacant/Abandoned Building,13-00933340,07/13/2013,Rear,,Open,REAR,Vacant,False,False,8420,S,KERFOOT,AVE,60620.0,1173492.23321194,1848927.93710965,21.0,6.0,71.0,41.740873767415756,-87.63991858250078,"(41.74087376741576, -87.63991858250078)",2013-07-13
Vacant/Abandoned Building,13-00922012,07/11/2013,Front,,Open,REAR,Vacant,False,False,4326,S,CALUMET,AVE,60653.0,1179154.24312878,1876400.90737181,3.0,2.0,38.0,41.816135296984896,-87.61833664378186,"(41.816135296984896, -87.61833664378184)",2013-07-11
Vacant/Abandoned Building,13-00924892,07/11/2013,Front,,Open,FRONT & REAR DOORS,Vacant,False,False,1330,S,KOMENSKY,AVE,60623.0,1149594.93528949,1893533.7271221,24.0,10.0,29.0,41.86377374571741,-87.72632297009537,"(41.86377374571741, -87.72632297009537)",2013-07-11
Vacant/Abandoned Building,13-00924922,07/11/2013,Front,,Open,FRONT & REAR DOORS,Vacant,False,False,1404,S,KOMENSKY,AVE,60623.0,1149609.10152228,1893044.33198645,24.0,10.0,29.0,41.86243051204485,-87.72628366943087,"(41.862430512044845, -87.72628366943087)",2013-07-11
Vacant/Abandoned Building,13-00928429,07/12/2013,Front,,Open,,Vacant,False,True,3837,S,CALUMET,AVE,60653.0,1179154.53990596,1879615.36229338,3.0,2.0,35.0,41.82495601244453,-87.61823742166322,"(41.82495601244453, -87.61823742166324)",2013-07-12
Vacant/Abandoned Building,13-00930280,07/12/2013,Rear,,Boarded,,Vacant,False,False,6546,S,MARSHFIELD,AVE,60636.0,1166451.18851012,1861297.58727744,15.0,7.0,67.0,41.774970581014635,-87.66536450786829,"(41.77497058101463, -87.6653645078683)",2013-07-12
Vacant/Abandoned Building,13-00905581,07/09/2013,Front,,Boarded,,Vacant,False,False,347,E,107TH,ST,60628.0,1180549.17418394,1834089.80943047,9.0,5.0,49.0,41.699997129958774,-87.61451663947601,"(41.69999712995877, -87.61451663947601)",2013-07-09
Vacant/Abandoned Building,13-00906785,07/09/2013,Rear,,Open,REAR,Vacant,False,True,2941,W,WILCOX,ST,60612.0,1156801.48193432,1899212.84282363,2.0,11.0,27.0,41.879214947319305,-87.69971410707906,"(41.879214947319305, -87.69971410707907)",2013-07-09
Vacant/Abandoned Building,13-00909681,07/10/2013,Front,,Boarded,THE FRONT DOOR LOCK IS BROKEN AND NOW OPEN,Vacant,False,True,8441,S,MORGAN,ST,60620.0,1171119.56209717,1848848.76917635,21.0,6.0,71.0,41.74070865407611,-87.64861414669977,"(41.74070865407611, -87.64861414669977)",2013-07-10
Vacant/Abandoned Building,13-00910726,07/10/2013,Rear,,Open,,Vacant,False,False,327,W,104TH,PL,60628.0,1176005.83387736,1835632.96086818,34.0,5.0,49.0,41.70433461366861,-87.63110634652935,"(41.704334613668614, -87.63110634652935)",2013-07-10
Vacant/Abandoned Building,13-00911380,07/10/2013,Front,,Open,"BOARDS  HAVE BEEN REMOVED, SQUATTERS INSIDE",Vacant,False,True,1046,W,61ST,ST,60621.0,1170289.56178977,1864360.63516848,16.0,7.0,68.0,41.7832932771064,-87.65120450552442,"(41.7832932771064, -87.65120450552442)",2013-07-10
Vacant/Abandoned Building,13-00913710,07/10/2013,Front,,Boarded,,Vacant,False,False,6620,S,STEWART,AVE,60621.0,1174767.80377622,1860950.17009459,6.0,7.0,68.0,41.773835923340975,-87.63488739619233,"(41.77383592334098, -87.63488739619233)",2013-07-10
Vacant/Abandoned Building,13-00916451,07/10/2013,Front,,Open,REAR --,Vacant,False,True,4030,W,MONROE,ST,60624.0,1149538.29601598,1899356.22220854,28.0,11.0,26.0,41.879752443921255,-87.72637975522645,"(41.87975244392126, -87.72637975522643)",2013-07-10
Vacant/Abandoned Building,13-00900881,07/09/2013,Front,,Open,REAR DOOR,Vacant,False,True,8125,S,PERRY,AVE,60620.0,1177021.19961421,1851116.16699528,21.0,6.0,44.0,41.74679977981496,-87.62692298899776,"(41.746799779814964, -87.62692298899776)",2013-07-09
Vacant/Abandoned Building,13-00883080,07/05/2013,,,,,,,,6145,S,EBERHART,AVE,60637.0,1180642.04291491,1864373.91808805,20.0,3.0,42.0,41.783098090064655,-87.61324871727754,"(41.783098090064655, -87.61324871727754)",2013-07-05
Vacant/Abandoned Building,13-00884171,07/05/2013,Front,,Open,,Vacant,False,True,3007,W,FULTON,BLVD,60612.0,1156259.50570243,1901855.42549088,27.0,12.0,27.0,41.886477414131754,-87.70163273526941,"(41.886477414131754, -87.70163273526941)",2013-07-05
Vacant/Abandoned Building,13-00860746,07/01/2013,Rear,,Open,,Vacant,False,False,6642,S,ST LAWRENCE,AVE,60637.0,1181376.75041067,1861102.19749562,20.0,3.0,42.0,41.774103259992046,-87.6106558753434,"(41.774103259992046, -87.61065587534341)",2013-07-01
Vacant/Abandoned Building,13-00860772,07/01/2013,Rear,,Open,,Vacant,False,True,3835,S,CALUMET,AVE,60653.0,1179154.23990596,1879628.76229338,3.0,2.0,35.0,41.82499278994288,-87.61823811308979,"(41.82499278994288, -87.61823811308979)",2013-07-01
Vacant/Abandoned Building,13-00863180,07/01/2013,Front,,Open,?,Vacant,False,False,6421,S,INGLESIDE,AVE,60637.0,1183829.31332029,1862605.16730184,20.0,3.0,42.0,41.77817064044893,-87.60161846900688,"(41.77817064044893, -87.60161846900687)",2013-07-01
Vacant/Abandoned Building,13-00863787,07/01/2013,Front,,Open,FRONT,Vacant,False,False,7137,S,INGLESIDE,AVE,60619.0,1183792.90999059,1857871.71077973,5.0,3.0,69.0,41.76518244219013,-87.60189950366322,"(41.76518244219013, -87.60189950366322)",2013-07-01
Vacant/Abandoned Building,13-00869687,07/02/2013,Front,,Open,FRONT & REAR DOORS ARE NOT SECURED,Vacant,False,True,6619,S,LANGLEY,AVE,60637.0,1182030.57219593,1861277.43119005,20.0,3.0,42.0,41.774569016455104,-87.60825369766283,"(41.7745690164551, -87.60825369766283)",2013-07-02
Vacant/Abandoned Building,13-00870035,07/02/2013,Front,,Open,ABANDON OVER 15YEARS -- NOT BEING MAINTAINED,Vacant,False,False,1128,W,111TH,PL,60643.0,1170792.24621268,1830860.45997425,34.0,22.0,75.0,41.691353194689924,-87.6503362301187,"(41.69135319468992, -87.65033623011868)",2013-07-02
Vacant/Abandoned Building,13-01061555,07/31/2013,Front,,Open,REAR AND SIDE,Vacant,False,False,5657,S,BISHOP,ST,60636.0,1167630.03559065,1867225.0349931999,16.0,7.0,67.0,41.791211019275416,-87.66087307959585,"(41.791211019275416, -87.66087307959586)",2013-07-31
Vacant/Abandoned Building,13-01044730,07/29/2013,,,,,,,,3318,N,TROY,ST,60618.0,1154796.46906808,1921842.80890184,33.0,17.0,21.0,41.94135392471718,-87.70646892177881,"(41.94135392471717, -87.70646892177881)",2013-07-29
Vacant/Abandoned Building,13-01045435,07/29/2013,,,,,,,,2513,N,LINDEN,PL,60647.0,1155156.77977416,1916458.91862386,35.0,14.0,22.0,41.926572889304616,-87.7052895900679,"(41.926572889304616, -87.7052895900679)",2013-07-29
Vacant/Abandoned Building,13-01044707,07/29/2013,,,,,,,,3625,N,SAWYER,AVE,60618.0,1154075.70009042,1923963.4849123,33.0,17.0,16.0,41.947187645107434,-87.70906127789159,"(41.94718764510744, -87.7090612778916)",2013-07-29
Vacant/Abandoned Building,13-01001795,07/22/2013,Rear,,Open,,Vacant,False,True,5806,W,FULLERTON,AVE,60639.0,1137252.99769935,1915361.00156802,37.0,25.0,19.0,41.923901083784095,-87.77110515244878,"(41.923901083784095, -87.7711051524488)",2013-07-22
Vacant/Abandoned Building,13-00970982,07/17/2013,Front,,Open,"FRONT DOOR, REAR DOOR, AND GARAGE DOOR",Vacant,False,True,3663,S,MICHIGAN,AVE,60653.0,1177796.72048259,1880759.12997428,3.0,2.0,35.0,41.828125507213294,-87.62318414399567,"(41.828125507213294, -87.62318414399567)",2013-07-17
Vacant/Abandoned Building,13-01055784,07/30/2013,Front,,Open,"FRONT, SIDE AND REAR",Vacant,True,False,2248,N,NATCHEZ,AVE,60707.0,1132714.33959992,1914239.08002515,36.0,25.0,19.0,41.920902843210776,-87.78780848932895,"(41.92090284321077, -87.78780848932895)",2013-07-30
Vacant/Abandoned Building,13-01062353,07/31/2013,Front,,Boarded,DOOR,Vacant,False,False,832,W,53RD,ST,60609.0,1171656.13332024,1869669.45006988,3.0,9.0,61.0,41.79783139558744,-87.64603860814476,"(41.79783139558744, -87.64603860814476)",2013-07-31
Vacant/Abandoned Building,13-01044624,07/29/2013,Front,,Boarded,FRONT,Vacant,False,True,1616,S,SAWYER,AVE,60623.0,1154963.9360074,1891680.86008637,24.0,10.0,29.0,41.85858341172178,-87.70666319067972,"(41.85858341172178, -87.70666319067972)",2013-07-29
Vacant/Abandoned Building,13-01045058,07/29/2013,,,,,,,,2429,N,AUSTIN,AVE,60639.0,1135990.58365,1915570.222075,29.0,25.0,19.0,41.92449782825168,-87.77573883492613,"(41.924497828251674, -87.77573883492613)",2013-07-29
Vacant/Abandoned Building,13-01033958,07/26/2013,Front,,Open,THE REAR OF THE BUILDING,Vacant,False,True,614,N,MONTICELLO,AVE,60624.0,1151942.21726807,1903849.51813123,27.0,11.0,23.0,41.89203552531817,-87.71743441268688,"(41.89203552531817, -87.71743441268687)",2013-07-26
Vacant/Abandoned Building,13-01038957,07/29/2013,Front,,Open,FRONT & REAR,Vacant,False,False,751,E,103RD,PL,60628.0,1183042.68090831,1836491.28999667,9.0,5.0,50.0,41.706529629656885,-87.6053121811561,"(41.70652962965688, -87.60531218115611)",2013-07-29
Vacant/Abandoned Building,13-01019053,07/24/2013,Front,,Open,,Vacant,False,False,10609,S,INDIANA,AVE,60628.0,1179461.02141747,1834616.08998197,9.0,5.0,49.0,41.70146616941706,-87.61848498948684,"(41.70146616941706, -87.61848498948684)",2013-07-24
Vacant/Abandoned Building,13-01020852,07/25/2013,Front,,Open,BACK,Vacant,False,False,6949,S,ELIZABETH,ST,60636.0,1169189.30728057,1858696.83066886,17.0,7.0,67.0,41.767774979623425,-87.65540209868216,"(41.76777497962343, -87.65540209868215)",2013-07-25
Vacant/Abandoned Building,13-01001727,07/22/2013,Front,,Open,"REAR WINDOW., OR DOOR",Vacant,False,True,11516,S,LA SALLE,ST,60628.0,1177321.01000888,1828535.43178436,34.0,5.0,53.0,41.68482843158755,-87.62650368316956,"(41.68482843158755, -87.62650368316955)",2013-07-22
Vacant/Abandoned Building,13-01004162,07/23/2013,Front,,Open,,Vacant,False,False,5130,S,THROOP,ST,60609.0,1168529.2862743,1870750.13130454,16.0,9.0,61.0,41.80086493944385,-87.6574740957959,"(41.800864939443855, -87.6574740957959)",2013-07-23
Vacant/Abandoned Building,13-01009238,07/23/2013,Front,,Open,NONE,Vacant,False,False,11535,S,EGGLESTON,AVE,60628.0,1175364.61221542,1828416.62330821,34.0,5.0,53.0,41.68454622726036,-87.63366903722239,"(41.68454622726036, -87.63366903722239)",2013-07-23
Vacant/Abandoned Building,13-01013834,07/24/2013,,,,,,,,5717,S,ELIZABETH,ST,60636.0,1168965.09111559,1866865.59517203,16.0,7.0,67.0,41.79019591438835,-87.6559881023296,"(41.79019591438835, -87.65598810232959)",2013-07-24
Vacant/Abandoned Building,13-01014643,07/24/2013,Front,,Open,FRONT,Vacant,False,True,6529,S,SEELEY,AVE,60636.0,1163818.67118808,1861345.83939559,15.0,7.0,67.0,41.77515869578401,-87.67501362212998,"(41.77515869578401, -87.67501362212997)",2013-07-24
Vacant/Abandoned Building,13-01014673,07/24/2013,Front,,Open,,Vacant,False,False,5948,S,MAY,ST,60621.0,1169669.04001144,1865348.88517739,16.0,7.0,68.0,41.78601863761005,-87.65345089344461,"(41.78601863761005, -87.65345089344461)",2013-07-24
Vacant/Abandoned Building,13-00993638,07/21/2013,Front,,Open,REAR,Vacant,False,True,6245,S,PAULINA,ST,60636.0,1166077.34330366,1863281.61200863,15.0,7.0,67.0,41.780422960417255,-87.66667859066428,"(41.780422960417255, -87.66667859066428)",2013-07-21
Vacant/Abandoned Building,13-00994730,07/22/2013,Front,,Open,,Vacant,False,False,5820,N,CLARK,ST,60660.0,1164671.26721931,1938720.79848232,40.0,20.0,77.0,41.98746392978828,-87.66969471312612,"(41.98746392978827, -87.66969471312613)",2013-07-22
Vacant/Abandoned Building,13-01001622,07/22/2013,Front,,Open,FRONT,Vacant,False,False,10605,S,INDIANA,AVE,60628.0,1179460.42141747,1834640.78998197,9.0,5.0,49.0,41.70153396327761,-87.61848643576839,"(41.70153396327761, -87.61848643576839)",2013-07-22
Vacant/Abandoned Building,13-00895808,07/08/2013,,,,,,,,443,W,BRIAR,PL,60657.0,1172724.15771049,1921030.31196862,44.0,19.0,6.0,41.93874574529643,-87.64060207141044,"(41.93874574529643, -87.64060207141043)",2013-07-08
Vacant/Abandoned Building,13-00964586,07/17/2013,Front,,Open,,Vacant,False,False,12243,S,STATE,ST,60628.0,1178464.73127163,1823678.00996995,9.0,5.0,53.0,41.671473106223544,-87.6224635545056,"(41.67147310622355, -87.62246355450559)",2013-07-17
Vacant/Abandoned Building,13-00965237,07/17/2013,,,,,,,,8401,S,EGGLESTON,AVE,60620.0,1174209.05182758,1848664.94207314,21.0,6.0,71.0,41.74013619501397,-87.63730002085184,"(41.74013619501397, -87.63730002085185)",2013-07-17
Vacant/Abandoned Building,13-00975477,07/18/2013,Front,,Boarded,,Vacant,False,False,10544,S,EBERHART,AVE,60628.0,1181444.95331839,1835150.47811111,9.0,5.0,49.0,41.70288718295939,-87.61120412293053,"(41.702887182959394, -87.61120412293053)",2013-07-18
Vacant/Abandoned Building,13-00978883,07/18/2013,,,,,,,,8511,S,ABERDEEN,ST,60620.0,1170470.74930811,1848369.68991851,21.0,6.0,71.0,41.73940813612776,-87.65100525243082,"(41.739408136127764, -87.65100525243083)",2013-07-18
Vacant/Abandoned Building,13-00940685,07/15/2013,Front,,Open,ALL AROUND,Vacant,False,True,5340,S,JUSTINE,ST,60609.0,1166911.45788658,1869312.58027545,16.0,9.0,61.0,41.796954885680655,-87.6634483049869,"(41.79695488568066, -87.66344830498689)",2013-07-15
Vacant/Abandoned Building,13-00958621,07/16/2013,Front,,Open,ALL OVER,Vacant,False,True,27,N,LOTUS,AVE,60644.0,1139955.11997664,1899679.38942211,28.0,15.0,25.0,41.880819841848286,-87.76156039589239,"(41.88081984184828, -87.76156039589239)",2013-07-16
Vacant/Abandoned Building,13-00959191,07/16/2013,Front,,Open,REAR,Vacant,False,True,4895,N,ASHLAND,AVE,60640.0,1164763.99132677,1932988.78081693,46.0,20.0,3.0,41.97173310911854,-87.66951705380976,"(41.97173310911854, -87.66951705380977)",2013-07-16
Vacant/Abandoned Building,13-00960463,07/16/2013,Front,,Boarded,,Vacant,False,True,5758,S,ELIZABETH,ST,60636.0,1168972.22956871,1866590.99606794,16.0,7.0,67.0,41.789442228000176,-87.65596986048023,"(41.789442228000176, -87.65596986048024)",2013-07-16
