,Creation Date,Status,Completion Date,Service Request Number,Type of Service Request,Street Address,ZIP Code,X Coordinate,Y Coordinate,Ward,Police District,Community Area,Latitude,Longitude,Location,date
37267,07/01/2011,Completed - Dup,01/20/2012,11-03287402,Alley Light Out,4709 W RACE AVE,60644.0,1144872.16002085,1903243.64997075,28.0,11.0,25.0,41.89050927857028,-87.74341521451169,"(41.89050927857028, -87.74341521451169)",2011-07-01
37268,07/01/2011,Completed - Dup,07/01/2011,11-03283310,Alley Light Out,10628 S PEORIA ST,60643.0,1172200.35368851,1834357.30433037,34.0,22.0,73.0,41.70091832624375,-87.64507870800371,"(41.700918326243745, -87.64507870800372)",2011-07-01
37269,07/01/2011,Completed - Dup,07/01/2011,11-03283730,Alley Light Out,3526 W 13TH PL,60623.0,1153071.57531193,1893678.15680575,24.0,10.0,29.0,41.86410191302481,-87.71355649808895,"(41.86410191302481, -87.71355649808896)",2011-07-01
37270,07/01/2011,Completed - Dup,07/01/2011,11-03284470,Alley Light Out,6344 S WINCHESTER AVE,60636.0,1164446.4958865,1862581.37040974,15.0,7.0,67.0,41.778535945320975,-87.67267729473627,"(41.77853594532098, -87.67267729473627)",2011-07-01
37271,07/01/2011,Completed - Dup,07/01/2011,11-03285663,Alley Light Out,6024 W 60TH ST,60638.0,1137167.13979041,1864141.74290065,23.0,8.0,64.0,41.78334947500444,-87.77264951641745,"(41.783349475004435, -87.77264951641746)",2011-07-01
37272,07/01/2011,Completed - Dup,07/01/2011,11-03285909,Alley Light Out,8211 S HERMITAGE AVE,60620.0,1166107.59498208,1850243.18249891,18.0,6.0,71.0,41.74464309174939,-87.66693799758902,"(41.74464309174939, -87.66693799758902)",2011-07-01
37273,07/01/2011,Completed - Dup,07/01/2011,11-03286891,Alley Light Out,4922 N LEAVITT ST,60625.0,1160796.24487146,1932657.69307896,47.0,20.0,4.0,41.97090802520803,-87.68411622626465,"(41.97090802520803, -87.68411622626466)",2011-07-01
37274,07/01/2011,Completed - Dup,07/01/2011,11-03286937,Alley Light Out,4922 N LEAVITT ST,60625.0,1160796.24487146,1932657.69307896,47.0,20.0,4.0,41.97090802520803,-87.68411622626465,"(41.97090802520803, -87.68411622626466)",2011-07-01
37275,07/01/2011,Completed - Dup,07/01/2011,11-03287099,Alley Light Out,1733 W ALTGELD ST,60614.0,1164530.06188242,1916899.86191386,32.0,19.0,7.0,41.927589305610965,-87.67083454621357,"(41.92758930561097, -87.67083454621357)",2011-07-01
37276,07/01/2011,Completed - Dup,07/02/2011,11-03290703,Alley Light Out,7831 S DAMEN AVE,60620.0,1164388.6533881,1852722.4609278,18.0,6.0,71.0,41.75148295253828,-87.6731667486352,"(41.751482952538275, -87.67316674863518)",2011-07-01
37277,07/01/2011,Completed - Dup,07/02/2011,11-03290895,Alley Light Out,4829 S THROOP ST,60609.0,1168475.33087337,1872747.02538215,20.0,9.0,61.0,41.8063458030271,-87.65761439502211,"(41.8063458030271, -87.65761439502211)",2011-07-01
37278,07/01/2011,Completed - Dup,07/02/2011,11-03290899,Alley Light Out,9331 S NORMAL AVE,60620.0,1174605.74742311,1843021.23209502,21.0,22.0,73.0,41.72464029091376,-87.63601410888336,"(41.72464029091376, -87.63601410888336)",2011-07-01
37279,07/01/2011,Completed - Dup,07/07/2011,11-03290576,Alley Light Out,2901 N NEWLAND AVE,60634.0,1129586.46462736,1918513.10008232,36.0,25.0,18.0,41.93268531012904,-87.7992034000942,"(41.93268531012904, -87.7992034000942)",2011-07-01
37280,07/01/2011,Completed - Dup,07/08/2011,11-03288088,Alley Light Out,8916 S ESSEX AVE,60617.0,1194380.63012149,1846285.59509349,7.0,4.0,48.0,41.73313559648162,-87.56347298038642,"(41.733135596481624, -87.56347298038644)",2011-07-01
37281,07/01/2011,Completed - Dup,07/10/2011,11-03283354,Alley Light Out,1058 N CHRISTIANA AVE,60651.0,1153795.91997284,1906915.96752108,26.0,11.0,23.0,41.90041344135654,-87.71054478290002,"(41.90041344135655, -87.71054478290002)",2011-07-01
37282,07/01/2011,Completed - Dup,07/12/2011,11-03284268,Alley Light Out,6549 S HALSTED ST,60621.0,1172100.12730778,1861298.06189285,20.0,7.0,68.0,41.77484961527096,-87.6446563072709,"(41.77484961527096, -87.6446563072709)",2011-07-01
37283,07/01/2011,Completed - Dup,07/13/2011,11-03284312,Alley Light Out,3131 S SPRINGFIELD AVE,60623.0,1150871.8480926,1883551.09171032,22.0,10.0,30.0,41.83635528961809,-87.7218963811746,"(41.83635528961809, -87.7218963811746)",2011-07-01
37284,07/01/2011,Completed - Dup,07/14/2011,11-03290619,Alley Light Out,6125 W FLETCHER ST,60634.0,1135010.95022095,1920300.1079136,36.0,25.0,19.0,41.937494592701384,-87.77922616682156,"(41.93749459270138, -87.77922616682154)",2011-07-01
37285,07/01/2011,Completed - Dup,07/14/2011,11-03290727,Alley Light Out,6126 W CORNELIA AVE,60634.0,1134920.67261673,1922636.22996696,38.0,16.0,17.0,41.943906765399774,-87.77950248812414,"(41.94390676539977, -87.77950248812414)",2011-07-01
37286,07/01/2011,Completed - Dup,07/15/2011,11-03290878,Alley Light Out,8550 S PEORIA ST,60620.0,1171794.11857463,1848474.95016868,21.0,6.0,71.0,41.73966808932382,-87.64615357439767,"(41.73966808932382, -87.64615357439769)",2011-07-01
37287,07/01/2011,Completed - Dup,08/02/2011,11-03287401,Alley Light Out,4424 N HAMLIN AVE,60625.0,1150259.77752047,1929220.04988135,39.0,17.0,14.0,41.96168745821169,-87.72295005240271,"(41.961687458211685, -87.7229500524027)",2011-07-01
37288,07/01/2011,Completed - Dup,08/02/2011,11-03288899,Alley Light Out,4400 S WASHTENAW AVE,60632.0,1159101.87848407,1875382.6131880002,12.0,9.0,58.0,41.81377527446697,-87.69192094414659,"(41.81377527446697, -87.6919209441466)",2011-07-01
37289,07/01/2011,Completed - Dup,08/03/2011,11-03283224,Alley Light Out,9810 S PRINCETON AVE,60628.0,1176018.32042083,1839853.40453128,21.0,5.0,49.0,41.71591582551386,-87.63093455734345,"(41.71591582551386, -87.63093455734344)",2011-07-01
37290,07/01/2011,Completed - Dup,08/03/2011,11-03283313,Alley Light Out,10054 S CARPENTER ST,60643.0,1171091.76531247,1838138.68988934,34.0,22.0,73.0,41.71131926674144,-87.64902793653324,"(41.711319266741434, -87.64902793653324)",2011-07-01
37291,07/01/2011,Completed - Dup,08/03/2011,11-03285139,Alley Light Out,4120 S MAPLEWOOD AVE,60632.0,1160045.4002928,1877242.03260997,12.0,9.0,58.0,41.81885837117395,-87.68840882682044,"(41.81885837117395, -87.68840882682042)",2011-07-01
37292,07/01/2011,Completed - Dup,08/03/2011,11-03285167,Alley Light Out,10240 S PARNELL AVE,60628.0,1174441.86080823,1836987.97272936,9.0,22.0,73.0,41.708087817609076,-87.63679321240471,"(41.70808781760908, -87.63679321240471)",2011-07-01
37293,07/01/2011,Completed - Dup,08/03/2011,11-03286226,Alley Light Out,5526 S OAK PARK AVE,60638.0,1131990.93502629,1867144.9460772,23.0,8.0,56.0,41.79168188142325,-87.79155830024689,"(41.79168188142325, -87.79155830024689)",2011-07-01
37294,07/01/2011,Completed - Dup,08/03/2011,11-03287311,Alley Light Out,5831 N MILTIMORE AVE,60646.0,1136583.09000442,1938275.64288049,45.0,16.0,11.0,41.98679314038786,-87.77301618567829,"(41.98679314038786, -87.7730161856783)",2011-07-01
37295,07/01/2011,Completed - Dup,08/03/2011,11-03288295,Alley Light Out,3022 N SAYRE AVE,60634.0,1129058.68801211,1919403.4298811,36.0,25.0,18.0,41.935137489447364,-87.80112265404942,"(41.93513748944737, -87.80112265404942)",2011-07-01
37296,07/01/2011,Completed - Dup,08/03/2011,11-03288399,Alley Light Out,7751 S CLYDE AVE,60649.0,1191548.04067711,1853986.02036799,8.0,4.0,43.0,41.754335310859034,-87.57360085534208,"(41.75433531085903, -87.57360085534208)",2011-07-01
37297,07/01/2011,Completed - Dup,08/03/2011,11-03288699,Alley Light Out,7615 W PALATINE AVE,60631.0,1124591.19910696,1941226.20800492,41.0,16.0,10.0,41.99509659947297,-87.81705797004555,"(41.99509659947298, -87.81705797004554)",2011-07-01
37298,07/01/2011,Completed - Dup,08/03/2011,11-03288872,Alley Light Out,6946 S EGGLESTON AVE,60621.0,1174479.48997302,1858866.90101556,6.0,7.0,68.0,41.7681256150501,-87.63600620944409,"(41.7681256150501, -87.63600620944408)",2011-07-01
37299,07/01/2011,Completed - Dup,08/03/2011,11-03289080,Alley Light Out,5282 N LUNA AVE,60630.0,1138180.22300815,1934783.64067872,45.0,16.0,11.0,41.97718197481045,-87.7672267155887,"(41.97718197481045, -87.7672267155887)",2011-07-01
37300,07/01/2011,Completed - Dup,08/03/2011,11-03289223,Alley Light Out,6105 S TRIPP AVE,60629.0,1149084.58161377,1863780.23993047,13.0,8.0,65.0,41.782135896601794,-87.72896476780399,"(41.78213589660179, -87.72896476780399)",2011-07-01
37301,07/01/2011,Completed - Dup,08/03/2011,11-03289528,Alley Light Out,11210 S CHAMPLAIN AVE,60628.0,1182587.76999907,1830682.42778231,9.0,5.0,50.0,41.69059988699236,-87.60715738369156,"(41.69059988699236, -87.60715738369156)",2011-07-01
37302,07/01/2011,Completed - Dup,08/03/2011,11-03289682,Alley Light Out,8744 S BENNETT AVE,60617.0,1190370.41800079,1847370.92548319,8.0,4.0,48.0,41.73621134060794,-87.57812915537676,"(41.736211340607944, -87.57812915537677)",2011-07-01
37303,07/01/2011,Completed - Dup,08/03/2011,11-03289696,Alley Light Out,6637 S UNIVERSITY AVE,60637.0,1184692.63166876,1861222.34451155,5.0,3.0,42.0,41.77435584939046,-87.5984968655506,"(41.77435584939046, -87.5984968655506)",2011-07-01
37304,07/01/2011,Completed - Dup,08/03/2011,11-03289835,Alley Light Out,6964 N HAMILTON AVE,60645.0,1160743.94318538,1946190.63849165,50.0,24.0,2.0,42.00804401354252,-87.68393120780622,"(42.008044013542516, -87.68393120780622)",2011-07-01
37305,07/01/2011,Completed - Dup,08/03/2011,11-03290432,Alley Light Out,2448 W 45TH PL,60632.0,1160780.80310421,1874436.20007145,12.0,9.0,58.0,41.81114364779626,-87.68578864990013,"(41.81114364779626, -87.68578864990013)",2011-07-01
37306,07/01/2011,Completed - Dup,08/03/2011,11-03290667,Alley Light Out,5529 S KOSTNER AVE,60629.0,1147971.62092439,1867579.96127176,13.0,8.0,62.0,41.79258433112203,-87.7329479596634,"(41.79258433112203, -87.7329479596634)",2011-07-01
37307,07/01/2011,Completed - Dup,08/17/2011,11-03288878,Alley Light Out,3037 W 37TH PL,60632.0,1156728.91001232,1879599.69001058,12.0,9.0,58.0,41.82539574310574,-87.70051130841982,"(41.825395743105744, -87.70051130841982)",2011-07-01
37308,07/01/2011,Completed - Dup,08/17/2011,11-03289199,Alley Light Out,3144 W 40TH PL,60632.0,1156047.97132044,1877597.42850628,14.0,9.0,58.0,41.819915019501536,-87.70306340016553,"(41.81991501950153, -87.70306340016555)",2011-07-01
37309,07/01/2011,Completed - Dup,08/17/2011,11-03289251,Alley Light Out,8008 S FRANCISCO AVE,60652.0,1158436.82281434,1851389.19319233,18.0,8.0,70.0,41.74794750493275,-87.69501375362341,"(41.74794750493275, -87.69501375362341)",2011-07-01
37310,07/01/2011,Completed - Dup,08/30/2011,11-03285629,Alley Light Out,4053 N MELVINA AVE,60634.0,1134296.57420594,1926384.8400773997,38.0,16.0,15.0,41.95420438872903,-87.78170774982857,"(41.95420438872903, -87.78170774982856)",2011-07-01
37311,07/01/2011,Completed - Dup,10/07/2011,11-03288431,Alley Light Out,3546 N NEENAH AVE,60634.0,1132077.69366825,1922875.40169278,36.0,16.0,17.0,41.94461300962122,-87.78994659569338,"(41.94461300962122, -87.78994659569337)",2011-07-01
37312,07/01/2011,Completed - Dup,11/15/2011,11-03287532,Alley Light Out,10324 S LOWE AVE,60628.0,1173794.83733258,1836427.44822126,34.0,22.0,49.0,41.70656399357113,-87.63917918682642,"(41.70656399357113, -87.63917918682642)",2011-07-01
37313,07/01/2011,Completed - Dup,11/15/2011,11-03287796,Alley Light Out,10107 S MORGAN ST,60643.0,1171433.22666969,1837798.08043174,34.0,22.0,73.0,41.71037712971817,-87.64778735635835,"(41.710377129718175, -87.64778735635836)",2011-07-01
37314,07/01/2011,Completed - Dup,11/15/2011,11-03289963,Alley Light Out,10628 S PEORIA ST,60643.0,1172200.35368851,1834357.30433037,34.0,22.0,73.0,41.70091832624375,-87.64507870800371,"(41.700918326243745, -87.64507870800372)",2011-07-01
37315,07/01/2011,Completed - Dup,12/28/2011,11-03290701,Alley Light Out,6815 S HERMITAGE AVE,60636.0,1165854.74121228,1859500.51352858,17.0,7.0,67.0,41.770051865782754,-87.6676019991271,"(41.77005186578275, -87.6676019991271)",2011-07-01
37316,07/01/2011,Completed,01/09/2012,11-03289951,Alley Light Out,2310 N OAKLEY AVE,60647.0,1160640.4081799,1915467.31062904,32.0,14.0,22.0,41.92373986625688,-87.68516726501508,"(41.923739866256874, -87.68516726501508)",2011-07-01
37317,07/01/2011,Completed,01/10/2012,11-03289557,Alley Light Out,10001 S ARTESIAN AVE,60655.0,1161796.16282644,1838265.51823266,19.0,22.0,72.0,41.71186498579107,-87.68306727791565,"(41.711864985791074, -87.68306727791564)",2011-07-01
37318,07/01/2011,Completed,01/11/2012,11-03290639,Alley Light Out,3566 W LYNDALE ST,60647.0,1152252.58350766,1914724.36071305,26.0,14.0,22.0,41.92187099030365,-87.7160071363793,"(41.92187099030365, -87.7160071363793)",2011-07-01
37319,07/01/2011,Completed,01/17/2012,11-03290632,Alley Light Out,4612 S WINCHESTER AVE,60609.0,1164129.14007564,1874089.68547757,20.0,9.0,61.0,41.81012288162656,-87.67351692299063,"(41.810122881626555, -87.67351692299063)",2011-07-01
37320,07/01/2011,Completed,01/18/2012,11-03284410,Alley Light Out,5445 S CARPENTER ST,60609.0,1170238.75718816,1868705.16777639,16.0,9.0,61.0,41.79521627818568,-87.65126440569405,"(41.795216278185684, -87.65126440569405)",2011-07-01
37321,07/01/2011,Completed,01/18/2012,11-03287231,Alley Light Out,5620 S ABERDEEN ST,60621.0,1169940.93952816,1867535.94860446,16.0,7.0,68.0,41.792014287615814,-87.65239046698632,"(41.792014287615814, -87.65239046698632)",2011-07-01
37322,07/01/2011,Completed,01/19/2012,11-03283685,Alley Light Out,4817 W LEXINGTON ST,60644.0,1144295.28431074,1896190.57219821,24.0,15.0,25.0,41.87116564471905,-87.7457111555177,"(41.871165644719056, -87.74571115551768)",2011-07-01
37323,07/01/2011,Completed,01/27/2012,11-03285283,Alley Light Out,2311 W WILSON AVE,60625.0,1160098.54988473,1930463.42300016,47.0,19.0,4.0,41.96490132084666,-87.68674260817555,"(41.964901320846664, -87.68674260817554)",2011-07-01
37324,07/01/2011,Completed,02/16/2012,11-03283725,Alley Light Out,3500 W 13TH PL,60623.0,1153245.97531193,1893681.95680575,24.0,10.0,29.0,41.86410888391303,-87.71291617716267,"(41.864108883913026, -87.71291617716267)",2011-07-01
37325,07/01/2011,Completed,03/02/2012,11-03288328,Alley Light Out,1425 S TRIPP AVE,60623.0,1148281.83752337,1892867.80857236,24.0,10.0,29.0,41.86197175985835,-87.73116047154464,"(41.86197175985834, -87.73116047154464)",2011-07-01
37326,07/01/2011,Completed,03/08/2012,11-03283680,Alley Light Out,1300 S CENTRAL PARK AVE,60623.0,1152578.60451131,1893779.52003322,24.0,10.0,29.0,41.864389816974686,-87.71536350955195,"(41.864389816974686, -87.71536350955196)",2011-07-01
37327,07/01/2011,Completed,03/16/2012,11-03288664,Alley Light Out,8231 S SAGINAW AVE,60617.0,1195268.57588989,1850905.50427756,7.0,4.0,46.0,41.745791169224404,-87.56006800313557,"(41.745791169224404, -87.56006800313557)",2011-07-01
37328,07/01/2011,Completed,03/22/2012,11-03289893,Alley Light Out,1335 N MILWAUKEE AVE,60642.0,1164611.70013374,1909065.11006739,1.0,14.0,24.0,41.906088511593325,-87.67075698050007,"(41.90608851159333, -87.67075698050007)",2011-07-01
37329,07/01/2011,Completed,03/28/2012,11-03289307,Alley Light Out,4050 N BERNARD ST,60618.0,1152680.73329457,1926377.39137849,35.0,17.0,16.0,41.953839342585475,-87.71412472113346,"(41.95383934258548, -87.71412472113347)",2011-07-01
37330,07/01/2011,Completed,04/04/2012,11-03290860,Alley Light Out,5348 S HERMITAGE AVE,60609.0,1165587.96432994,1869228.66302898,16.0,9.0,61.0,41.796752806162615,-87.66830409450142,"(41.79675280616262, -87.66830409450142)",2011-07-01
37331,07/01/2011,Completed,07/02/2011,11-03287542,Alley Light Out,3110 W PALMER BLVD,60647.0,1155120.4401933998,1914309.57579456,35.0,14.0,22.0,41.920675651275026,-87.70548094905243,"(41.92067565127502, -87.70548094905243)",2011-07-01
37332,07/01/2011,Completed,07/02/2011,11-03290585,Alley Light Out,7557 S STEWART AVE,60620.0,1174934.50867678,1854826.33738292,17.0,6.0,69.0,41.75702769807799,-87.63445868933495,"(41.75702769807799, -87.63445868933496)",2011-07-01
37333,07/01/2011,Completed,08/25/2011,11-03285945,Alley Light Out,5252 N VIRGINIA AVE,60625.0,1155587.24216656,1934835.98000033,40.0,20.0,4.0,41.976992082895016,-87.70321134607563,"(41.976992082895016, -87.70321134607562)",2011-07-01
37334,07/01/2011,Completed,09/01/2011,11-03290604,Alley Light Out,4325 S ST LAWRENCE AVE,60653.0,1180982.24459285,1876465.38497285,4.0,2.0,38.0,41.81627029447963,-87.61162923398571,"(41.81627029447963, -87.61162923398572)",2011-07-01
37335,07/01/2011,Completed,09/02/2011,11-03288138,Alley Light Out,3124 S AVERS AVE,60623.0,1151203.2229098,1883607.73158219,22.0,10.0,30.0,41.83650423742542,-87.72067894994461,"(41.83650423742542, -87.72067894994461)",2011-07-01
37336,07/01/2011,Completed,09/02/2011,11-03289842,Alley Light Out,2520 S KEDVALE AVE,60623.0,1149232.02737387,1886852.94542446,22.0,10.0,30.0,41.84544788284303,-87.72782814063245,"(41.84544788284303, -87.72782814063245)",2011-07-01
37337,07/01/2011,Completed,09/02/2011,11-03290207,Alley Light Out,3130 S KARLOV AVE,60623.0,1149542.99649972,1883522.07098282,22.0,10.0,30.0,41.836301506498216,-87.72677323360863,"(41.836301506498216, -87.72677323360863)",2011-07-01
37338,07/01/2011,Completed,09/02/2011,11-03290408,Alley Light Out,2448 W 45TH PL,60632.0,1160780.80310421,1874436.20007145,12.0,9.0,58.0,41.81114364779626,-87.68578864990013,"(41.81114364779626, -87.68578864990013)",2011-07-01
37339,07/01/2011,Completed,09/02/2011,11-03290415,Alley Light Out,2448 W 45TH ST,60632.0,1160687.60989431,1874764.65319082,12.0,9.0,58.0,41.812046890070356,-87.68612140408645,"(41.812046890070356, -87.68612140408645)",2011-07-01
37340,07/01/2011,Completed,09/23/2011,11-03290054,Alley Light Out,3536 N HAMILTON AVE,60618.0,1161397.84589989,1923459.61813127,47.0,19.0,5.0,41.94565551023931,-87.68216109601713,"(41.94565551023931, -87.68216109601713)",2011-07-01
37341,07/01/2011,Completed,09/28/2011,11-03290559,Alley Light Out,3411 S RACINE AVE,60608.0,1168882.00931503,1882119.41032307,11.0,9.0,60.0,41.83205580792553,-87.6558518124877,"(41.832055807925535, -87.65585181248771)",2011-07-01
37342,07/01/2011,Completed,10/03/2011,11-03290006,Alley Light Out,11111 S EMERALD AVE,60628.0,1173296.26829621,1831176.66092723,34.0,22.0,49.0,41.692166050391506,-87.64115945782059,"(41.69216605039151, -87.6411594578206)",2011-07-01
37343,07/01/2011,Completed,10/04/2011,11-03287984,Alley Light Out,549 E 46TH ST,60653.0,1180804.08012317,1874640.15743347,3.0,2.0,38.0,41.81126582859221,-87.61233894735678,"(41.81126582859221, -87.61233894735678)",2011-07-01
37344,07/01/2011,Completed,10/12/2011,11-03290907,Alley Light Out,8544 S BURLEY AVE,60617.0,1199294.90636819,1848937.92701318,10.0,4.0,46.0,41.740291760825095,-87.54538109559694,"(41.740291760825095, -87.54538109559694)",2011-07-01
37345,07/01/2011,Completed,11/23/2011,11-03284692,Alley Light Out,2044 W ADDISON ST,60618.0,1161986.8614053002,1923897.48400409,47.0,19.0,5.0,41.946844738960735,-87.67998382004942,"(41.946844738960735, -87.67998382004942)",2011-07-01
37346,07/01/2011,Completed,11/23/2011,11-03285462,Alley Light Out,11659 S LOWE AVE,60628.0,1174037.39328437,1827691.27421982,34.0,5.0,53.0,41.68258523098322,-87.63854901055645,"(41.682585230983214, -87.63854901055646)",2011-07-01
37347,07/01/2011,Completed,12/01/2011,11-03290430,Alley Light Out,2424 W TAYLOR ST,60612.0,1160372.15781839,1895638.21990138,28.0,11.0,28.0,41.869332761653034,-87.68670205398638,"(41.86933276165303, -87.68670205398637)",2011-07-01
37348,07/01/2011,Completed,12/15/2011,11-03288660,Alley Light Out,8700 S ELIZABETH ST,60620.0,1169511.71162026,1847089.45928503,21.0,22.0,71.0,41.73591581491714,-87.6545560017268,"(41.73591581491714, -87.65455600172679)",2011-07-01
37349,07/01/2011,Completed,12/21/2011,11-03289658,Alley Light Out,318 E 70TH ST,60637.0,1179434.38729811,1858672.76948205,6.0,3.0,69.0,41.76748122629983,-87.61785023420954,"(41.76748122629983, -87.61785023420953)",2011-07-01
37350,07/01/2011,Completed,12/21/2011,11-03290115,Alley Light Out,7730 S CALUMET AVE,60619.0,1179812.96158651,1853829.38548224,6.0,6.0,69.0,41.75418180838233,-87.6166105218993,"(41.75418180838233, -87.6166105218993)",2011-07-01
37351,07/01/2011,Completed,12/27/2011,11-03286099,Alley Light Out,5306 N MELVINA AVE,60630.0,1133727.33777941,1934901.77108852,45.0,16.0,11.0,41.977585718709676,-87.78359949032091,"(41.97758571870968, -87.78359949032091)",2011-07-01
37352,07/01/2011,Completed,12/28/2011,11-03290914,Alley Light Out,7027 S WOOD ST,60636.0,1165562.72138371,1858087.26292654,17.0,7.0,67.0,41.76617991376547,-87.66871245336536,"(41.76617991376547, -87.66871245336536)",2011-07-01
37380,07/02/2011,Completed - Dup,07/03/2011,11-03291142,Alley Light Out,459 W 23RD PL,60616.0,1173428.21690816,1888683.83823047,25.0,9.0,34.0,41.84996954329578,-87.63897658398135,"(41.849969543295785, -87.63897658398135)",2011-07-02
37381,07/02/2011,Completed - Dup,07/03/2011,11-03291166,Alley Light Out,9308 S HALSTED ST,60620.0,1172615.24458833,1843066.77736633,21.0,22.0,73.0,41.72480928894571,-87.64330395364115,"(41.7248092889457, -87.64330395364114)",2011-07-02
37382,07/02/2011,Completed - Dup,07/03/2011,11-03291585,Alley Light Out,3724 N NEVA AVE,60634.0,1127740.77922739,1923916.49371712,36.0,16.0,17.0,41.94754422634478,-87.80586406460047,"(41.94754422634478, -87.80586406460047)",2011-07-02
37383,07/02/2011,Completed - Dup,07/03/2011,11-03291648,Alley Light Out,2541 S ELEANOR ST,60608.0,1168415.59542331,1887243.65159821,11.0,9.0,60.0,41.84612728976768,-87.65741518162805,"(41.84612728976768, -87.65741518162807)",2011-07-02
37384,07/02/2011,Completed - Dup,07/03/2011,11-03293416,Alley Light Out,5725 N EAST CIRCLE AVE,60631.0,1128488.1543043002,1937792.95428989,41.0,16.0,10.0,41.98561005872588,-87.80280100360723,"(41.985610058725875, -87.80280100360723)",2011-07-02
37385,07/02/2011,Completed - Dup,07/03/2011,11-03293442,Alley Light Out,7721 S THROOP ST,60620.0,1169221.86803172,1853577.4811749,17.0,6.0,71.0,41.75372611206347,-87.6554306241341,"(41.75372611206347, -87.65543062413411)",2011-07-02
37386,07/02/2011,Completed - Dup,07/03/2011,11-03293494,Alley Light Out,3017 W FIFTH AVE,60612.0,1156228.14438512,1899328.40779265,28.0,11.0,27.0,41.879543664925656,-87.70181619040237,"(41.879543664925656, -87.70181619040237)",2011-07-02
37387,07/02/2011,Completed - Dup,07/12/2011,11-03290982,Alley Light Out,6750 S LOOMIS BLVD,60636.0,1168149.60292478,1860323.9985663001,17.0,7.0,67.0,41.772262561547365,-87.65916633242321,"(41.77226256154737, -87.65916633242321)",2011-07-02
37388,07/02/2011,Completed - Dup,07/13/2011,11-03292832,Alley Light Out,2541 W 39TH PL,60632.0,1160071.16162561,1878388.39000213,12.0,9.0,58.0,41.82200358299906,-87.68828275403555,"(41.822003582999066, -87.68828275403554)",2011-07-02
37389,07/02/2011,Completed - Dup,07/22/2011,11-03291140,Alley Light Out,476 W 24TH ST,60616.0,1173313.11732813,1888350.41989645,25.0,9.0,34.0,41.8490571701869,-87.63940890207145,"(41.84905717018691, -87.63940890207145)",2011-07-02
37390,07/02/2011,Completed - Dup,07/26/2011,11-03293306,Alley Light Out,6128 N ARTESIAN AVE,60659.0,1158877.23911904,1940612.42127071,50.0,24.0,2.0,41.992775838886146,-87.69095322496702,"(41.992775838886146, -87.69095322496702)",2011-07-02
37391,07/02/2011,Completed - Dup,08/02/2011,11-03291483,Alley Light Out,7311 W ADDISON ST,60634.0,1126659.30838249,1923058.21570357,36.0,16.0,17.0,41.94520720333722,-87.80985863678781,"(41.94520720333722, -87.80985863678781)",2011-07-02
37392,07/02/2011,Completed - Dup,08/02/2011,11-03291733,Alley Light Out,10314 S EMERALD AVE,60628.0,1173131.02283087,1836462.5320666,34.0,22.0,49.0,41.70667492688902,-87.64160901601136,"(41.70667492688902, -87.64160901601134)",2011-07-02
37393,07/02/2011,Completed - Dup,08/03/2011,11-03290963,Alley Light Out,7644 S SANGAMON ST,60620.0,1171299.68559839,1854145.08991857,17.0,6.0,71.0,41.755238524614,-87.64779958604595,"(41.755238524614, -87.64779958604595)",2011-07-02
37394,07/02/2011,Completed - Dup,08/03/2011,11-03290974,Alley Light Out,7644 S SANGAMON ST,60620.0,1171299.68559839,1854145.08991857,17.0,6.0,71.0,41.755238524614,-87.64779958604595,"(41.755238524614, -87.64779958604595)",2011-07-02
37395,07/02/2011,Completed - Dup,08/03/2011,11-03291635,Alley Light Out,6964 N HAMILTON AVE,60645.0,1160743.94318538,1946190.63849165,50.0,24.0,2.0,42.00804401354252,-87.68393120780622,"(42.008044013542516, -87.68393120780622)",2011-07-02
37396,07/02/2011,Completed - Dup,08/03/2011,11-03291859,Alley Light Out,12943 S ESCANABA AVE,60633.0,1197425.91569381,1819739.05468649,10.0,4.0,55.0,41.660213984036105,-87.55319775457234,"(41.6602139840361, -87.55319775457234)",2011-07-02
37397,07/02/2011,Completed - Dup,08/03/2011,11-03292829,Alley Light Out,2535 W 39TH PL,60632.0,1160111.36162561,1878389.69000213,12.0,9.0,58.0,41.82200632207631,-87.68813524196058,"(41.822006322076305, -87.68813524196058)",2011-07-02
37398,07/02/2011,Completed - Dup,08/03/2011,11-03293514,Alley Light Out,8800 S THROOP ST,60620.0,1169200.21650797,1846416.00448599,21.0,22.0,71.0,41.734074494490145,-87.65571663207086,"(41.73407449449014, -87.65571663207088)",2011-07-02
37399,07/02/2011,Completed - Dup,08/03/2011,11-03293544,Alley Light Out,6964 W FOSTER AVE,60656.0,1128791.57000382,1934124.57507234,41.0,16.0,10.0,41.97553849913296,-87.80176876571024,"(41.97553849913296, -87.80176876571024)",2011-07-02
37400,07/02/2011,Completed - Dup,10/01/2011,11-03291352,Alley Light Out,5559 S WHIPPLE ST,60629.0,1156993.34509995,1867613.11280823,14.0,8.0,63.0,41.79249764656236,-87.69986529766747,"(41.79249764656236, -87.69986529766747)",2011-07-02
37401,07/02/2011,Completed,01/05/2012,11-03291009,Alley Light Out,8610 S RHODES AVE,60619.0,1181301.98912834,1847976.3365038002,6.0,6.0,44.0,41.7380862188758,-87.61133374581655,"(41.7380862188758, -87.61133374581657)",2011-07-02
37402,07/02/2011,Completed,01/06/2012,11-03291984,Alley Light Out,6717 S HONORE ST,60636.0,1165173.22767845,1860134.85348672,15.0,7.0,67.0,41.77180702823821,-87.67008221588159,"(41.771807028238214, -87.6700822158816)",2011-07-02
37403,07/02/2011,Completed,01/09/2012,11-03293412,Alley Light Out,1109 N HOMAN AVE,60651.0,1153500.24667218,1907188.42329125,26.0,11.0,23.0,41.90116697050024,-87.71162355765921,"(41.90116697050024, -87.71162355765921)",2011-07-02
37404,07/02/2011,Completed,01/12/2012,11-03293314,Alley Light Out,2942 N SAYRE AVE,60634.0,1129074.96450026,1918879.95011361,36.0,25.0,18.0,41.9337007202719,-87.80107477986549,"(41.9337007202719, -87.80107477986549)",2011-07-02
37405,07/02/2011,Completed,01/18/2012,11-03293352,Alley Light Out,5902 W MIDWAY PARK,60644.0,1137053.30428672,1902634.55528209,29.0,15.0,25.0,41.888981762889706,-87.77214484604026,"(41.8889817628897, -87.77214484604026)",2011-07-02
37406,07/02/2011,Completed,01/23/2012,11-03291063,Alley Light Out,6831 W THORNDALE AVE,60631.0,1129910.08962775,1938759.65301326,41.0,16.0,10.0,41.98823848246605,-87.79754886226497,"(41.988238482466045, -87.79754886226499)",2011-07-02
37407,07/02/2011,Completed,01/27/2012,11-03293289,Alley Light Out,2614 E 74TH ST,60649.0,1194893.9345918999,1856496.23660319,7.0,3.0,43.0,41.76114179920499,-87.5612568988291,"(41.76114179920499, -87.56125689882909)",2011-07-02
37408,07/02/2011,Completed,03/01/2012,11-03293399,Alley Light Out,2817 W IRVING PARK RD,60618.0,1156806.01810826,1926455.24840253,33.0,17.0,16.0,41.95397019519419,-87.69895754091337,"(41.95397019519419, -87.69895754091337)",2011-07-02
37409,07/02/2011,Completed,03/02/2012,11-03291087,Alley Light Out,2743 W CHASE AVE,60645.0,1156808.51368633,1948299.86017807,50.0,24.0,2.0,42.01391279289936,-87.69835302525465,"(42.013912792899355, -87.69835302525466)",2011-07-02
37410,07/02/2011,Completed,03/06/2012,11-03293496,Alley Light Out,3727 W FLOURNOY ST,60624.0,1151697.87637571,1896773.43799359,24.0,11.0,27.0,41.87262281785088,-87.71851795185042,"(41.872622817850875, -87.7185179518504)",2011-07-02
37411,07/02/2011,Completed,03/12/2012,11-03291892,Alley Light Out,1907 S HOMAN AVE,60623.0,1154002.49998469,1890430.98000947,24.0,10.0,29.0,41.85517279999087,-87.71022559833072,"(41.85517279999087, -87.71022559833072)",2011-07-02
37412,07/02/2011,Completed,04/18/2012,11-03291343,Alley Light Out,321 N LONG AVE,60644.0,1140282.6502027,1901709.72000277,28.0,15.0,25.0,41.8863853318586,-87.76030793222559,"(41.8863853318586, -87.76030793222559)",2011-07-02
37413,07/02/2011,Completed,07/02/2011,11-03291029,Alley Light Out,2638 S HILLOCK AVE,60608.0,1168544.7000201,1886842.55996732,11.0,9.0,60.0,41.84502386861818,-87.65695297128296,"(41.84502386861818, -87.65695297128295)",2011-07-02
37414,07/02/2011,Completed,07/02/2011,11-03291093,Alley Light Out,5055 N MARMORA AVE,60630.0,1135857.87520794,1933350.22891411,45.0,16.0,11.0,41.973290360936865,-87.77580148916338,"(41.97329036093687, -87.77580148916337)",2011-07-02
37415,07/02/2011,Completed,07/26/2011,11-03293167,Alley Light Out,3406 W BERTEAU AVE,60618.0,1152901.10370356,1927710.26980814,33.0,17.0,16.0,41.957492480348726,-87.71327915822947,"(41.95749248034873, -87.71327915822947)",2011-07-02
37416,07/02/2011,Completed,10/12/2011,11-03291949,Alley Light Out,9647 S AVENUE N,60617.0,1201126.80621291,1841720.2300035,10.0,4.0,52.0,41.72043964839539,-87.53891346799598,"(41.72043964839539, -87.53891346799598)",2011-07-02
37417,07/02/2011,Completed,11/11/2011,11-03291670,Alley Light Out,1252 E 96TH ST,60628.0,1186320.28868154,1841565.02857551,8.0,5.0,50.0,41.720375893231825,-87.59315011817844,"(41.720375893231825, -87.59315011817843)",2011-07-02
37418,07/02/2011,Completed,11/23/2011,11-03293163,Alley Light Out,10413 S EMERALD AVE,60628.0,1173150.99391579,1835800.02710711,34.0,22.0,49.0,41.70485647435296,-87.6415553716013,"(41.70485647435296, -87.64155537160129)",2011-07-02
37419,07/02/2011,Completed,11/25/2011,11-03290998,Alley Light Out,1108 W 112TH ST,60643.0,1170937.4857043002,1830531.62538708,34.0,22.0,75.0,41.690447658298545,-87.64981404627396,"(41.690447658298545, -87.64981404627395)",2011-07-02
37420,07/02/2011,Completed,11/29/2011,11-03291205,Alley Light Out,12247 S GREEN ST,60643.0,1172877.47952799,1823633.55440721,34.0,5.0,53.0,41.67147577497264,-87.64291401070726,"(41.67147577497264, -87.64291401070726)",2011-07-02
37421,07/02/2011,Completed,12/01/2011,11-03293373,Alley Light Out,1 W 115TH ST,60628.0,1178306.72253029,1828723.378391,34.0,5.0,53.0,41.68532193526786,-87.62288959920599,"(41.68532193526786, -87.62288959920598)",2011-07-02
37422,07/02/2011,Completed,12/02/2011,11-03291602,Alley Light Out,4301 W 83RD ST,60652.0,1149178.55007986,1849173.54570711,18.0,8.0,70.0,41.74205084117818,-87.72899648042652,"(41.742050841178184, -87.72899648042652)",2011-07-02
37423,07/02/2011,Completed,12/08/2011,11-03292107,Alley Light Out,5616 S KOLMAR AVE,60629.0,1146986.21367233,1866985.65882296,13.0,8.0,62.0,41.79097229842419,-87.73657649492806,"(41.790972298424194, -87.73657649492807)",2011-07-02
37424,07/02/2011,Completed,12/12/2011,11-03291810,Alley Light Out,6421 W ARCHER AVE,60638.0,1134423.53342685,1867396.1611098999,23.0,8.0,56.0,41.79232884743718,-87.78263230665588,"(41.79232884743718, -87.78263230665588)",2011-07-02
37425,07/02/2011,Completed,12/28/2011,11-03293448,Alley Light Out,7145 S HERMITAGE AVE,60636.0,1165916.55468224,1857310.8130296,17.0,7.0,67.0,41.76404172036222,-87.6674375567677,"(41.76404172036222, -87.66743755676768)",2011-07-02
37464,07/03/2011,Completed - Dup,07/04/2011,11-03293953,Alley Light Out,329 W 23RD PL,60616.0,1174268.50833186,1888706.00030303,25.0,21.0,34.0,41.850011671747694,-87.63589195092918,"(41.850011671747694, -87.63589195092919)",2011-07-03
37465,07/03/2011,Completed - Dup,07/04/2011,11-03293958,Alley Light Out,459 W 23RD PL,60616.0,1173428.21690816,1888683.83823047,25.0,9.0,34.0,41.84996954329578,-87.63897658398135,"(41.849969543295785, -87.63897658398135)",2011-07-03
37466,07/03/2011,Completed - Dup,07/04/2011,11-03294308,Alley Light Out,2108 W EASTWOOD AVE,60625.0,1161646.56337852,1930868.51021415,47.0,19.0,4.0,41.96598070215562,-87.68103961713872,"(41.96598070215562, -87.68103961713874)",2011-07-03
37467,07/03/2011,Completed - Dup,07/04/2011,11-03294349,Alley Light Out,2446 N LOREL AVE,60639.0,1140308.75877517,1915750.66318655,31.0,25.0,19.0,41.92491482923353,-87.75986734807344,"(41.924914829233536, -87.75986734807346)",2011-07-03
37468,07/03/2011,Completed - Dup,07/04/2011,11-03294636,Alley Light Out,1749 W BARRY AVE,60657.0,1164129.352399,1920627.01791691,32.0,19.0,6.0,41.93782532262569,-87.67220137854947,"(41.937825322625685, -87.67220137854949)",2011-07-03
37469,07/03/2011,Completed - Dup,07/04/2011,11-03294898,Alley Light Out,6845 S GREEN ST,60621.0,1171817.03462127,1859459.0499898,6.0,7.0,68.0,41.7698093631215,-87.6457479784644,"(41.7698093631215, -87.64574797846439)",2011-07-03
37470,07/03/2011,Completed - Dup,07/04/2011,11-03295033,Alley Light Out,10818 S WENTWORTH AVE,60628.0,1176867.64939826,1833129.96029058,34.0,5.0,49.0,41.69744669348985,-87.6280255922097,"(41.69744669348985, -87.62802559220971)",2011-07-03
37471,07/03/2011,Completed - Dup,07/18/2011,11-03294694,Alley Light Out,2425 W FILLMORE ST,60612.0,1160374.50688806,1895307.54992447,28.0,11.0,28.0,41.86842532290586,-87.68670257458426,"(41.86842532290586, -87.68670257458425)",2011-07-03
37472,07/03/2011,Completed - Dup,07/20/2011,11-03294836,Alley Light Out,5116 W NEWPORT AVE,60641.0,1141614.49367301,1922454.83700638,38.0,16.0,15.0,41.94328768880523,-87.75490322118172,"(41.94328768880523, -87.75490322118172)",2011-07-03
37473,07/03/2011,Completed - Dup,07/20/2011,11-03294932,Alley Light Out,3914 N TROY ST,60618.0,1154690.20252173,1925859.49689042,33.0,17.0,16.0,41.952378127133315,-87.7067515729987,"(41.95237812713331, -87.70675157299871)",2011-07-03
37474,07/03/2011,Completed - Dup,07/22/2011,11-03293956,Alley Light Out,476 W 24TH ST,60616.0,1173313.11732813,1888350.41989645,25.0,9.0,34.0,41.8490571701869,-87.63940890207145,"(41.84905717018691, -87.63940890207145)",2011-07-03
37475,07/03/2011,Completed - Dup,08/02/2011,11-03294792,Alley Light Out,7844 S LAFLIN ST,60620.0,1167477.01292359,1852712.50558525,17.0,6.0,71.0,41.751390049214734,-87.66184965123581,"(41.751390049214734, -87.66184965123581)",2011-07-03
37476,07/03/2011,Completed - Dup,08/03/2011,11-03293804,Alley Light Out,418 E 79TH ST,60619.0,1180470.36249052,1852722.19928727,6.0,6.0,69.0,41.7511285135306,-87.614235294606,"(41.7511285135306, -87.614235294606)",2011-07-03
37477,07/03/2011,Completed - Dup,08/03/2011,11-03293807,Alley Light Out,7830 S RHODES AVE,60619.0,1181260.63153328,1853210.6488043999,6.0,6.0,69.0,41.752450711025936,-87.6113243588817,"(41.75245071102594, -87.6113243588817)",2011-07-03
37478,07/03/2011,Completed - Dup,08/03/2011,11-03294150,Alley Light Out,8046 S BENNETT AVE,60617.0,1190264.8028833,1851998.89097391,8.0,4.0,46.0,41.748913451211756,-87.57836733460714,"(41.74891345121176, -87.57836733460714)",2011-07-03
37479,07/03/2011,Completed - Dup,08/03/2011,11-03294787,Alley Light Out,11643 S NORMAL AVE,60628.0,1175056.65600943,1827690.47169314,34.0,5.0,53.0,41.68256041186177,-87.63481792657456,"(41.68256041186177, -87.63481792657457)",2011-07-03
37480,07/03/2011,Completed - Dup,08/03/2011,11-03294931,Alley Light Out,3900 N CLAREMONT AVE,60618.0,1160008.74322025,1925841.26549933,47.0,19.0,5.0,41.952219733443656,-87.68720094569255,"(41.952219733443656, -87.68720094569257)",2011-07-03
37481,07/03/2011,Completed - Dup,08/19/2011,11-03295023,Alley Light Out,5329 S SPAULDING AVE,60632.0,1155284.5281047,1869094.9864297002,14.0,8.0,63.0,41.796598499927505,-87.70609169832571,"(41.7965984999275, -87.70609169832571)",2011-07-03
37482,07/03/2011,Completed - Dup,10/26/2011,11-03294841,Alley Light Out,5308 S WABASH AVE,60615.0,1177617.13136568,1869783.60200945,3.0,2.0,40.0,41.79801177277144,-87.6241753333012,"(41.79801177277144, -87.62417533330121)",2011-07-03
37483,07/03/2011,Completed,01/03/2012,11-03294215,Alley Light Out,7707 S LOOMIS BLVD,60620.0,1168334.60928251,1853647.03647616,17.0,6.0,71.0,41.75393611970127,-87.65868011884581,"(41.753936119701265, -87.65868011884582)",2011-07-03
37484,07/03/2011,Completed,01/11/2012,11-03294023,Alley Light Out,2715 N SOUTHPORT AVE,60614.0,1166488.53036906,1918224.33588746,32.0,19.0,7.0,41.931181985322226,-87.66359996140423,"(41.93118198532223, -87.66359996140422)",2011-07-03
37485,07/03/2011,Completed,02/16/2012,11-03295100,Alley Light Out,3360 N ELSTON AVE,60618.0,1155827.14192243,1922225.3218214,33.0,17.0,21.0,41.94238282189696,-87.7026704351631,"(41.942382821896956, -87.70267043516309)",2011-07-03
37486,07/03/2011,Completed,04/11/2012,11-03294250,Alley Light Out,4946 W MEDILL AVE,60639.0,1143031.72791729,1915178.30169231,31.0,25.0,19.0,41.923293803546535,-87.74987611481794,"(41.92329380354654, -87.74987611481794)",2011-07-03
37487,07/03/2011,Completed,04/24/2012,11-03294949,Alley Light Out,2840 W FULTON ST,60612.0,1157404.23526808,1901881.45457407,27.0,13.0,27.0,41.88652563949511,-87.69742828539997,"(41.886525639495105, -87.69742828539997)",2011-07-03
37488,07/03/2011,Completed,04/25/2012,11-03295035,Alley Light Out,2639 W WARREN BLVD,60612.0,1158788.96440692,1900252.86951153,2.0,13.0,27.0,41.88202838185265,-87.69238787241386,"(41.88202838185265, -87.69238787241386)",2011-07-03
37489,07/03/2011,Completed,08/24/2011,11-03295044,Alley Light Out,10812 S WOOD ST,60643.0,1166279.25372804,1832913.92588723,19.0,22.0,75.0,41.69708525934855,-87.66680062508945,"(41.69708525934855, -87.66680062508945)",2011-07-03
37490,07/03/2011,Completed,08/30/2011,11-03294766,Alley Light Out,2440 S FRANCISCO AVE,60623.0,1157419.03997947,1887504.01007067,12.0,10.0,30.0,41.84707215095364,-87.69776481325687,"(41.84707215095364, -87.69776481325688)",2011-07-03
37491,07/03/2011,Completed,09/12/2011,11-03294257,Alley Light Out,3642 N PITTSBURGH AVE,60634.0,1120424.65200429,1923174.90087172,36.0,16.0,17.0,41.94562959970824,-87.83277290514319,"(41.94562959970824, -87.83277290514319)",2011-07-03
37492,07/03/2011,Completed,09/29/2011,11-03293707,Alley Light Out,8700 S KINGSTON AVE,60617.0,1194660.69506933,1847784.90668299,7.0,4.0,46.0,41.73724295815472,-87.56239778899969,"(41.737242958154724, -87.56239778899969)",2011-07-03
37493,07/03/2011,Completed,10/19/2011,11-03293805,Alley Light Out,30 E 87TH ST,60619.0,1178092.92038827,1847317.20017397,6.0,6.0,44.0,41.7363507441843,-87.62311084282337,"(41.7363507441843, -87.62311084282338)",2011-07-03
37494,07/03/2011,Completed,10/19/2011,11-03295082,Alley Light Out,9015 S GREENWOOD AVE,60619.0,1185122.59237382,1845428.40091501,8.0,4.0,47.0,41.731005597538015,-87.59741595525975,"(41.731005597538015, -87.59741595525975)",2011-07-03
37495,07/03/2011,Completed,11/17/2011,11-03293577,Alley Light Out,918 W VERMONT ST,60643.0,1172485.71682489,1819901.09382785,34.0,5.0,53.0,41.6612418749915,-87.64445704497987,"(41.66124187499149, -87.64445704497987)",2011-07-03
37496,07/03/2011,Completed,11/23/2011,11-03293575,Alley Light Out,10445 S EGGLESTON AVE,60628.0,1175131.18020714,1835641.57732909,34.0,22.0,49.0,41.70437778556765,-87.63430892014331,"(41.70437778556765, -87.63430892014331)",2011-07-03
37497,07/03/2011,Completed,11/25/2011,11-03294964,Alley Light Out,10814 S WENTWORTH AVE,60628.0,1176866.38287317,1833174.08779423,34.0,5.0,49.0,41.69756781421936,-87.62802890642105,"(41.697567814219354, -87.62802890642105)",2011-07-03
37498,07/03/2011,Completed,11/30/2011,11-03293786,Alley Light Out,252 N ALBANY AVE,60612.0,1155673.91580884,1901523.31153284,27.0,13.0,27.0,41.885577870206966,-87.7037921212044,"(41.88557787020697, -87.70379212120439)",2011-07-03
37499,07/03/2011,Completed,12/15/2011,11-03293863,Alley Light Out,5917 W AUGUSTA BLVD,60651.0,1136713.88981662,1906057.93483161,29.0,15.0,25.0,41.89838203903864,-87.77330927047913,"(41.89838203903863, -87.77330927047913)",2011-07-03
37543,07/04/2011,Completed - Dup,07/05/2011,11-03295244,Alley Light Out,8243 S DREXEL AVE,60619.0,1183666.82208117,1850528.38836919,8.0,6.0,44.0,41.74503455754985,-87.60259026287741,"(41.745034557549864, -87.6025902628774)",2011-07-04
37544,07/04/2011,Completed - Dup,07/05/2011,11-03295363,Alley Light Out,1501 E 76TH PL,60619.0,1187543.60861137,1854558.34002331,5.0,4.0,43.0,41.756001908991024,-87.58825744053013,"(41.756001908991024, -87.58825744053013)",2011-07-04
37545,07/04/2011,Completed - Dup,07/05/2011,11-03295369,Alley Light Out,1501 E 76TH PL,60619.0,1187543.60861137,1854558.34002331,5.0,4.0,43.0,41.756001908991024,-87.58825744053013,"(41.756001908991024, -87.58825744053013)",2011-07-04
37546,07/04/2011,Completed - Dup,07/05/2011,11-03295753,Alley Light Out,8050 S BENNETT AVE,60617.0,1190257.2028833,1852306.89097391,8.0,4.0,46.0,41.74975881386011,-87.57838528067049,"(41.74975881386011, -87.57838528067049)",2011-07-04
37547,07/04/2011,Completed - Dup,07/05/2011,11-03296460,Alley Light Out,10818 S WENTWORTH AVE,60628.0,1176867.64939826,1833129.96029058,34.0,5.0,49.0,41.69744669348985,-87.6280255922097,"(41.69744669348985, -87.62802559220971)",2011-07-04
37548,07/04/2011,Completed - Dup,07/05/2011,11-03296513,Alley Light Out,1224 W HOOD AVE,60660.0,1167021.39001749,1940982.25001626,48.0,24.0,77.0,41.99361911024699,-87.6609855902943,"(41.99361911024699, -87.66098559029429)",2011-07-04
37549,07/04/2011,Completed - Dup,07/05/2011,11-03296530,Alley Light Out,5024 S RACINE AVE,60609.0,1169172.53797573,1871471.63922545,16.0,9.0,61.0,41.80283093359482,-87.6550941981081,"(41.80283093359482, -87.6550941981081)",2011-07-04
37550,07/04/2011,Completed - Dup,07/05/2011,11-03296640,Alley Light Out,3942 W 69TH ST,60629.0,1151273.85419964,1858555.49743412,13.0,8.0,65.0,41.767755865486116,-87.7210745789044,"(41.767755865486116, -87.7210745789044)",2011-07-04
37551,07/04/2011,Completed - Dup,07/07/2011,11-03295477,Alley Light Out,2714 W ADAMS ST,60612.0,1158324.78450202,1898914.93498659,2.0,11.0,27.0,41.878366463235295,-87.69412893147154,"(41.8783664632353, -87.69412893147154)",2011-07-04
37552,07/04/2011,Completed - Dup,07/07/2011,11-03296476,Alley Light Out,2833 N FRANCISCO AVE,60618.0,1156555.29482297,1918697.10598826,35.0,14.0,21.0,41.93268641774665,-87.70008992414988,"(41.93268641774665, -87.70008992414988)",2011-07-04
37553,07/04/2011,Completed - Dup,07/07/2011,11-03296490,Alley Light Out,728 N LATROBE AVE,60644.0,1141227.23801156,1904321.91877659,28.0,15.0,25.0,41.893536162625495,-87.75677467402517,"(41.89353616262549, -87.75677467402517)",2011-07-04
37554,07/04/2011,Completed - Dup,07/07/2011,11-03296518,Alley Light Out,3904 N HAMILTON AVE,60618.0,1161327.98081303,1925901.91231682,47.0,19.0,5.0,41.9523587567561,-87.6823497115402,"(41.9523587567561, -87.68234971154021)",2011-07-04
37555,07/04/2011,Completed - Dup,08/03/2011,11-03295167,Alley Light Out,1058 N CHRISTIANA AVE,60651.0,1153795.91997284,1906915.96752108,26.0,11.0,23.0,41.90041344135654,-87.71054478290002,"(41.90041344135655, -87.71054478290002)",2011-07-04
37556,07/04/2011,Completed - Dup,08/03/2011,11-03295317,Alley Light Out,5700 S RUTHERFORD AVE,60638.0,1132364.09571256,1866001.84432415,23.0,8.0,56.0,41.788538536985136,-87.79021643565314,"(41.78853853698513, -87.79021643565314)",2011-07-04
37557,07/04/2011,Completed - Dup,08/03/2011,11-03295401,Alley Light Out,3232 S PULASKI RD,60623.0,1150222.3700008001,1882866.26370414,22.0,10.0,30.0,41.834488693092176,-87.72429739841482,"(41.83448869309218, -87.72429739841483)",2011-07-04
37558,07/04/2011,Completed - Dup,08/03/2011,11-03295850,Alley Light Out,5411 W WRIGHTWOOD AVE,60639.0,1139812.38209801,1916759.3307218002,30.0,25.0,19.0,41.92769181560153,-87.76166657575304,"(41.92769181560152, -87.76166657575303)",2011-07-04
37559,07/04/2011,Completed - Dup,08/03/2011,11-03295947,Alley Light Out,10240 S PARNELL AVE,60628.0,1174441.86080823,1836987.97272936,9.0,22.0,73.0,41.708087817609076,-87.63679321240471,"(41.70808781760908, -87.63679321240471)",2011-07-04
37560,07/04/2011,Completed - Dup,08/03/2011,11-03296511,Alley Light Out,731 N LOCKWOOD AVE,60644.0,1140893.19650262,1904337.53059151,28.0,15.0,25.0,41.893585156372794,-87.75800112437601,"(41.8935851563728, -87.75800112437602)",2011-07-04
37561,07/04/2011,Completed - Dup,08/03/2011,11-03296527,Alley Light Out,5233 S MAY ST,60609.0,1169540.75458772,1870088.9629895,16.0,9.0,61.0,41.79902873629547,-87.65378387368834,"(41.79902873629547, -87.65378387368833)",2011-07-04
37562,07/04/2011,Completed - Dup,08/03/2011,11-03296604,Alley Light Out,5233 S MAY ST,60609.0,1169540.75458772,1870088.9629895,16.0,9.0,61.0,41.79902873629547,-87.65378387368834,"(41.79902873629547, -87.65378387368833)",2011-07-04
37563,07/04/2011,Completed - Dup,10/28/2011,11-03296512,Alley Light Out,7355 S WABASH AVE,60619.0,1177994.99612018,1856260.26639547,6.0,3.0,69.0,41.76089378769709,-87.62319919075908,"(41.76089378769709, -87.6231991907591)",2011-07-04
37564,07/04/2011,Completed,01/06/2012,11-03295329,Alley Light Out,3425 W HARRISON ST,60624.0,1153634.4135183997,1897151.13770299,24.0,11.0,27.0,41.873620983311504,-87.71139795719273,"(41.8736209833115, -87.71139795719274)",2011-07-04
37565,07/04/2011,Completed,01/06/2012,11-03296547,Alley Light Out,2312 N KIMBALL AVE,60647.0,1153322.63812609,1915221.54519523,26.0,14.0,22.0,41.923214100844284,-87.71206220365588,"(41.92321410084428, -87.71206220365588)",2011-07-04
37566,07/04/2011,Completed,01/12/2012,11-03295459,Alley Light Out,3359 N PARIS AVE,60634.0,1121159.39809873,1921266.24867126,36.0,16.0,17.0,41.940380204520686,-87.83011335961483,"(41.94038020452069, -87.83011335961483)",2011-07-04
37567,07/04/2011,Completed,01/30/2012,11-03296136,Alley Light Out,4221 W POTOMAC AVE,60651.0,1148000.4360718,1908324.05763404,37.0,25.0,23.0,41.90439086384487,-87.73179576179147,"(41.90439086384487, -87.73179576179149)",2011-07-04
37568,07/04/2011,Completed,02/08/2012,11-03295316,Alley Light Out,700 N LA SALLE DR,60654.0,1175011.43892991,1905038.20740863,42.0,18.0,8.0,41.89481170430149,-87.63267601670503,"(41.894811704301496, -87.63267601670503)",2011-07-04
37569,07/04/2011,Completed,02/08/2012,11-03296624,Alley Light Out,532 N OGDEN AVE,60642.0,1168021.84068812,1903896.8692713,27.0,13.0,24.0,41.891833554584935,-87.65837968744471,"(41.89183355458494, -87.65837968744471)",2011-07-04
37570,07/04/2011,Completed,09/21/2011,11-03296320,Alley Light Out,8523 S CONSTANCE AVE,60617.0,1190005.69557614,1848829.09418259,8.0,4.0,45.0,41.74022146975132,-87.57941855054834,"(41.74022146975132, -87.57941855054834)",2011-07-04
37571,07/04/2011,Completed,10/03/2011,11-03296575,Alley Light Out,9200 S KINGSTON AVE,60617.0,1194769.92607026,1844458.55048375,7.0,4.0,48.0,41.72811246044049,-87.56210680485044,"(41.72811246044049, -87.56210680485043)",2011-07-04
37572,07/04/2011,Completed,11/07/2011,11-03296478,Alley Light Out,5831 S TALMAN AVE,60629.0,1159704.14487936,1865891.6972986,16.0,8.0,63.0,41.78771860623765,-87.6899723447381,"(41.787718606237654, -87.6899723447381)",2011-07-04
37573,07/04/2011,Completed,12/06/2011,11-03295781,Alley Light Out,8735 S BEVERLY AVE,60620.0,1164736.38929764,1846659.3830281997,21.0,22.0,71.0,41.73483763886852,-87.67206319508102,"(41.73483763886852, -87.67206319508101)",2011-07-04
37574,07/04/2011,Completed,12/07/2011,11-03296444,Alley Light Out,8900 S YATES BLVD,60617.0,1193713.02682077,1846427.58639412,7.0,4.0,48.0,41.73354159378665,-87.56591404393286,"(41.73354159378665, -87.56591404393286)",2011-07-04
37575,07/04/2011,Completed,12/09/2011,11-03295606,Alley Light Out,6200 S ALBANY AVE,60629.0,1156782.86502874,1863358.26919505,15.0,8.0,66.0,41.78082600059268,-87.70075189411993,"(41.780826000592675, -87.70075189411992)",2011-07-04
37593,07/05/2011,Completed - Dup,07/05/2011,11-03296672,Alley Light Out,3569 W BELDEN AVE,60647.0,1152220.03270368,1915056.65399804,26.0,14.0,22.0,41.92278347461768,-87.71611794988299,"(41.922783474617674, -87.71611794988299)",2011-07-05
37594,07/05/2011,Completed - Dup,07/05/2011,11-03298893,Alley Light Out,10211 S WOOD ST,60643.0,1166153.02246773,1836901.8899893002,19.0,22.0,72.0,41.70803157094552,-87.66714986290155,"(41.708031570945515, -87.66714986290155)",2011-07-05
37595,07/05/2011,Completed - Dup,07/05/2011,11-03299828,Alley Light Out,1614 W FARGO AVE,60626.0,1164331.41640285,1949499.46249964,49.0,24.0,1.0,42.017048055454495,-87.67063784948807,"(42.017048055454495, -87.67063784948807)",2011-07-05
37596,07/05/2011,Completed - Dup,07/05/2011,11-03300393,Alley Light Out,2343 W 23RD ST,60608.0,1161105.00806762,1888684.4531856002,25.0,10.0,31.0,41.85023575683654,-87.68420458043012,"(41.85023575683654, -87.68420458043013)",2011-07-05
37597,07/05/2011,Completed - Dup,07/05/2011,11-03300592,Alley Light Out,4559 W 66TH ST,60629.0,1147205.45000454,1860452.47001476,13.0,8.0,65.0,41.77303998237001,-87.73593902586737,"(41.77303998237001, -87.73593902586738)",2011-07-05
37598,07/05/2011,Completed - Dup,07/05/2011,11-03301709,Alley Light Out,2008 S MAY ST,60608.0,1169112.60200339,1890471.6133888,25.0,12.0,31.0,41.85497001629491,-87.65476361422543,"(41.85497001629491, -87.65476361422542)",2011-07-05
37599,07/05/2011,Completed - Dup,07/05/2011,11-03302457,Alley Light Out,2226 S HOMAN AVE,60623.0,1154043.68982104,1888994.25351501,22.0,10.0,30.0,41.851229435428074,-87.71011268616651,"(41.851229435428074, -87.71011268616651)",2011-07-05
37600,07/05/2011,Completed - Dup,07/05/2011,11-03303694,Alley Light Out,1419 S TRIPP AVE,60623.0,1148280.63752337,1892908.10857236,24.0,10.0,29.0,41.862082371096676,-87.73116383898859,"(41.86208237109667, -87.73116383898859)",2011-07-05
37601,07/05/2011,Completed - Dup,07/05/2011,11-03303695,Alley Light Out,1419 S TRIPP AVE,60623.0,1148280.63752337,1892908.10857236,24.0,10.0,29.0,41.862082371096676,-87.73116383898859,"(41.86208237109667, -87.73116383898859)",2011-07-05
37602,07/05/2011,Completed - Dup,07/06/2011,11-03301093,Alley Light Out,4335 S PAULINA ST,60609.0,1165734.21991359,1875955.05378307,12.0,9.0,61.0,41.81520769504671,-87.66757669035748,"(41.81520769504671, -87.66757669035748)",2011-07-05
37603,07/05/2011,Completed - Dup,07/06/2011,11-03301826,Alley Light Out,526 W 57TH ST,60621.0,1173677.04777644,1867115.43299712,3.0,7.0,68.0,41.790778326138266,-87.63870329238388,"(41.790778326138266, -87.63870329238387)",2011-07-05
37604,07/05/2011,Completed - Dup,07/06/2011,11-03305644,Alley Light Out,9823 S AVENUE H,60617.0,1202788.59239629,1840607.6730968002,10.0,4.0,52.0,41.71734446819373,-87.5328648023073,"(41.71734446819373, -87.53286480230729)",2011-07-05
37605,07/05/2011,Completed - Dup,07/06/2011,11-03305918,Alley Light Out,12609 S EGGLESTON AVE,60628.0,1175595.21972057,1821267.63443439,9.0,5.0,53.0,41.6649231240346,-87.63303754133976,"(41.6649231240346, -87.63303754133977)",2011-07-05
37606,07/05/2011,Completed - Dup,07/06/2011,11-03305930,Alley Light Out,11340 S WALLACE ST,60628.0,1174334.06579637,1829683.03871373,34.0,22.0,49.0,41.68804437369925,-87.63740411424531,"(41.68804437369925, -87.63740411424531)",2011-07-05
37607,07/05/2011,Completed - Dup,07/06/2011,11-03305970,Alley Light Out,8306 S DREXEL AVE,60619.0,1183674.68661793,1850113.10287195,8.0,6.0,44.0,41.743894786357004,-87.60257436865706,"(41.743894786357004, -87.60257436865706)",2011-07-05
37608,07/05/2011,Completed - Dup,07/07/2011,11-03297354,Alley Light Out,6131 W EDDY ST,60634.0,1134875.20652561,1922969.84799755,38.0,16.0,17.0,41.9448230548371,-87.77966168281006,"(41.9448230548371, -87.77966168281007)",2011-07-05
37609,07/05/2011,Completed - Dup,07/07/2011,11-03301008,Alley Light Out,7009 S BISHOP ST,60636.0,1167877.64188039,1858264.7229972,17.0,7.0,67.0,41.766617489288684,-87.66022233903017,"(41.76661748928869, -87.66022233903017)",2011-07-05
37610,07/05/2011,Completed - Dup,07/07/2011,11-03305780,Alley Light Out,1016 N ST LOUIS AVE,60651.0,1152856.11202499,1906548.57752955,27.0,11.0,23.0,41.899423957848576,-87.71400650113367,"(41.899423957848576, -87.71400650113367)",2011-07-05
37611,07/05/2011,Completed - Dup,07/07/2011,11-03305850,Alley Light Out,2306 N HOYNE AVE,60647.0,1161971.31411888,1915148.79720148,32.0,14.0,22.0,41.922838134784605,-87.68028592237734,"(41.92283813478461, -87.68028592237735)",2011-07-05
37612,07/05/2011,Completed - Dup,07/08/2011,11-03299793,Alley Light Out,7130 S LAFAYETTE AVE,60621.0,1177077.90870602,1857583.09988589,6.0,7.0,69.0,41.76454451799901,-87.62652050953382,"(41.764544517999006, -87.62652050953383)",2011-07-05
37613,07/05/2011,Completed - Dup,07/12/2011,11-03302560,Alley Light Out,6845 S ADA ST,60636.0,1168507.77693252,1859386.19211643,17.0,7.0,67.0,41.76968138940586,-87.6578803702333,"(41.76968138940586, -87.65788037023331)",2011-07-05
37614,07/05/2011,Completed - Dup,07/12/2011,11-03305412,Alley Light Out,5300 S JUSTINE ST,60609.0,1166903.95788658,1869580.78027545,16.0,9.0,61.0,41.7976910183956,-87.66346814416254,"(41.79769101839559, -87.66346814416255)",2011-07-05
37615,07/05/2011,Completed - Dup,07/13/2011,11-03299708,Alley Light Out,4714 S LECLAIRE AVE,60638.0,1143152.97063268,1872897.31209029,23.0,8.0,56.0,41.807266990029845,-87.75048538030364,"(41.80726699002984, -87.75048538030366)",2011-07-05
37616,07/05/2011,Completed - Dup,07/13/2011,11-03300202,Alley Light Out,5128 S HOMAN AVE,60632.0,1154575.72662869,1870415.72811599,14.0,8.0,63.0,41.80023696499406,-87.70865576776781,"(41.80023696499406, -87.70865576776782)",2011-07-05
37617,07/05/2011,Completed - Dup,07/13/2011,11-03300678,Alley Light Out,2330 S MILLARD AVE,60623.0,1152404.12649315,1888274.14887222,22.0,10.0,30.0,41.84928587677799,-87.71614929174187,"(41.84928587677799, -87.71614929174186)",2011-07-05
37618,07/05/2011,Completed - Dup,07/13/2011,11-03300850,Alley Light Out,2330 S MILLARD AVE,60623.0,1152404.12649315,1888274.14887222,22.0,10.0,30.0,41.84928587677799,-87.71614929174187,"(41.84928587677799, -87.71614929174186)",2011-07-05
37619,07/05/2011,Completed - Dup,07/13/2011,11-03301054,Alley Light Out,3028 W 38TH PL,60632.0,1156812.77332269,1878940.98759443,12.0,9.0,58.0,41.82358648610694,-87.70022144149581,"(41.82358648610694, -87.70022144149583)",2011-07-05
37620,07/05/2011,Completed - Dup,07/13/2011,11-03302835,Alley Light Out,462 W 44TH ST,60609.0,1173846.3000334,1875759.65998335,11.0,9.0,61.0,41.814495198995104,-87.6378262089773,"(41.8144951989951, -87.63782620897729)",2011-07-05
37621,07/05/2011,Completed - Dup,07/13/2011,11-03305670,Alley Light Out,3125 S SPRINGFIELD AVE,60623.0,1150870.8480926,1883591.29171032,22.0,10.0,30.0,41.8364656231856,-87.72189900056655,"(41.836465623185596, -87.72189900056657)",2011-07-05
37622,07/05/2011,Completed - Dup,07/14/2011,11-03301740,Alley Light Out,2224 S HOMAN AVE,60623.0,1154043.28982104,1889007.65351501,22.0,10.0,30.0,41.85126621456203,-87.7101137973292,"(41.85126621456203, -87.71011379732919)",2011-07-05
37623,07/05/2011,Completed - Dup,07/15/2011,11-03301569,Alley Light Out,11114 S LOOMIS ST,60643.0,1168981.8844893,1830998.1613876,34.0,22.0,75.0,41.69177026932632,-87.65696019884672,"(41.69177026932632, -87.65696019884672)",2011-07-05
37624,07/05/2011,Completed - Dup,07/15/2011,11-03302420,Alley Light Out,5720 W HURON ST,60644.0,1138085.49419865,1904066.62741966,29.0,15.0,25.0,41.892892963896635,-87.76831955116769,"(41.89289296389663, -87.7683195511677)",2011-07-05
37625,07/05/2011,Completed - Dup,07/15/2011,11-03302800,Alley Light Out,5903 W RACE AVE,60644.0,1137032.69853155,1903021.88473365,29.0,15.0,25.0,41.890045014820686,-87.77221121790916,"(41.890045014820686, -87.77221121790915)",2011-07-05
37626,07/05/2011,Completed - Dup,07/15/2011,11-03304737,Alley Light Out,732 N CHRISTIANA AVE,60624.0,1153911.58263264,1904681.54681487,27.0,11.0,23.0,41.89427967400169,-87.71017955783415,"(41.89427967400169, -87.71017955783414)",2011-07-05
37627,07/05/2011,Completed - Dup,07/22/2011,11-03298302,Alley Light Out,7811 W OLIVE AVE,60631.0,1123204.13061537,1936558.39022273,41.0,16.0,10.0,41.98231045474957,-87.82226286920847,"(41.982310454749566, -87.82226286920847)",2011-07-05
37628,07/05/2011,Completed - Dup,07/22/2011,11-03303933,Alley Light Out,458 W 24TH ST,60616.0,1173462.62153081,1888354.12490268,25.0,9.0,34.0,41.84906402059649,-87.63886010090374,"(41.84906402059649, -87.63886010090374)",2011-07-05
37629,07/05/2011,Completed - Dup,07/24/2011,11-03297281,Alley Light Out,5024 W ERIE ST,60644.0,1142748.07368732,1903852.68757906,28.0,15.0,25.0,41.89222035751037,-87.75120079521179,"(41.89222035751037, -87.7512007952118)",2011-07-05
37630,07/05/2011,Completed - Dup,07/26/2011,11-03300639,Alley Light Out,1441 N LOCKWOOD AVE,60651.0,1140763.16900929,1909077.70601078,37.0,25.0,25.0,41.906595147750295,-87.75836199951057,"(41.9065951477503, -87.75836199951058)",2011-07-05
37631,07/05/2011,Completed - Dup,07/26/2011,11-03305802,Alley Light Out,5736 W RACE AVE,60644.0,1138024.40002864,1903042.12998652,29.0,15.0,25.0,41.89008271681885,-87.76856869553579,"(41.890082716818846, -87.76856869553579)",2011-07-05
37632,07/05/2011,Completed - Dup,08/02/2011,11-03301000,Alley Light Out,16 W 105TH ST,60628.0,1178107.93673194,1835353.13990304,34.0,5.0,49.0,41.70351945047481,-87.62341727094929,"(41.703519450474815, -87.62341727094928)",2011-07-05
37633,07/05/2011,Completed - Dup,08/02/2011,11-03302474,Alley Light Out,1220 W 108TH PL,60643.0,1170119.35220722,1832834.60010219,34.0,22.0,75.0,41.696785167684816,-87.65274265742525,"(41.69678516768481, -87.65274265742525)",2011-07-05
37634,07/05/2011,Completed - Dup,08/02/2011,11-03302967,Alley Light Out,9332 S EGGLESTON AVE,60620.0,1174927.20398683,1843023.56010316,21.0,22.0,73.0,41.724639527627566,-87.63483655064063,"(41.72463952762756, -87.63483655064063)",2011-07-05
37635,07/05/2011,Completed - Dup,08/03/2011,11-03296718,Alley Light Out,11717 S PRINCETON AVE,60628.0,1176386.04248096,1827233.6153240001,34.0,5.0,53.0,41.68127704747546,-87.62996524108354,"(41.68127704747546, -87.62996524108355)",2011-07-05
37636,07/05/2011,Completed - Dup,08/03/2011,11-03296719,Alley Light Out,1058 N CHRISTIANA AVE,60651.0,1153795.91997284,1906915.96752108,26.0,11.0,23.0,41.90041344135654,-87.71054478290002,"(41.90041344135655, -87.71054478290002)",2011-07-05
37637,07/05/2011,Completed - Dup,08/03/2011,11-03296959,Alley Light Out,4166 W EDDY ST,60641.0,1147974.01769626,1923333.7517089,30.0,17.0,16.0,41.94557936423559,-87.7315058383911,"(41.94557936423559, -87.73150583839109)",2011-07-05
37638,07/05/2011,Completed - Dup,08/03/2011,11-03297159,Alley Light Out,11300 S CARPENTER ST,60643.0,1171344.36780519,1829847.57331507,34.0,22.0,75.0,41.68856164018163,-87.6483443444256,"(41.68856164018163, -87.64834434442561)",2011-07-05
37639,07/05/2011,Completed - Dup,08/03/2011,11-03298878,Alley Light Out,4218 S FRANCISCO AVE,60632.0,1157729.48670909,1876549.54209277,14.0,9.0,58.0,41.81700547504726,-87.69692331291219,"(41.81700547504726, -87.6969233129122)",2011-07-05
37640,07/05/2011,Completed - Dup,08/03/2011,11-03299233,Alley Light Out,6131 S NEENAH AVE,60638.0,1133793.30012363,1863159.61729149,23.0,8.0,64.0,41.78071404360403,-87.78504239734886,"(41.78071404360403, -87.78504239734886)",2011-07-05
37641,07/05/2011,Completed - Dup,08/03/2011,11-03299631,Alley Light Out,9739 S EWING AVE,60617.0,1202122.60170191,1841146.33157775,10.0,4.0,52.0,41.71883955410343,-87.53528569382428,"(41.71883955410343, -87.53528569382426)",2011-07-05
37642,07/05/2011,Completed - Dup,08/03/2011,11-03299753,Alley Light Out,2723 W LEXINGTON ST,60612.0,1158330.46531491,1896591.87429238,2.0,11.0,27.0,41.871991643082666,-87.694171591544,"(41.871991643082666, -87.694171591544)",2011-07-05
37643,07/05/2011,Completed - Dup,08/03/2011,11-03299977,Alley Light Out,217 N KILBOURN AVE,60624.0,1146355.24137051,1900786.26231546,28.0,11.0,26.0,41.88373781801907,-87.7380311814204,"(41.88373781801907, -87.7380311814204)",2011-07-05
37644,07/05/2011,Completed - Dup,08/03/2011,11-03300331,Alley Light Out,11032 S GREEN ST,60643.0,1172616.23019339,1831684.39910341,34.0,22.0,75.0,41.693574331870224,-87.6436342906066,"(41.69357433187023, -87.6436342906066)",2011-07-05
37645,07/05/2011,Completed - Dup,08/03/2011,11-03300625,Alley Light Out,4554 W 66TH ST,60629.0,1147231.45000454,1860453.07001476,13.0,8.0,65.0,41.77304113323148,-87.73584369964155,"(41.77304113323148, -87.73584369964155)",2011-07-05
37646,07/05/2011,Completed - Dup,08/03/2011,11-03300963,Alley Light Out,2305 S LAWNDALE AVE,60623.0,1152067.58150707,1888428.76001531,22.0,10.0,30.0,41.84971677925554,-87.7173803896735,"(41.84971677925554, -87.7173803896735)",2011-07-05
37647,07/05/2011,Completed - Dup,08/03/2011,11-03301023,Alley Light Out,2348 S MILLARD AVE,60623.0,1152407.42649315,1888153.84887222,22.0,10.0,30.0,41.848955693921226,-87.71614035350053,"(41.84895569392123, -87.71614035350053)",2011-07-05
37648,07/05/2011,Completed - Dup,08/03/2011,11-03301365,Alley Light Out,8325 S HALSTED ST,60620.0,1172422.36806604,1849656.33191878,21.0,6.0,71.0,41.74289616897876,-87.64381708684324,"(41.74289616897876, -87.64381708684323)",2011-07-05
37649,07/05/2011,Completed - Dup,08/03/2011,11-03301484,Alley Light Out,1907 S HOMAN AVE,60623.0,1154002.49998469,1890430.98000947,24.0,10.0,29.0,41.85517279999087,-87.71022559833072,"(41.85517279999087, -87.71022559833072)",2011-07-05
37650,07/05/2011,Completed - Dup,08/03/2011,11-03301911,Alley Light Out,8847 S EGGLESTON AVE,60620.0,1174847.12253099,1846261.72237356,21.0,22.0,71.0,41.733527261625596,-87.63503366120996,"(41.7335272616256, -87.63503366120997)",2011-07-05
37651,07/05/2011,Completed - Dup,08/03/2011,11-03302365,Alley Light Out,5151 S MAYFIELD AVE,60638.0,1137903.44868431,1869845.57163307,23.0,8.0,56.0,41.79898857501963,-87.76981282803953,"(41.79898857501963, -87.76981282803953)",2011-07-05
37652,07/05/2011,Completed - Dup,08/03/2011,11-03302464,Alley Light Out,2229 S TRUMBULL AVE,60623.0,1153800.51151231,1888954.89800404,22.0,10.0,30.0,41.85112627886637,-87.71100625797052,"(41.85112627886637, -87.71100625797052)",2011-07-05
37653,07/05/2011,Completed - Dup,08/03/2011,11-03303461,Alley Light Out,6611 S WOOD ST,60636.0,1165479.4459183,1860845.13250064,15.0,7.0,67.0,41.77374964214359,-87.66893960128809,"(41.773749642143585, -87.6689396012881)",2011-07-05
37654,07/05/2011,Completed - Dup,08/03/2011,11-03303536,Alley Light Out,4906 S KEATING AVE,60632.0,1145520.0504684,1871678.78292571,23.0,8.0,56.0,41.80387877835094,-87.7418342532589,"(41.80387877835094, -87.74183425325889)",2011-07-05
37655,07/05/2011,Completed - Dup,08/03/2011,11-03303559,Alley Light Out,4355 W HIRSCH ST,60651.0,1147002.15002899,1908956.27040071,37.0,25.0,23.0,41.906144872417386,-87.7354465881192,"(41.90614487241738, -87.7354465881192)",2011-07-05
37656,07/05/2011,Completed - Dup,08/03/2011,11-03304545,Alley Light Out,7030 S NORMAL BLVD,60621.0,1174165.96431373,1858300.98502664,6.0,7.0,68.0,41.766579644962924,-87.63717221267437,"(41.76657964496292, -87.63717221267437)",2011-07-05
37657,07/05/2011,Completed - Dup,08/03/2011,11-03304663,Alley Light Out,65 E 83RD ST,60619.0,1178328.58577649,1849993.8578709,6.0,6.0,44.0,41.743690477291885,-87.62216641272856,"(41.74369047729188, -87.62216641272856)",2011-07-05
37658,07/05/2011,Completed - Dup,08/03/2011,11-03305403,Alley Light Out,7134 S LAFAYETTE AVE,60621.0,1177078.00870602,1857564.59988589,6.0,7.0,69.0,41.76449374967214,-87.62652070019354,"(41.76449374967214, -87.62652070019354)",2011-07-05
37659,07/05/2011,Completed - Dup,08/03/2011,11-03305666,Alley Light Out,1812 N NEWCASTLE AVE,60707.0,1130474.38391094,1911297.04330077,36.0,25.0,25.0,41.91286832638279,-87.79610645748703,"(41.912868326382785, -87.79610645748703)",2011-07-05
37660,07/05/2011,Completed - Dup,08/03/2011,11-03305812,Alley Light Out,2300 W JACKSON BLVD,60612.0,1161120.73549512,1898647.51159698,2.0,12.0,28.0,41.87757502939053,-87.68387023250781,"(41.87757502939052, -87.68387023250781)",2011-07-05
37661,07/05/2011,Completed - Dup,08/03/2011,11-03305859,Alley Light Out,9450 S INDIANA AVE,60619.0,1179245.80401007,1842693.28173093,6.0,6.0,49.0,41.72363595331717,-87.6190276826437,"(41.723635953317164, -87.6190276826437)",2011-07-05
37662,07/05/2011,Completed - Dup,08/03/2011,11-03305903,Alley Light Out,9554 S DOBSON AVE,60628.0,1184887.57327616,1841830.03102077,8.0,5.0,50.0,41.72113677331935,-87.59838944931055,"(41.72113677331935, -87.59838944931055)",2011-07-05
37663,07/05/2011,Completed - Dup,08/03/2011,11-03305912,Alley Light Out,11210 S CHAMPLAIN AVE,60628.0,1182587.76999907,1830682.42778231,9.0,5.0,50.0,41.69059988699236,-87.60715738369156,"(41.69059988699236, -87.60715738369156)",2011-07-05
37664,07/05/2011,Completed - Dup,08/03/2011,11-03305913,Alley Light Out,1109 N HOMAN AVE,60651.0,1153500.24667218,1907188.42329125,26.0,11.0,23.0,41.90116697050024,-87.71162355765921,"(41.90116697050024, -87.71162355765921)",2011-07-05
37665,07/05/2011,Completed - Dup,08/03/2011,11-03306089,Alley Light Out,6951 S THROOP ST,60636.0,1168859.08679084,1858674.23691586,17.0,7.0,67.0,41.76772011542569,-87.65661315666232,"(41.76772011542569, -87.65661315666232)",2011-07-05
37666,07/05/2011,Completed - Dup,08/17/2011,11-03302262,Alley Light Out,3451 W 64TH PL,60629.0,1154499.11730369,1861631.92443355,15.0,8.0,66.0,41.77613444681549,-87.70917057518791,"(41.77613444681549, -87.7091705751879)",2011-07-05
37667,07/05/2011,Completed - Dup,08/17/2011,11-03303781,Alley Light Out,1614 W ADDISON ST,60613.0,1164863.49188242,1923970.02719368,47.0,19.0,6.0,41.94698314396369,-87.66940812232305,"(41.946983143963685, -87.66940812232305)",2011-07-05
37668,07/05/2011,Completed - Dup,08/19/2011,11-03300178,Alley Light Out,3413 W 51ST ST,60632.0,1154431.72662869,1870600.42811599,14.0,8.0,63.0,41.80074667831746,-87.70917894580387,"(41.80074667831746, -87.70917894580388)",2011-07-05
37669,07/05/2011,Completed - Dup,08/26/2011,11-03301797,Alley Light Out,5515 S SEELEY AVE,60636.0,1163636.36990459,1867962.17239645,15.0,7.0,67.0,41.793318605104886,-87.6754963513718,"(41.79331860510488, -87.67549635137182)",2011-07-05
37670,07/05/2011,Completed - Dup,09/15/2011,11-03300433,Alley Light Out,8417 W CASTLEISLAND AVE,60656.0,1119090.94001725,1929257.39996856,36.0,16.0,76.0,41.962342020873926,-87.83754593975233,"(41.96234202087393, -87.83754593975233)",2011-07-05
37671,07/05/2011,Completed - Dup,09/15/2011,11-03305661,Alley Light Out,8222 S ANTHONY AVE,60617.0,1189643.00658116,1850815.86031733,8.0,4.0,45.0,41.74568205487383,-87.58068371124908,"(41.745682054873825, -87.58068371124908)",2011-07-05
37672,07/05/2011,Completed - Dup,10/21/2011,11-03305586,Alley Light Out,918 S BISHOP ST,60607.0,1166853.65628065,1896033.41638135,25.0,12.0,28.0,41.87028076989235,-87.66289548994007,"(41.87028076989234, -87.66289548994006)",2011-07-05
37673,07/05/2011,Completed - Dup,11/22/2011,11-03302901,Alley Light Out,2225 W 80TH ST,60620.0,1162821.9609953999,1851566.80991473,18.0,8.0,70.0,41.74834451829248,-87.6789401611758,"(41.748344518292484, -87.6789401611758)",2011-07-05
37674,07/05/2011,Completed,01/05/2012,11-03303242,Alley Light Out,6337 S LAMON AVE,60638.0,1144803.94988344,1862134.63171458,13.0,8.0,64.0,41.77770156058188,-87.74470026133366,"(41.77770156058188, -87.74470026133366)",2011-07-05
37675,07/05/2011,Completed,01/06/2012,11-03296981,Alley Light Out,7924 S HARVARD AVE,60620.0,1175330.66989682,1852399.97478149,17.0,6.0,44.0,41.750360624845406,-87.63307920528868,"(41.750360624845406, -87.63307920528867)",2011-07-05
37676,07/05/2011,Completed,01/09/2012,11-03304831,Alley Light Out,5700 S ADA ST,60636.0,1168300.18929212,1866961.77598027,16.0,7.0,67.0,41.79047419495853,-87.65842334737678,"(41.79047419495852, -87.65842334737678)",2011-07-05
37677,07/05/2011,Completed,01/11/2012,11-03306018,Alley Light Out,7825 S DAMEN AVE,60620.0,1164387.5533881001,1852762.6609278,18.0,6.0,71.0,41.7515932903255,-87.67316964929836,"(41.7515932903255, -87.67316964929836)",2011-07-05
37678,07/05/2011,Completed,01/12/2012,11-03303357,Alley Light Out,6817 S KOMENSKY AVE,60629.0,1150543.31200263,1859085.98070285,13.0,8.0,65.0,41.76922583747441,-87.72373859704581,"(41.76922583747441, -87.72373859704582)",2011-07-05
37679,07/05/2011,Completed,01/17/2012,11-03305857,Alley Light Out,4435 W ALTGELD ST,60639.0,1146389.51129656,1916313.16992244,31.0,25.0,20.0,41.926344634849784,-87.7375093116245,"(41.92634463484978, -87.7375093116245)",2011-07-05
37680,07/05/2011,Completed,01/18/2012,11-03304883,Alley Light Out,5632 S MORGAN ST,60621.0,1170605.28050343,1867473.41739488,16.0,7.0,68.0,41.791828229508546,-87.64995626725924,"(41.791828229508546, -87.64995626725924)",2011-07-05
37681,07/05/2011,Completed,01/19/2012,11-03306026,Alley Light Out,216 E 68TH ST,60637.0,1178838.61411206,1859975.22169809,20.0,3.0,69.0,41.771068871906266,-87.61999438844661,"(41.771068871906266, -87.61999438844661)",2011-07-05
37682,07/05/2011,Completed,01/25/2012,11-03298565,Alley Light Out,2400 W SUPERIOR ST,60612.0,1160270.45987293,1904928.12131294,1.0,13.0,24.0,41.89482718778691,-87.68681848263817,"(41.89482718778691, -87.68681848263817)",2011-07-05
37683,07/05/2011,Completed,01/30/2012,11-03305086,Alley Light Out,6400 N RICHMOND ST,60645.0,1155509.73427066,1942307.9696717,50.0,24.0,2.0,41.99749714720845,-87.70329423913604,"(41.997497147208456, -87.70329423913604)",2011-07-05
37684,07/05/2011,Completed,01/30/2012,11-03305176,Alley Light Out,6501 N RICHMOND ST,60645.0,1155486.77289245,1942978.77470918,50.0,24.0,2.0,41.99933832855889,-87.70336055064398,"(41.999338328558885, -87.70336055064399)",2011-07-05
37685,07/05/2011,Completed,02/02/2012,11-03303443,Alley Light Out,2637 W 66TH ST,60629.0,1159820.87902398,1860776.3898057998,15.0,8.0,66.0,41.773679088852774,-87.68968471699249,"(41.77367908885277, -87.6896847169925)",2011-07-05
37686,07/05/2011,Completed,02/02/2012,11-03303583,Alley Light Out,6511 S WASHTENAW AVE,60629.0,1159496.64819628,1861350.12379748,15.0,8.0,66.0,41.77526015008149,-87.69085757354048,"(41.77526015008149, -87.69085757354047)",2011-07-05
37687,07/05/2011,Completed,02/08/2012,11-03298561,Alley Light Out,13450 S BRANDON AVE,60633.0,1199441.33129769,1816710.59212683,10.0,4.0,55.0,41.6518532442548,-87.54592406737619,"(41.651853244254795, -87.54592406737618)",2011-07-05
37688,07/05/2011,Completed,02/16/2012,11-03296886,Alley Light Out,1830 S FAIRFIELD AVE,60608.0,1158321.45989228,1890933.26247525,28.0,10.0,29.0,41.85646401682097,-87.69435928239727,"(41.85646401682098, -87.69435928239726)",2011-07-05
37689,07/05/2011,Completed,02/16/2012,11-03302357,Alley Light Out,3311 W LEXINGTON ST,60624.0,1154412.37140668,1896509.1043944,24.0,11.0,27.0,41.871843672156096,-87.70855882002644,"(41.871843672156096, -87.70855882002644)",2011-07-05
37690,07/05/2011,Completed,02/27/2012,11-03305838,Alley Light Out,2928 W COYLE AVE,60645.0,1155606.7100966002,1945951.58572362,50.0,24.0,2.0,42.00749341929801,-87.70283879797589,"(42.00749341929801, -87.70283879797589)",2011-07-05
37691,07/05/2011,Completed,04/17/2012,11-03303188,Alley Light Out,4633 W WASHINGTON BLVD,60644.0,1145507.52298585,1900097.35633196,28.0,11.0,25.0,41.881863473456185,-87.74116156865759,"(41.881863473456185, -87.7411615686576)",2011-07-05
37692,07/05/2011,Completed,07/06/2011,11-03301026,Alley Light Out,4335 S PAULINA ST,60609.0,1165734.21991359,1875955.05378307,12.0,9.0,61.0,41.81520769504671,-87.66757669035748,"(41.81520769504671, -87.66757669035748)",2011-07-05
37693,07/05/2011,Completed,08/12/2011,11-03305833,Alley Light Out,6358 S RHODES AVE,60637.0,1180994.94273002,1862970.94607061,20.0,3.0,42.0,41.77924008398761,-87.61199803456974,"(41.77924008398761, -87.61199803456974)",2011-07-05
37694,07/05/2011,Completed,08/25/2011,11-03305928,Alley Light Out,11400 S WALLACE ST,60628.0,1174346.51902771,1829289.16337596,34.0,22.0,49.0,41.68696324253063,-87.63737017339795,"(41.68696324253063, -87.63737017339797)",2011-07-05
37695,07/05/2011,Completed,08/25/2011,11-03305933,Alley Light Out,11339 S WALLACE ST,60628.0,1174333.86579637,1829689.73871373,34.0,22.0,49.0,41.68806276397175,-87.63740464827492,"(41.68806276397175, -87.63740464827492)",2011-07-05
37696,07/05/2011,Completed,08/26/2011,11-03299136,Alley Light Out,4922 N KILDARE AVE,60630.0,1146825.73738315,1932366.61569418,39.0,17.0,14.0,41.970388301576044,-87.73549490911489,"(41.97038830157605, -87.73549490911489)",2011-07-05
37697,07/05/2011,Completed,08/26/2011,11-03305873,Alley Light Out,1054 W LAWRENCE AVE,60640.0,1168278.36751085,1932044.07218381,46.0,20.0,3.0,41.969065349064174,-87.65662170280274,"(41.969065349064174, -87.65662170280274)",2011-07-05
37698,07/05/2011,Completed,08/26/2011,11-03306120,Alley Light Out,5321 W CORNELIA AVE,60641.0,1140269.33290617,1922755.76582118,38.0,16.0,15.0,41.94413826900094,-87.75984003466898,"(41.94413826900094, -87.75984003466898)",2011-07-05
37699,07/05/2011,Completed,08/29/2011,11-03304871,Alley Light Out,6219 W MONTROSE AVE,60634.0,1134016.57997428,1928594.85091805,38.0,16.0,15.0,41.96027382446253,-87.78268485947274,"(41.960273824462526, -87.78268485947274)",2011-07-05
37700,07/05/2011,Completed,08/29/2011,11-03304910,Alley Light Out,6244 W MONTROSE AVE,60634.0,1133830.47997428,1928590.25091805,38.0,16.0,15.0,41.960264481177454,-87.78336917351385,"(41.960264481177454, -87.78336917351385)",2011-07-05
37701,07/05/2011,Completed,08/30/2011,11-03300675,Alley Light Out,2305 S LAWNDALE AVE,60623.0,1152067.58150707,1888428.76001531,22.0,10.0,30.0,41.84971677925554,-87.7173803896735,"(41.84971677925554, -87.7173803896735)",2011-07-05
37702,07/05/2011,Completed,08/30/2011,11-03300681,Alley Light Out,2348 S MILLARD AVE,60623.0,1152407.42649315,1888153.84887222,22.0,10.0,30.0,41.848955693921226,-87.71614035350053,"(41.84895569392123, -87.71614035350053)",2011-07-05
37703,07/05/2011,Completed,08/30/2011,11-03305792,Alley Light Out,2204 S LEAVITT ST,60608.0,1162044.04947845,1889330.12157691,25.0,10.0,31.0,41.85198800599545,-87.68074012829548,"(41.851988005995445, -87.68074012829548)",2011-07-05
37704,07/05/2011,Completed,08/31/2011,11-03302852,Alley Light Out,2540 S WENTWORTH AVE,60616.0,1175333.38259543,1887357.07049189,11.0,21.0,34.0,41.84628630784122,-87.63202416279115,"(41.84628630784122, -87.63202416279115)",2011-07-05
37705,07/05/2011,Completed,09/02/2011,11-03297348,Alley Light Out,7250 S MOZART ST,60629.0,1158619.22251401,1856764.60090667,18.0,8.0,66.0,41.76269473961375,-87.69419904585129,"(41.76269473961375, -87.69419904585129)",2011-07-05
37706,07/05/2011,Completed,09/07/2011,11-03302916,Alley Light Out,5100 W VAN BUREN ST,60644.0,1142205.95869818,1897525.82126769,28.0,15.0,25.0,41.874868732043815,-87.75334881638321,"(41.87486873204381, -87.75334881638321)",2011-07-05
37707,07/05/2011,Completed,09/26/2011,11-03298584,Alley Light Out,736 N LARRABEE ST,60654.0,1172208.29919151,1905322.86197604,42.0,18.0,8.0,41.8956551671445,-87.64296267104879,"(41.8956551671445, -87.64296267104879)",2011-07-05
37708,07/05/2011,Completed,09/26/2011,11-03301507,Alley Light Out,8557 S COMMERCIAL AVE,60617.0,1197631.92177095,1848806.12357859,10.0,4.0,46.0,41.7399717038999,-87.55147832395023,"(41.7399717038999, -87.55147832395023)",2011-07-05
37709,07/05/2011,Completed,09/30/2011,11-03296711,Alley Light Out,5917 N DRAKE AVE,60659.0,1151645.24008331,1939085.67029069,39.0,17.0,13.0,41.98873213276789,-87.71759556674348,"(41.98873213276789, -87.71759556674348)",2011-07-05
37710,07/05/2011,Completed,10/06/2011,11-03302681,Alley Light Out,8136 S COLFAX AVE,60617.0,1194923.48570915,1851525.27522057,7.0,4.0,46.0,41.74750037330105,-87.56131208013849,"(41.74750037330105, -87.56131208013848)",2011-07-05
37711,07/05/2011,Completed,10/07/2011,11-03300159,Alley Light Out,1158 W 20TH PL,60608.0,1168998.40558061,1890238.08992061,25.0,12.0,31.0,41.85433168363339,-87.65518953274244,"(41.85433168363339, -87.65518953274243)",2011-07-05
37712,07/05/2011,Completed,10/12/2011,11-03301891,Alley Light Out,9901 S CLYDE AVE,60617.0,1192147.37978649,1839745.52269891,7.0,4.0,51.0,41.71524352377254,-87.57186622405241,"(41.71524352377255, -87.57186622405241)",2011-07-05
37713,07/05/2011,Completed,10/17/2011,11-03300109,Alley Light Out,1517 W CHASE AVE,60626.0,1164937.7709051,1948346.40418086,49.0,24.0,1.0,42.013871141723854,-87.66843958163629,"(42.013871141723854, -87.6684395816363)",2011-07-05
37714,07/05/2011,Completed,10/19/2011,11-03304097,Alley Light Out,8815 S CALUMET AVE,60619.0,1180012.3866768999,1846551.31319978,6.0,6.0,44.0,41.734205376434005,-87.61610200800257,"(41.73420537643401, -87.61610200800257)",2011-07-05
37715,07/05/2011,Completed,10/19/2011,11-03305861,Alley Light Out,9441 S MICHIGAN AVE,60619.0,1178813.67483043,1842404.26497173,6.0,6.0,49.0,41.722852682902825,-87.62061929818785,"(41.722852682902825, -87.62061929818785)",2011-07-05
37716,07/05/2011,Completed,11/03/2011,11-03305749,Alley Light Out,2829 W 84TH ST,60652.0,1158921.83050521,1848871.63998998,18.0,8.0,70.0,41.74102905076496,-87.69330513152893,"(41.74102905076496, -87.69330513152892)",2011-07-05
37717,07/05/2011,Completed,11/04/2011,11-03305178,Alley Light Out,5155 N NATOMA AVE,60656.0,1131248.7967256,1933873.77968085,41.0,16.0,10.0,41.974808095994355,-87.7927382998724,"(41.97480809599436, -87.7927382998724)",2011-07-05
37718,07/05/2011,Completed,11/11/2011,11-03303537,Alley Light Out,8200 S ELLIS AVE,60619.0,1184322.78302762,1850830.51239762,8.0,6.0,44.0,41.745848306345245,-87.60017731654298,"(41.74584830634525, -87.60017731654298)",2011-07-05
37719,07/05/2011,Completed,11/18/2011,11-03297430,Alley Light Out,9000 S DANTE AVE,60619.0,1187355.74921149,1845590.18816963,8.0,4.0,48.0,41.73139687297414,-87.58923009306524,"(41.73139687297414, -87.58923009306523)",2011-07-05
37720,07/05/2011,Completed,11/18/2011,11-03305711,Alley Light Out,8200 S ANTHONY AVE,60617.0,1189487.30658116,1850959.76031733,8.0,4.0,45.0,41.746080665651775,-87.58124960809111,"(41.746080665651775, -87.58124960809111)",2011-07-05
37721,07/05/2011,Completed,11/21/2011,11-03301321,Alley Light Out,8056 S OGLESBY AVE,60617.0,1193256.20731391,1852008.64658478,8.0,4.0,46.0,41.7488676722773,-87.56740559255539,"(41.748867672277306, -87.56740559255539)",2011-07-05
37722,07/05/2011,Completed,11/25/2011,11-03300128,Alley Light Out,1220 W 111TH PL,60643.0,1170181.75970278,1830845.39140262,34.0,22.0,75.0,41.69132510550343,-87.65257172083612,"(41.69132510550343, -87.65257172083612)",2011-07-05
37723,07/05/2011,Completed,12/02/2011,11-03305786,Alley Light Out,2300 W JACKSON BLVD,60612.0,1161120.73549512,1898647.51159698,2.0,12.0,28.0,41.87757502939053,-87.68387023250781,"(41.87757502939052, -87.68387023250781)",2011-07-05
37724,07/05/2011,Completed,12/06/2011,11-03304890,Alley Light Out,5617 S MENARD AVE,60638.0,1138661.92280467,1866754.20140288,23.0,8.0,56.0,41.79049164353359,-87.76710594412249,"(41.790491643533585, -87.76710594412249)",2011-07-05
37725,07/05/2011,Completed,12/09/2011,11-03306085,Alley Light Out,2621 W JACKSON BLVD,60612.0,1158929.26342322,1898598.31168405,28.0,11.0,27.0,41.87748524371054,-87.69191810098431,"(41.87748524371054, -87.69191810098432)",2011-07-05
37726,07/05/2011,Completed,12/13/2011,11-03297346,Alley Light Out,7900 S WABASH AVE,60619.0,1178080.12800075,1852648.06179378,6.0,6.0,44.0,41.75097955757956,-87.62299649015779,"(41.750979557579555, -87.6229964901578)",2011-07-05
37727,07/05/2011,Completed,12/14/2011,11-03298789,Alley Light Out,4214 N CALIFORNIA AVE,60618.0,1156958.1629036998,1927872.49012031,33.0,17.0,16.0,41.95785610061006,-87.69835963366114,"(41.95785610061006, -87.69835963366114)",2011-07-05
37728,07/05/2011,Completed,12/15/2011,11-03301398,Alley Light Out,3618 W 86TH PL,60652.0,1153742.02299233,1846972.83988052,18.0,8.0,70.0,41.7359225646532,-87.71233396489237,"(41.7359225646532, -87.71233396489238)",2011-07-05
37729,07/05/2011,Completed,12/23/2011,11-03303063,Alley Light Out,6816 S HERMITAGE AVE,60636.0,1165854.94121228,1859493.81352858,17.0,7.0,67.0,41.77003347584372,-87.6676014561096,"(41.77003347584372, -87.6676014561096)",2011-07-05
37782,07/06/2011,Completed - Dup,07/06/2011,11-03307114,Alley Light Out,3615 N MARSHFIELD AVE,60613.0,1164679.00132316,1924066.23158945,47.0,19.0,6.0,41.94725105302727,-87.67008351913569,"(41.94725105302727, -87.67008351913569)",2011-07-06
37783,07/06/2011,Completed - Dup,07/06/2011,11-03307942,Alley Light Out,6302 N SACRAMENTO AVE,60659.0,1155204.25056748,1941663.28687955,50.0,24.0,2.0,41.995734271384634,-87.70443542044843,"(41.99573427138463, -87.70443542044843)",2011-07-06
37784,07/06/2011,Completed - Dup,07/06/2011,11-03308045,Alley Light Out,8548 S KILPATRICK AVE,60652.0,1146592.94992542,1847439.84370854,18.0,8.0,70.0,41.73734268005054,-87.73851413524206,"(41.73734268005054, -87.73851413524207)",2011-07-06
37785,07/06/2011,Completed - Dup,07/06/2011,11-03308625,Alley Light Out,10409 S ALBANY AVE,60655.0,1157486.98610968,1835444.90463408,19.0,22.0,74.0,41.70421293454917,-87.69892487571909,"(41.70421293454917, -87.69892487571909)",2011-07-06
37786,07/06/2011,Completed - Dup,07/06/2011,11-03309015,Alley Light Out,11134 S SAWYER AVE,60655.0,1156672.62609829,1830583.10399695,19.0,22.0,74.0,41.69088767149695,-87.70203744663536,"(41.69088767149695, -87.70203744663536)",2011-07-06
37787,07/06/2011,Completed - Dup,07/06/2011,11-03309887,Alley Light Out,11211 S ST LAWRENCE AVE,60628.0,1182254.84722437,1830744.49690072,9.0,5.0,50.0,41.69077790831345,-87.60837431052008,"(41.69077790831345, -87.60837431052008)",2011-07-06
37788,07/06/2011,Completed - Dup,07/07/2011,11-03309075,Alley Light Out,6016 S LOOMIS BLVD,60636.0,1168026.13870917,1864856.92728925,16.0,7.0,67.0,41.78470413680687,-87.65948870952694,"(41.78470413680687, -87.65948870952694)",2011-07-06
37789,07/06/2011,Completed - Dup,07/07/2011,11-03312502,Alley Light Out,7325 S ROCKWELL ST,60629.0,1160309.35360856,1855987.75920947,18.0,8.0,66.0,41.7605283434236,-87.688025762513,"(41.7605283434236, -87.68802576251302)",2011-07-06
37790,07/06/2011,Completed - Dup,07/07/2011,11-03314318,Alley Light Out,2901 N NEWLAND AVE,60634.0,1129586.46462736,1918513.10008232,36.0,25.0,18.0,41.93268531012904,-87.7992034000942,"(41.93268531012904, -87.7992034000942)",2011-07-06
37791,07/06/2011,Completed - Dup,07/07/2011,11-03314352,Alley Light Out,2855 N SACRAMENTO AVE,60618.0,1155884.9711145,1918833.6140194999,35.0,14.0,21.0,41.93307456538306,-87.70254961192387,"(41.93307456538306, -87.70254961192387)",2011-07-06
37792,07/06/2011,Completed - Dup,07/07/2011,11-03314449,Alley Light Out,1411 W OHIO ST,60642.0,1166837.9737725,1904124.76520097,27.0,13.0,24.0,41.892484389599225,-87.66272094099573,"(41.89248438959923, -87.66272094099573)",2011-07-06
37793,07/06/2011,Completed - Dup,07/07/2011,11-03314489,Alley Light Out,8935 S ABERDEEN ST,60620.0,1170551.05238754,1845552.88031743,21.0,22.0,73.0,41.731676668712495,-87.65079288076548,"(41.731676668712495, -87.65079288076548)",2011-07-06
37794,07/06/2011,Completed - Dup,07/07/2011,11-03314491,Alley Light Out,5740 N SACRAMENTO AVE,60659.0,1155323.93821984,1937988.84396854,40.0,20.0,2.0,41.98564901464679,-87.70409445894249,"(41.98564901464679, -87.70409445894249)",2011-07-06
37795,07/06/2011,Completed - Dup,07/07/2011,11-03314632,Alley Light Out,5346 S PEORIA ST,60609.0,1171212.04006577,1869257.16797232,20.0,9.0,61.0,41.79670978078313,-87.64767922604112,"(41.796709780783125, -87.64767922604113)",2011-07-06
37796,07/06/2011,Completed - Dup,07/07/2011,11-03314642,Alley Light Out,3354 W MONROE ST,60624.0,1154046.21717012,1899335.76719956,28.0,11.0,27.0,41.8796076374675,-87.70982773996691,"(41.8796076374675, -87.70982773996691)",2011-07-06
37797,07/06/2011,Completed - Dup,07/07/2011,11-03314656,Alley Light Out,1106 N CHRISTIANA AVE,60651.0,1153787.63338314,1907175.17506816,26.0,11.0,23.0,41.90112489616927,-87.71056830862757,"(41.90112489616927, -87.71056830862756)",2011-07-06
37798,07/06/2011,Completed - Dup,07/07/2011,11-03314737,Alley Light Out,5911 N MAPLEWOOD AVE,60659.0,1158259.70879946,1939165.33858493,40.0,20.0,2.0,41.9888176731839,-87.6932645053336,"(41.9888176731839, -87.6932645053336)",2011-07-06
37799,07/06/2011,Completed - Dup,07/08/2011,11-03307808,Alley Light Out,10632 S PEORIA ST,60643.0,1172201.15368851,1834330.70433037,34.0,22.0,73.0,41.70084531422107,-87.64507655706024,"(41.70084531422107, -87.64507655706024)",2011-07-06
37800,07/06/2011,Completed - Dup,07/08/2011,11-03311915,Alley Light Out,7529 S PRAIRIE AVE,60619.0,1179342.02818006,1855150.20147973,6.0,6.0,69.0,41.75781702715694,-87.61829609587359,"(41.75781702715694, -87.61829609587359)",2011-07-06
37801,07/06/2011,Completed - Dup,07/11/2011,11-03310700,Alley Light Out,7529 N ODELL AVE,60631.0,1126397.73621881,1949437.53517278,41.0,16.0,9.0,42.017599146529655,-87.81022794072838,"(42.01759914652966, -87.81022794072838)",2011-07-06
37802,07/06/2011,Completed - Dup,07/12/2011,11-03306291,Alley Light Out,329 W 23RD PL,60616.0,1174268.50833186,1888706.00030303,25.0,21.0,34.0,41.850011671747694,-87.63589195092918,"(41.850011671747694, -87.63589195092919)",2011-07-06
37803,07/06/2011,Completed - Dup,07/12/2011,11-03314126,Alley Light Out,7259 S GREEN ST,60621.0,1171893.02522811,1856715.57630105,17.0,7.0,68.0,41.762279268220965,-87.6455498431857,"(41.76227926822097, -87.64554984318572)",2011-07-06
37804,07/06/2011,Completed - Dup,07/13/2011,11-03306290,Alley Light Out,459 W 23RD PL,60616.0,1173428.21690816,1888683.83823047,25.0,9.0,34.0,41.84996954329578,-87.63897658398135,"(41.849969543295785, -87.63897658398135)",2011-07-06
37805,07/06/2011,Completed - Dup,07/13/2011,11-03307067,Alley Light Out,5220 S NEENAH AVE,60638.0,1133595.69200343,1869251.81992674,23.0,8.0,56.0,41.79743562310605,-87.7856245949202,"(41.79743562310605, -87.78562459492021)",2011-07-06
37806,07/06/2011,Completed - Dup,07/13/2011,11-03309473,Alley Light Out,7126 S PRINCETON AVE,60621.0,1175526.99151008,1857706.47203381,6.0,7.0,69.0,41.76491789633615,-87.63220131581245,"(41.764917896336144, -87.63220131581245)",2011-07-06
37807,07/06/2011,Completed - Dup,07/13/2011,11-03313540,Alley Light Out,5625 S MELVINA AVE,60638.0,1136005.72477632,1866611.23618561,23.0,8.0,56.0,41.790146914496596,-87.77684914917644,"(41.79014691449659, -87.77684914917644)",2011-07-06
37808,07/06/2011,Completed - Dup,07/15/2011,11-03311003,Alley Light Out,1646 E 84TH ST,60617.0,1188698.21603294,1849611.63087256,8.0,4.0,45.0,41.74240015878936,-87.58418396507841,"(41.74240015878936, -87.58418396507841)",2011-07-06
37809,07/06/2011,Completed - Dup,07/16/2011,11-03308719,Alley Light Out,10429 S AVENUE H,60617.0,1202826.14076569,1836419.8296299998,10.0,4.0,52.0,41.70585174021957,-87.53286987040119,"(41.70585174021957, -87.53286987040119)",2011-07-06
37810,07/06/2011,Completed - Dup,07/22/2011,11-03306292,Alley Light Out,476 W 24TH ST,60616.0,1173313.11732813,1888350.41989645,25.0,9.0,34.0,41.8490571701869,-87.63940890207145,"(41.84905717018691, -87.63940890207145)",2011-07-06
37811,07/06/2011,Completed - Dup,08/02/2011,11-03312763,Alley Light Out,1728 W 101ST PL,60643.0,1166623.44107566,1837236.93321622,19.0,22.0,72.0,41.70894098389314,-87.66541764458894,"(41.70894098389314, -87.66541764458896)",2011-07-06
37812,07/06/2011,Completed - Dup,08/02/2011,11-03313547,Alley Light Out,7844 S LAFLIN ST,60620.0,1167477.01292359,1852712.50558525,17.0,6.0,71.0,41.751390049214734,-87.66184965123581,"(41.751390049214734, -87.66184965123581)",2011-07-06
37813,07/06/2011,Completed - Dup,08/03/2011,11-03306279,Alley Light Out,1435 N LOCKWOOD AVE,60651.0,1140764.26900929,1909037.70601078,37.0,25.0,25.0,41.90648536292972,-87.7583589436273,"(41.906485362929715, -87.7583589436273)",2011-07-06
37814,07/06/2011,Completed - Dup,08/03/2011,11-03306414,Alley Light Out,2723 W LEXINGTON ST,60612.0,1158330.46531491,1896591.87429238,2.0,11.0,27.0,41.871991643082666,-87.694171591544,"(41.871991643082666, -87.694171591544)",2011-07-06
37815,07/06/2011,Completed - Dup,08/03/2011,11-03307003,Alley Light Out,2837 S PRINCETON AVE,60616.0,1174753.12627541,1885806.59730022,11.0,21.0,34.0,41.842044671057884,-87.63419997157726,"(41.84204467105788, -87.63419997157727)",2011-07-06
37816,07/06/2011,Completed - Dup,08/03/2011,11-03307710,Alley Light Out,4612 S WINCHESTER AVE,60609.0,1164129.14007564,1874089.68547757,20.0,9.0,61.0,41.81012288162656,-87.67351692299063,"(41.810122881626555, -87.67351692299063)",2011-07-06
37817,07/06/2011,Completed - Dup,08/03/2011,11-03307719,Alley Light Out,7131 W 63RD PL,60638.0,1130011.72980376,1861594.97900522,23.0,8.0,64.0,41.776485702369726,-87.79894234139613,"(41.77648570236973, -87.79894234139613)",2011-07-06
37818,07/06/2011,Completed - Dup,08/03/2011,11-03307766,Alley Light Out,8018 S TROY ST,60652.0,1156772.74643054,1851274.44022122,18.0,8.0,70.0,41.74766631869783,-87.70111460599671,"(41.74766631869783, -87.7011146059967)",2011-07-06
37819,07/06/2011,Completed - Dup,08/03/2011,11-03308406,Alley Light Out,1528 S KOSTNER AVE,60623.0,1147302.0118818001,1892157.09380953,24.0,10.0,29.0,41.8600402722031,-87.7347754818514,"(41.8600402722031, -87.73477548185141)",2011-07-06
37820,07/06/2011,Completed - Dup,08/03/2011,11-03308697,Alley Light Out,10430 S AVENUE G,60617.0,1203157.12787756,1836415.38010355,10.0,4.0,52.0,41.70583108135324,-87.531658004482,"(41.70583108135324, -87.531658004482)",2011-07-06
37821,07/06/2011,Completed - Dup,08/03/2011,11-03308794,Alley Light Out,11648 S JUSTINE ST,60643.0,1168094.34670182,1827480.54576932,34.0,5.0,53.0,41.68213641703469,-87.66031020578932,"(41.68213641703469, -87.66031020578932)",2011-07-06
37822,07/06/2011,Completed - Dup,08/03/2011,11-03309183,Alley Light Out,9011 S CARPENTER ST,60620.0,1170896.89120311,1845057.89963102,21.0,22.0,73.0,41.730310838978575,-87.64954034338955,"(41.730310838978575, -87.64954034338955)",2011-07-06
37823,07/06/2011,Completed - Dup,08/03/2011,11-03309263,Alley Light Out,5282 N LUNA AVE,60630.0,1138180.22300815,1934783.64067872,45.0,16.0,11.0,41.97718197481045,-87.7672267155887,"(41.97718197481045, -87.7672267155887)",2011-07-06
37824,07/06/2011,Completed - Dup,08/03/2011,11-03309449,Alley Light Out,910 N LAVERGNE AVE,60651.0,1142857.35887933,1905626.88828273,37.0,15.0,25.0,41.89708693601418,-87.75075518866986,"(41.89708693601418, -87.75075518866984)",2011-07-06
37825,07/06/2011,Completed - Dup,08/03/2011,11-03310613,Alley Light Out,5282 N LUNA AVE,60630.0,1138180.22300815,1934783.64067872,45.0,16.0,11.0,41.97718197481045,-87.7672267155887,"(41.97718197481045, -87.7672267155887)",2011-07-06
37826,07/06/2011,Completed - Dup,08/03/2011,11-03310951,Alley Light Out,7329 S ROCKWELL ST,60629.0,1160310.05360856,1855961.95920947,18.0,8.0,66.0,41.76045752997588,-87.68802390630499,"(41.76045752997588, -87.68802390630498)",2011-07-06
37827,07/06/2011,Completed - Dup,08/03/2011,11-03311158,Alley Light Out,910 N LAVERGNE AVE,60651.0,1142857.35887933,1905626.88828273,37.0,15.0,25.0,41.89708693601418,-87.75075518866986,"(41.89708693601418, -87.75075518866984)",2011-07-06
37828,07/06/2011,Completed - Dup,08/03/2011,11-03311356,Alley Light Out,4529 N SACRAMENTO AVE,60625.0,1155564.47166594,1929934.09749412,33.0,17.0,14.0,41.96354150055079,-87.7034276218868,"(41.96354150055079, -87.70342762188682)",2011-07-06
37829,07/06/2011,Completed - Dup,08/03/2011,11-03311515,Alley Light Out,8911 S EUCLID AVE,60617.0,1190731.49477513,1846272.76727528,8.0,4.0,48.0,41.73318918710905,-87.57684168066103,"(41.73318918710905, -87.57684168066103)",2011-07-06
37830,07/06/2011,Completed - Dup,08/03/2011,11-03311538,Alley Light Out,2242 N WESTERN AVE,60647.0,1159986.15340108,1915146.67001781,1.0,14.0,22.0,41.92287355105332,-87.68758012102987,"(41.92287355105332, -87.68758012102988)",2011-07-06
37831,07/06/2011,Completed - Dup,08/03/2011,11-03311545,Alley Light Out,57 E 102ND ST,60628.0,1178619.09739844,1837360.86650212,9.0,5.0,49.0,41.70901734891455,-87.62148474495845,"(41.70901734891455, -87.62148474495845)",2011-07-06
37832,07/06/2011,Completed - Dup,08/03/2011,11-03311720,Alley Light Out,10824 S AVENUE L,60617.0,1201861.32180818,1833793.47027978,10.0,4.0,52.0,41.698669342382615,-87.53649185959603,"(41.69866934238262, -87.53649185959603)",2011-07-06
37833,07/06/2011,Completed - Dup,08/03/2011,11-03311788,Alley Light Out,2647 N NEVA AVE,60707.0,1127972.3532777,1916796.8147317,36.0,25.0,18.0,41.92800304972997,-87.80517407197384,"(41.92800304972998, -87.80517407197385)",2011-07-06
37834,07/06/2011,Completed - Dup,08/03/2011,11-03311798,Alley Light Out,5044 N WESTERN AVE,60625.0,1159444.97872232,1933513.07111914,40.0,20.0,4.0,41.97328321454476,-87.68906130617519,"(41.97328321454476, -87.6890613061752)",2011-07-06
37835,07/06/2011,Completed - Dup,08/03/2011,11-03311832,Alley Light Out,8218 S SAGINAW AVE,60617.0,1195266.77588989,1850992.50427756,7.0,4.0,46.0,41.746029948548,-87.56007173383574,"(41.746029948548, -87.56007173383573)",2011-07-06
37836,07/06/2011,Completed - Dup,08/03/2011,11-03311877,Alley Light Out,11727 S HARVARD AVE,60628.0,1176060.43611409,1827157.21842276,34.0,5.0,53.0,41.68107469089145,-87.63115940778,"(41.68107469089145, -87.63115940778)",2011-07-06
37837,07/06/2011,Completed - Dup,08/03/2011,11-03312052,Alley Light Out,8815 S CALUMET AVE,60619.0,1180012.3866768999,1846551.31319978,6.0,6.0,44.0,41.734205376434005,-87.61610200800257,"(41.73420537643401, -87.61610200800257)",2011-07-06
37838,07/06/2011,Completed - Dup,08/03/2011,11-03312268,Alley Light Out,3600 N KEELER AVE,60641.0,1147774.49127287,1923598.01979045,38.0,17.0,16.0,41.94630837970776,-87.73223241966585,"(41.94630837970776, -87.73223241966585)",2011-07-06
37839,07/06/2011,Completed - Dup,08/03/2011,11-03312313,Alley Light Out,2330 S LAWNDALE AVE,60623.0,1152072.28150707,1888262.96001531,22.0,10.0,30.0,41.8492617113837,-87.71736750466059,"(41.849261711383704, -87.7173675046606)",2011-07-06
37840,07/06/2011,Completed - Dup,08/03/2011,11-03312451,Alley Light Out,1907 S HOMAN AVE,60623.0,1154002.49998469,1890430.98000947,24.0,10.0,29.0,41.85517279999087,-87.71022559833072,"(41.85517279999087, -87.71022559833072)",2011-07-06
37841,07/06/2011,Completed - Dup,08/03/2011,11-03312831,Alley Light Out,8342 S DREXEL AVE,60619.0,1183679.18661793,1849867.70287195,8.0,6.0,44.0,41.74322127748052,-87.60256551631036,"(41.743221277480515, -87.60256551631036)",2011-07-06
37842,07/06/2011,Completed - Dup,08/03/2011,11-03312861,Alley Light Out,6611 S WOOD ST,60636.0,1165479.4459183,1860845.13250064,15.0,7.0,67.0,41.77374964214359,-87.66893960128809,"(41.773749642143585, -87.6689396012881)",2011-07-06
37843,07/06/2011,Completed - Dup,08/03/2011,11-03312925,Alley Light Out,6611 S WOOD ST,60636.0,1165479.4459183,1860845.13250064,15.0,7.0,67.0,41.77374964214359,-87.66893960128809,"(41.773749642143585, -87.6689396012881)",2011-07-06
37844,07/06/2011,Completed - Dup,08/03/2011,11-03313466,Alley Light Out,6244 W MONTROSE AVE,60634.0,1133830.47997428,1928590.25091805,38.0,16.0,15.0,41.960264481177454,-87.78336917351385,"(41.960264481177454, -87.78336917351385)",2011-07-06
37845,07/06/2011,Completed - Dup,08/03/2011,11-03313569,Alley Light Out,6964 N HAMILTON AVE,60645.0,1160743.94318538,1946190.63849165,50.0,24.0,2.0,42.00804401354252,-87.68393120780622,"(42.008044013542516, -87.68393120780622)",2011-07-06
37846,07/06/2011,Completed - Dup,08/03/2011,11-03314597,Alley Light Out,5644 W GIDDINGS ST,60630.0,1137848.88569982,1931018.12991127,45.0,16.0,15.0,41.96685508360893,-87.76853650488114,"(41.96685508360893, -87.76853650488113)",2011-07-06
37847,07/06/2011,Completed - Dup,08/03/2011,11-03314657,Alley Light Out,1058 N CHRISTIANA AVE,60651.0,1153795.91997284,1906915.96752108,26.0,11.0,23.0,41.90041344135654,-87.71054478290002,"(41.90041344135655, -87.71054478290002)",2011-07-06
37848,07/06/2011,Completed - Dup,08/23/2011,11-03311259,Alley Light Out,2956 W ARDMORE AVE,60659.0,1155522.94393438,1938386.06990001,40.0,20.0,2.0,41.986735007655135,-87.70335177864494,"(41.986735007655135, -87.70335177864493)",2011-07-06
37849,07/06/2011,Completed - Dup,08/23/2011,11-03311522,Alley Light Out,5016 W MONTROSE AVE,60641.0,1142158.07010586,1928786.80813406,45.0,16.0,15.0,41.960653106017645,-87.75274761560188,"(41.960653106017645, -87.75274761560188)",2011-07-06
37850,07/06/2011,Completed - Dup,08/30/2011,11-03311693,Alley Light Out,233 E 90TH ST,60619.0,1179316.80912213,1845353.30002058,6.0,6.0,44.0,41.73093375947176,-87.61868670514427,"(41.73093375947176, -87.61868670514427)",2011-07-06
37851,07/06/2011,Completed - Dup,09/30/2011,11-03311499,Alley Light Out,7845 S CHAMPLAIN AVE,60619.0,1181924.02797143,1853130.52122822,6.0,6.0,69.0,41.75221552973952,-87.60889578812956,"(41.75221552973952, -87.60889578812956)",2011-07-06
37852,07/06/2011,Completed - Dup,11/22/2011,11-03313470,Alley Light Out,5416 W AUGUSTA BLVD,60651.0,1139999.34616575,1906135.74316768,37.0,15.0,25.0,41.89853606974781,-87.76123993681557,"(41.89853606974781, -87.76123993681556)",2011-07-06
37853,07/06/2011,Completed - Dup,12/06/2011,11-03312411,Alley Light Out,5738 S NEW ENGLAND AVE,60638.0,1131373.82758631,1865717.74369766,23.0,8.0,56.0,41.78777602027738,-87.79385401259006,"(41.787776020277384, -87.79385401259006)",2011-07-06
37854,07/06/2011,Completed,01/04/2012,11-03306134,Alley Light Out,3701 W 82ND ST,60652.0,1153142.86101921,1849958.86262338,18.0,8.0,70.0,41.744128569085305,-87.71445042915484,"(41.744128569085305, -87.71445042915484)",2011-07-06
37855,07/06/2011,Completed,01/04/2012,11-03306218,Alley Light Out,3701 W 79TH ST,60652.0,1153203.93528234,1851985.70201235,18.0,8.0,70.0,41.749689353589616,-87.71417320490295,"(41.749689353589616, -87.71417320490296)",2011-07-06
37856,07/06/2011,Completed,01/06/2012,11-03307741,Alley Light Out,450 N CARPENTER ST,60642.0,1169372.37842938,1903316.77217086,27.0,13.0,24.0,41.89021246994067,-87.65343667556898,"(41.89021246994067, -87.65343667556898)",2011-07-06
37857,07/06/2011,Completed,01/06/2012,11-03313754,Alley Light Out,6127 S HONORE ST,60636.0,1165069.02927351,1864043.09783224,15.0,7.0,67.0,41.7825339675879,-87.67035372576727,"(41.7825339675879, -87.67035372576726)",2011-07-06
37858,07/06/2011,Completed,01/11/2012,11-03312540,Alley Light Out,2420 N ASHLAND AVE,60614.0,1165261.52328675,1916229.88007931,32.0,19.0,7.0,41.92573529659836,-87.66816582185537,"(41.92573529659836, -87.66816582185538)",2011-07-06
37859,07/06/2011,Completed,01/11/2012,11-03313099,Alley Light Out,7426 N ORIOLE AVE,60631.0,1124738.19453097,1948691.34571084,41.0,16.0,9.0,42.01557920488635,-87.81635141677097,"(42.01557920488635, -87.81635141677097)",2011-07-06
37860,07/06/2011,Completed,01/11/2012,11-03313651,Alley Light Out,6849 N ORIOLE AVE,60631.0,1124730.04712643,1944858.67032831,41.0,16.0,9.0,42.005062128089826,-87.81646654747178,"(42.00506212808983, -87.81646654747176)",2011-07-06
37861,07/06/2011,Completed,01/12/2012,11-03313411,Alley Light Out,4101 W 55TH ST,60632.0,1149959.73827269,1867812.82222077,13.0,8.0,62.0,41.79318500520338,-87.7256516697382,"(41.793185005203384, -87.72565166973821)",2011-07-06
37862,07/06/2011,Completed,01/12/2012,11-03314586,Alley Light Out,1628 N MAJOR AVE,60639.0,1138149.26009623,1910251.48686591,29.0,25.0,25.0,41.909863818895104,-87.76793565483187,"(41.909863818895104, -87.76793565483186)",2011-07-06
37863,07/06/2011,Completed,01/13/2012,11-03314739,Alley Light Out,3940 W 69TH ST,60629.0,1151287.35419964,1858555.79743412,13.0,8.0,65.0,41.76775642501801,-87.72102508689731,"(41.76775642501801, -87.72102508689731)",2011-07-06
37864,07/06/2011,Completed,01/17/2012,11-03309639,Alley Light Out,4533 S KEDZIE AVE,60632.0,1155791.19152627,1874385.98007448,14.0,9.0,58.0,41.811107549276265,-87.70409165340605,"(41.811107549276265, -87.70409165340605)",2011-07-06
37865,07/06/2011,Completed,01/17/2012,11-03312973,Alley Light Out,4233 S WASHTENAW AVE,60632.0,1159068.18027902,1876483.93790527,12.0,9.0,58.0,41.81679813692072,-87.69201440316307,"(41.816798136920724, -87.69201440316306)",2011-07-06
37866,07/06/2011,Completed,01/17/2012,11-03313303,Alley Light Out,5337 S UNION AVE,60609.0,1172539.48461947,1869485.41918872,3.0,9.0,61.0,41.797306968612794,-87.64280464623936,"(41.7973069686128, -87.64280464623936)",2011-07-06
37867,07/06/2011,Completed,01/18/2012,11-03311341,Alley Light Out,5738 W NEWPORT AVE,60634.0,1137499.88748961,1922358.99563254,38.0,16.0,15.0,41.9430998852739,-87.770029020925,"(41.943099885273895, -87.77002902092498)",2011-07-06
37868,07/06/2011,Completed,01/20/2012,11-03311879,Alley Light Out,3000 W JACKSON BLVD,60612.0,1156426.75949991,1898540.19971993,28.0,11.0,27.0,41.87737673107028,-87.70110822268722,"(41.87737673107028, -87.70110822268724)",2011-07-06
