,CREATION DATE,STATUS,COMPLETION DATE,SERVICE REQUEST NUMBER,TYPE OF SERVICE REQUEST,CURRENT ACTIVITY,MOST RECENT ACTION,NUMBER OF POTHOLES FILLED ON BLOCK,STREET ADDRESS,ZIP,X COORDINATE,Y COORDINATE,Ward,Police District,Community Area,SSA,LATITUDE,LONGITUDE,LOCATION,date
113708,07/01/2011,Completed - Dup,07/01/2011,11-03283672,Pot Hole in Street,,,,5400 W WALTON ST,60651.0,1140139.25378666,1905805.55006842,37.0,15.0,25.0,,41.89773606816632,-87.76088209112045,"(41.89773606816632, -87.76088209112045)",2011-07-01
113709,07/01/2011,Completed - Dup,07/01/2011,11-03284250,Pot Hole in Street,,,,4000 W LAKE ST,60624.0,1149680.11963064,1901439.64251033,28.0,11.0,26.0,,41.88558031834902,-87.72592192389303,"(41.88558031834902, -87.72592192389303)",2011-07-01
113710,07/01/2011,Completed - Dup,07/01/2011,11-03284497,Pot Hole in Street,,,,8100 S WALLACE ST,60620.0,1173707.74010161,1851181.41998642,21.0,6.0,71.0,,41.74696017917659,-87.6392104249587,"(41.74696017917659, -87.6392104249587)",2011-07-01
113711,07/01/2011,Completed - Dup,07/01/2011,11-03284911,Pot Hole in Street,,,,5358 W CORNELIA AVE,60641.0,1140019.6282875,1922749.85337761,38.0,16.0,15.0,,41.94422515626535,-87.7616548756304,"(41.94422515626534, -87.7616548756304)",2011-07-01
113712,07/01/2011,Completed - Dup,07/01/2011,11-03285489,Pot Hole in Street,,,,2400 W ROOSEVELT RD,60608.0,1160560.38769486,1894648.34042147,28.0,11.0,28.0,,41.86672069097961,-87.68616277124569,"(41.866720690979605, -87.68616277124569)",2011-07-01
113713,07/01/2011,Completed - Dup,07/01/2011,11-03285611,Pot Hole in Street,,,,6440 N CAMPBELL AVE,60645.0,1158484.02618188,1942666.81491809,50.0,24.0,2.0,43.0,41.998902823641416,-87.69250292495674,"(41.998902823641416, -87.69250292495673)",2011-07-01
113714,07/01/2011,Completed - Dup,07/01/2011,11-03286914,Pot Hole in Street,,,,1400 W 112TH PL,60643.0,1169010.11922455,1830112.24343045,34.0,22.0,75.0,,41.68944728963484,-87.65696598405073,"(41.68944728963484, -87.65696598405073)",2011-07-01
113715,07/01/2011,Completed - Dup,07/01/2011,11-03287346,Pot Hole in Street,,,3.0,5100 S ABERDEEN ST,60609.0,1169848.73509625,1870986.57719675,16.0,9.0,61.0,,41.80139118351463,-87.65277270832297,"(41.80139118351463, -87.65277270832297)",2011-07-01
113716,07/01/2011,Completed - Dup,07/05/2011,11-03288566,Pot Hole in Street,,,,4831 W MAYPOLE AVE,60644.0,1144027.27426575,1901024.74370699,28.0,15.0,25.0,,41.88432606656361,-87.7465848736141,"(41.88432606656361, -87.7465848736141)",2011-07-01
113717,07/01/2011,Completed - Dup,07/05/2011,11-03288900,Pot Hole in Street,,,,7100 S PULASKI RD,60629.0,1150934.05446561,1857220.94202977,13.0,8.0,65.0,3.0,41.764007749308014,-87.72249910770661,"(41.764007749308014, -87.72249910770661)",2011-07-01
113718,07/01/2011,Completed - Dup,07/06/2011,11-03289302,Pot Hole in Street,,,,11635 S ELIZABETH ST,60643.0,1170086.00672281,1827619.33892006,34.0,5.0,53.0,,41.682069337746505,-87.65285688291176,"(41.68206933774651, -87.65285688291175)",2011-07-01
113719,07/01/2011,Completed - Dup,07/06/2011,11-03290483,Pot Hole in Street,,,,2517 W FULLERTON AVE,60647.0,1159137.6597896002,1915868.39447078,1.0,14.0,22.0,,41.92476209846664,-87.69066097766645,"(41.92476209846663, -87.69066097766645)",2011-07-01
113720,07/01/2011,Completed - Dup,07/12/2011,11-03288843,Pot Hole in Street,,,,8600 W BRYN MAWR AVE,60631.0,1117972.78971985,1936059.98320173,41.0,16.0,76.0,,41.98113454543051,-87.84163842292439,"(41.98113454543051, -87.84163842292439)",2011-07-01
113721,07/01/2011,Completed - Dup,07/12/2011,11-03288875,Pot Hole in Street,,,,2000 W 96TH ST,60643.0,1164712.96340628,1840983.41840619,19.0,22.0,72.0,4.0,41.71937100839112,-87.67237336821526,"(41.719371008391114, -87.67237336821525)",2011-07-01
113722,07/01/2011,Completed - Dup,07/12/2011,11-03288997,Pot Hole in Street,,,,10430 S HALSTED ST,60628.0,1172822.8495767,1835683.90378025,34.0,22.0,73.0,45.0,41.704156726725785,-87.64289570678919,"(41.70415672672579, -87.64289570678919)",2011-07-01
113723,07/01/2011,Completed - Dup,07/12/2011,11-03289286,Pot Hole in Street,,,,10420 S HALSTED ST,60628.0,1172820.7495767,1835750.70378025,34.0,22.0,73.0,45.0,41.704438483241354,-87.64290403070594,"(41.70443848324135, -87.64290403070594)",2011-07-01
113724,07/01/2011,Completed - Dup,07/12/2011,11-03289315,Pot Hole in Street,,,,5999 N EAST RIVER RD,60631.0,1116594.93703053,1938539.79518275,41.0,16.0,76.0,,41.98766494733576,-87.8463646347382,"(41.98766494733576, -87.8463646347382)",2011-07-01
113725,07/01/2011,Completed - Dup,07/12/2011,11-03289513,Pot Hole in Street,,,,5100 W HIRSCH ST,60651.0,1142113.55989956,1908834.95038386,37.0,25.0,25.0,,41.90601300839656,-87.75347159362836,"(41.90601300839656, -87.75347159362838)",2011-07-01
113726,07/01/2011,Completed - Dup,07/12/2011,11-03289659,Pot Hole in Street,,,,2750 N PINE GROVE AVE,60614.0,1172813.00981646,1918216.63048539,43.0,23.0,7.0,,41.93230681440196,-87.64127159711894,"(41.93230681440196, -87.64127159711896)",2011-07-01
113727,07/01/2011,Completed - Dup,07/12/2011,11-03289671,Pot Hole in Street,,,,10420 S HALSTED ST,60628.0,1172820.7495767,1835750.70378025,34.0,22.0,73.0,45.0,41.704438483241354,-87.64290403070594,"(41.70443848324135, -87.64290403070594)",2011-07-01
113728,07/01/2011,Completed - Dup,07/12/2011,11-03289855,Pot Hole in Street,,,,3900 S KEDZIE AVE,60632.0,1155665.70691519,1878569.39351008,14.0,8.0,58.0,,41.82257678753413,-87.70459757276419,"(41.82257678753413, -87.70459757276419)",2011-07-01
113729,07/01/2011,Completed - Dup,07/12/2011,11-03289970,Pot Hole in Street,,,,1018 N OAKLEY BLVD,60622.0,1160887.56292725,1906799.39318453,32.0,13.0,24.0,,41.9000781384776,-87.68464962615377,"(41.9000781384776, -87.68464962615377)",2011-07-01
113730,07/01/2011,Completed - Dup,07/12/2011,11-03289971,Pot Hole in Street,,,,1009 N OAKLEY BLVD,60622.0,1160890.19567069,1906703.2539012001,32.0,13.0,24.0,,41.899741488544976,-87.68434571532153,"(41.899741488544976, -87.68434571532151)",2011-07-01
113731,07/01/2011,Completed - Dup,07/12/2011,11-03289972,Pot Hole in Street,,,,1011 N OAKLEY BLVD,60622.0,1160889.59567069,1906724.6539012,32.0,13.0,24.0,,41.89981047131111,-87.68434760032896,"(41.899810471311106, -87.68434760032895)",2011-07-01
113732,07/01/2011,Completed - Dup,07/12/2011,11-03289974,Pot Hole in Street,,,,1011 N OAKLEY BLVD,60622.0,1160889.59567069,1906724.6539012,32.0,13.0,24.0,,41.89981047131111,-87.68434760032896,"(41.899810471311106, -87.68434760032895)",2011-07-01
113733,07/01/2011,Completed - Dup,07/12/2011,11-03290028,Pot Hole in Street,,,,10100 S VINCENNES AVE,60643.0,1169646.50170851,1838153.78952478,21.0,22.0,73.0,,41.71129207265044,-87.65450906008732,"(41.71129207265044, -87.65450906008732)",2011-07-01
113734,07/01/2011,Completed - Dup,07/12/2011,11-03290105,Pot Hole in Street,,,,1 W GARFIELD BLVD,60621.0,1177214.89349025,1868427.75047893,3.0,2.0,40.0,,41.79418876117076,-87.62573939857195,"(41.79418876117076, -87.62573939857195)",2011-07-01
113735,07/01/2011,Completed - Dup,07/12/2011,11-03290350,Pot Hole in Street,,,,7145 N WASHTENAW AVE,60645.0,1157086.92392653,1947384.57267781,50.0,24.0,2.0,,42.011640206246376,-87.69720653195934,"(42.011640206246376, -87.69720653195934)",2011-07-01
113736,07/01/2011,Completed - Dup,08/23/2011,11-03287104,Pot Hole in Street,,,,6834 W 51ST ST,0.0,1131553.25987359,1869978.80430429,0.0,0.0,0.0,,41.7995781354236,-87.79311590130062,"(41.7995781354236, -87.79311590130062)",2011-07-01
113737,07/01/2011,Completed - Dup,08/24/2011,11-03289378,Pot Hole in Street,,,,6330 N RAVENSWOOD AVE,60660.0,1163214.60333041,1941983.74009975,50.0,24.0,2.0,,41.99649336784586,-87.6756577759013,"(41.99649336784586, -87.67565777590129)",2011-07-01
113738,07/01/2011,Completed - Dup,08/24/2011,11-03289775,Pot Hole in Street,,,,2618 N NORMANDY AVE,60707.0,1131302.87297505,1916758.15006938,36.0,25.0,18.0,,41.9279004327766,-87.79308669340931,"(41.927900432776596, -87.79308669340931)",2011-07-01
113739,07/01/2011,Completed,07/01/2011,11-03288955,Pot Hole in Street,Dispatch Crew,Pothole Patched,2.0,1100 W PERSHING RD,60609.0,1169624.3853196,1878959.38512201,11.0,9.0,60.0,13.0,41.823478162798466,-87.65325588528023,"(41.82347816279847, -87.65325588528023)",2011-07-01
113740,07/01/2011,Completed,07/05/2011,11-03283162,Pot Hole in Street,Dispatch Crew,Pothole Patched,12.0,5131 N MELVINA AVE,60630.0,1133885.01021756,1933840.12767755,45.0,16.0,11.0,,41.97467676275666,-87.78289818900612,"(41.97467676275666, -87.78289818900612)",2011-07-01
113741,07/01/2011,Completed,07/05/2011,11-03283624,Pot Hole in Street,Dispatch Crew, No Problem Found,0.0,5300 W WASHINGTON BLVD,60644.0,1141035.27570369,1900240.28487463,28.0,15.0,25.0,,41.88244822039464,-87.75764391352999,"(41.88244822039464, -87.75764391352998)",2011-07-01
113742,07/01/2011,Completed,07/05/2011,11-03287902,Pot Hole in Street,Dispatch Crew,Pothole Patched,1.0,6759 N GREENVIEW AVE,60626.0,1165044.60759762,1944996.10911785,40.0,24.0,1.0,,42.00532472558365,-87.66801381014488,"(42.00532472558365, -87.66801381014488)",2011-07-01
113743,07/01/2011,Completed,07/05/2011,11-03289349,Pot Hole in Street,Dispatch Crew,Pothole Patched,9.0,3648 N NORDICA AVE,60634.0,1128429.75589324,1923436.88268056,36.0,16.0,17.0,,41.946775997819536,-87.80351126484435,"(41.946775997819536, -87.80351126484435)",2011-07-01
113744,07/01/2011,Completed,07/05/2011,11-03289948,Pot Hole in Street,Dispatch Crew,Complete Upon Arrival,0.0,5500 S CHRISTIANA AVE,60629.0,1154982.19998238,1867949.34408111,14.0,8.0,63.0,,41.793367041090825,-87.70737437150206,"(41.793367041090825, -87.70737437150206)",2011-07-01
113745,07/01/2011,Completed,07/06/2011,11-03283491,Pot Hole in Street,Dispatch Crew,Pothole Patched,12.0,3500 S KEDZIE AVE,60632.0,1155600.74279116,1881195.72056585,12.0,9.0,30.0,,41.82977495978446,-87.70475351470604,"(41.82977495978445, -87.70475351470603)",2011-07-01
113746,07/01/2011,Completed,07/06/2011,11-03284919,Pot Hole in Street,Dispatch Crew,Pothole Patched,1.0,2419 W POLK ST,60612.0,1160386.49360426,1896302.65007655,2.0,11.0,28.0,,41.87104166108467,-87.6869631797317,"(41.87104166108467, -87.68696317973172)",2011-07-01
113747,07/01/2011,Completed,07/06/2011,11-03285273,Pot Hole in Street,Dispatch Crew,Pothole Patched,1.0,6440 N CAMPBELL AVE,60645.0,1158484.02618188,1942666.81491809,50.0,24.0,2.0,43.0,41.998902823641416,-87.69250292495674,"(41.998902823641416, -87.69250292495673)",2011-07-01
113748,07/01/2011,Completed,07/06/2011,11-03285626,Pot Hole in Street,Dispatch Crew,CDOT Street Cut Complaints Transfer Outcome,3.0,6423 N CAMPBELL AVE,60645.0,1158487.12618188,1942553.41491809,50.0,24.0,2.0,43.0,41.99839976218589,-87.69219666825302,"(41.99839976218589, -87.69219666825302)",2011-07-01
113749,07/01/2011,Completed,07/06/2011,11-03285703,Pot Hole in Street,Dispatch Crew, No Problem Found,0.0,10948 S WESTERN AVE,60643.0,1162340.34232064,1832020.34977405,19.0,22.0,75.0,20.0,41.69426150222699,-87.68138051079653,"(41.69426150222699, -87.68138051079653)",2011-07-01
113750,07/01/2011,Completed,07/06/2011,11-03287315,Pot Hole in Street,Dispatch Crew,Pothole Patched,4.0,5600 N KILBOURN AVE,60646.0,1145360.52000339,1936829.4006701,39.0,17.0,12.0,,41.98275161073306,-87.74091809366368,"(41.98275161073306, -87.74091809366367)",2011-07-01
113751,07/01/2011,Completed,07/06/2011,11-03287863,Pot Hole in Street,Dispatch Crew,Pothole Patched,1.0,6581 N HIAWATHA AVE,60646.0,1138929.89699891,1943276.05867653,41.0,16.0,12.0,,42.00053425739941,-87.76410903415741,"(42.00053425739941, -87.7641090341574)",2011-07-01
113752,07/01/2011,Completed,07/06/2011,11-03287876,Pot Hole in Street,Dispatch Crew,Pothole Patched,12.0,3450 S KEDZIE AVE,60623.0,1155592.24896919,1881457.59287506,12.0,9.0,30.0,,41.83009124526407,-87.70476347313038,"(41.830091245264065, -87.70476347313038)",2011-07-01
113753,07/01/2011,Completed,07/06/2011,11-03288638,Pot Hole in Street,Dispatch Crew,Complete Upon Arrival,0.0,2339 S CALIFORNIA AVE,60608.0,1158066.40081977,1888244.07832462,12.0,10.0,30.0,,41.84894102118589,-87.69521748108005,"(41.84894102118589, -87.69521748108006)",2011-07-01
113754,07/01/2011,Completed,07/07/2011,11-03285817,Pot Hole in Street,Dispatch Crew,Pothole Patched,8.0,6024 N ARTESIAN AVE,60659.0,1158897.8438178,1939936.47336991,40.0,24.0,2.0,,41.99123677266523,-87.69105200279745,"(41.991236772665225, -87.69105200279746)",2011-07-01
113755,07/01/2011,Completed,07/07/2011,11-03290581,Pot Hole in Street,Dispatch Crew,Pothole Patched,13.0,2600 S MICHIGAN AVE,60616.0,1177620.78602068,1887139.70779724,2.0,21.0,35.0,,41.84556815589565,-87.62378128593704,"(41.84556815589565, -87.62378128593704)",2011-07-01
113756,07/01/2011,Completed,07/11/2011,11-03286645,Pot Hole in Street,Dispatch Crew, No Problem Found,0.0,9721 S CLAREMONT AVE,60643.0,1162424.03576947,1840104.99609394,19.0,22.0,72.0,,41.71667119212504,-87.68056763086139,"(41.716671192125034, -87.68056763086139)",2011-07-01
113757,07/01/2011,Completed,07/11/2011,11-03289544,Pot Hole in Street,Dispatch Crew,Pothole Patched,10.0,1550 N KINGSBURY ST,60642.0,1169448.85309195,1910341.71012616,32.0,18.0,8.0,,41.90939878780941,-87.65305069789406,"(41.90939878780941, -87.65305069789407)",2011-07-01
113758,07/01/2011,Completed,07/12/2011,11-03283221,Pot Hole in Street,Dispatch Crew,Complete Upon Arrival,0.0,5600 W NORTH AVE,60639.0,1138752.39129328,1910078.69641319,29.0,25.0,25.0,,41.90948795552266,-87.7657769872796,"(41.909487955522664, -87.76577698727958)",2011-07-01
113759,07/01/2011,Completed,07/12/2011,11-03286878,Pot Hole in Street,Dispatch Crew,Pothole Patched,2.0,6700 S ASHLAND AVE,60636.0,1166825.50237473,1860287.94943034,15.0,7.0,67.0,,41.772098232780046,-87.66416461759566,"(41.77209823278005, -87.66416461759566)",2011-07-01
113760,07/01/2011,Completed,07/12/2011,11-03288503,Pot Hole in Street,Dispatch Crew,Pothole Patched,2.0,5143 W STRONG ST,60630.0,1141192.23769869,1932429.26788982,45.0,16.0,11.0,,41.970548591935724,-87.7568145951168,"(41.970548591935724, -87.75681459511678)",2011-07-01
113761,07/01/2011,Completed,07/12/2011,11-03289695,Pot Hole in Street,Dispatch Crew,Pothole Patched,2.0,1419 N PARKSIDE AVE,60651.0,1138411.14928668,1908877.78097416,29.0,25.0,25.0,,41.9063409101849,-87.76686876726356,"(41.906340910184895, -87.76686876726357)",2011-07-01
113762,07/01/2011,Completed,07/13/2011,11-03288721,Pot Hole in Street,Dispatch Crew,Pothole Patched,9.0,829 N MICHIGAN AVE,60611.0,1177134.080113,1906058.07512417,42.0,18.0,8.0,,41.897526698563105,-87.62398757521471,"(41.897526698563105, -87.6239875752147)",2011-07-01
113763,07/01/2011,Completed,07/14/2011,11-03283163,Pot Hole in Street,Dispatch Crew,Complete Upon Arrival,0.0,1060 S PLYMOUTH CT,60605.0,1176205.98611543,1895806.19788802,2.0,1.0,32.0,,41.86936552907064,-87.62871207216223,"(41.86936552907064, -87.62871207216222)",2011-07-01
113764,07/01/2011,Completed,07/14/2011,11-03283453,Pot Hole in Street,Dispatch Crew,Pothole Patched,4.0,11542 S PRINCETON AVE,60628.0,1176349.31939253,1828393.61989983,34.0,5.0,53.0,,41.68395366778262,-87.63019541586979,"(41.68395366778262, -87.6301954158698)",2011-07-01
113765,07/01/2011,Completed,07/14/2011,11-03285156,Pot Hole in Street,Dispatch Crew,WM Sewer Cave In Inspection Transfer Outcome,0.0,450 S CLARK ST,60605.0,1175589.47499165,1898509.71252309,2.0,1.0,32.0,,41.87586171105679,-87.63086661240247,"(41.87586171105679, -87.63086661240249)",2011-07-01
113766,07/01/2011,Completed,07/14/2011,11-03287115,Pot Hole in Street,Dispatch Crew,Complete Upon Arrival,0.0,3449 W OHIO ST,60624.0,1153196.76507217,1903783.49219158,27.0,11.0,23.0,,41.8917155698606,-87.71324595356747,"(41.8917155698606, -87.71324595356747)",2011-07-01
113767,07/01/2011,Completed,07/15/2011,11-03283164,Pot Hole in Street,Dispatch Crew,Pothole Patched,6.0,1212 S FEDERAL ST,60605.0,1175980.93001576,1894890.72998005,2.0,1.0,33.0,,41.866784062615814,-87.62960394417719,"(41.866784062615814, -87.62960394417718)",2011-07-01
113768,07/01/2011,Completed,07/15/2011,11-03285054,Pot Hole in Street,Dispatch Crew,Pothole Patched,1.0,4848 N CENTRAL AVE,60630.0,1138122.28460715,1931774.99007628,45.0,16.0,11.0,,41.969193352079785,-87.76766878683229,"(41.96919335207979, -87.7676687868323)",2011-07-01
113769,07/01/2011,Completed,07/15/2011,11-03286836,Pot Hole in Street,Dispatch Crew,Complete Upon Arrival,0.0,5416 W CONGRESS PKWY,60644.0,1140433.48026972,1897155.25582057,29.0,15.0,25.0,,41.873989902954015,-87.76023166759823,"(41.873989902954015, -87.76023166759823)",2011-07-01
113770,07/01/2011,Completed,07/15/2011,11-03290867,Pot Hole in Street,Dispatch Crew,Pothole Patched,3.0,4700 S HOYNE AVE,60609.0,1163151.45988217,1873491.71308475,12.0,9.0,61.0,,41.808407279118796,-87.67726297618435,"(41.808407279118796, -87.67726297618435)",2011-07-01
113771,07/01/2011,Completed,07/18/2011,11-03290916,Pot Hole in Street,Dispatch Crew,Complete Upon Arrival,0.0,334 N KILBOURN AVE,60624.0,1146327.99368753,1901671.40818285,28.0,11.0,26.0,,41.88619872416525,-87.7382566118835,"(41.886198724165254, -87.7382566118835)",2011-07-01
113772,07/01/2011,Completed,07/19/2011,11-03285954,Pot Hole in Street,Dispatch Crew,Complete Upon Arrival,0.0,3000 N PULASKI RD,60641.0,1149204.25089337,1919644.2218865003,31.0,25.0,21.0,,41.93547503571491,-87.7272280124368,"(41.93547503571491, -87.7272280124368)",2011-07-01
113773,07/01/2011,Completed,07/21/2011,11-03290409,Pot Hole in Street,Dispatch Crew,Pothole Patched,6.0,12157 S LA SALLE ST,60628.0,1177460.24446847,1824319.11648745,9.0,5.0,53.0,,41.67266256372264,-87.62595990724476,"(41.67266256372264, -87.62595990724476)",2011-07-01
113774,07/01/2011,Completed,07/21/2011,11-03290468,Pot Hole in Street,Dispatch Crew,CDOT Pavement Cave-In Survey Transfer Outcome,0.0,552 W 126TH ST,60628.0,1174824.67739311,1821344.81989995,9.0,5.0,53.0,,41.665254673913864,-87.63636810329956,"(41.66525467391387, -87.63636810329956)",2011-07-01
113775,07/01/2011,Completed,07/22/2011,11-03286806,Pot Hole in Street,Dispatch Crew,Pothole Patched,15.0,5601 W WEST END AVE,60644.0,1138999.30268904,1900917.51627057,29.0,15.0,25.0,,41.884124701486336,-87.76508180093374,"(41.884124701486336, -87.76508180093373)",2011-07-01
113776,07/01/2011,Completed,07/22/2011,11-03286818,Pot Hole in Street,Dispatch Crew,Pothole Patched,12.0,5635 W WEST END AVE,60644.0,1138644.49769365,1900907.48941502,29.0,15.0,25.0,,41.88410160149554,-87.7664822135945,"(41.88410160149554, -87.7664822135945)",2011-07-01
113777,07/01/2011,Completed,07/22/2011,11-03286823,Pot Hole in Street,Dispatch Crew,Complete Upon Arrival,0.0,5339 W JACKSON BLVD,60644.0,1140836.65880803,1898152.6094778,29.0,15.0,25.0,,41.87649436892372,-87.75905392318606,"(41.87649436892373, -87.75905392318606)",2011-07-01
113778,07/01/2011,Completed,07/25/2011,11-03288174,Pot Hole in Street,Dispatch Crew,Pothole Patched,3.0,2300 W FARWELL AVE,60645.0,1159638.89052603,1945544.22652152,50.0,24.0,2.0,,42.00640090612207,-87.68812286116069,"(42.00640090612206, -87.6881228611607)",2011-07-01
113779,07/01/2011,Completed,07/26/2011,11-03286369,Pot Hole in Street,Dispatch Crew,Pothole Patched,1.0,7400 W SCHOOL ST,60634.0,1126243.54336669,1921056.13790525,36.0,16.0,17.0,,41.93982845878058,-87.81150981699281,"(41.93982845878058, -87.81150981699282)",2011-07-01
113780,07/01/2011,Completed,07/26/2011,11-03288016,Pot Hole in Street,Dispatch Crew,Pothole Patched,4.0,3516 W 81ST ST,60652.0,1154364.57000784,1850660.3499709,18.0,8.0,70.0,,41.74613331343033,-87.71032034952684,"(41.74613331343033, -87.71032034952684)",2011-07-01
113781,07/01/2011,Completed,07/27/2011,11-03288436,Pot Hole in Street,Dispatch Crew, No Problem Found,0.0,13049 S AVENUE O,60633.0,1201070.21962377,1819049.05200505,10.0,4.0,55.0,,41.65768052730294,-87.53973541071147,"(41.65768052730294, -87.53973541071149)",2011-07-01
113782,07/01/2011,Completed,07/27/2011,11-03289865,Pot Hole in Street,Dispatch Crew,Pothole Patched,5.0,6600 S HALSTED ST,60621.0,1172105.0278027,1861096.10993102,16.0,7.0,68.0,,41.77424811644649,-87.64478977456783,"(41.77424811644649, -87.64478977456783)",2011-07-01
113783,07/01/2011,Completed,07/28/2011,11-03286720,Pot Hole in Street,Dispatch Crew,Pothole Patched,45.0,1400 W 112TH PL,60643.0,1169010.11922455,1830112.24343045,34.0,22.0,75.0,,41.68944728963484,-87.65696598405073,"(41.68944728963484, -87.65696598405073)",2011-07-01
113784,07/01/2011,Completed,07/28/2011,11-03286829,Pot Hole in Street,Dispatch Crew, No Problem Found,0.0,5339 W VAN BUREN ST,60644.0,1140856.45440216,1897494.59999632,29.0,15.0,25.0,,41.87468842813058,-87.75900768605943,"(41.87468842813058, -87.75900768605943)",2011-07-01
113785,07/01/2011,Completed,07/28/2011,11-03286877,Pot Hole in Street,Dispatch Crew,Pothole Patched,1.0,2031 W PIERCE AVE,60622.0,1162576.74402794,1910240.95013343,1.0,14.0,24.0,33.0,41.909238651837725,-87.67868939305463,"(41.90923865183773, -87.67868939305461)",2011-07-01
113786,07/01/2011,Completed,07/28/2011,11-03287151,Pot Hole in Street,Dispatch Crew,Complete Upon Arrival,0.0,1316 N MILWAUKEE AVE,60642.0,1164821.50987675,1908889.58668821,1.0,14.0,24.0,33.0,41.90553744842465,-87.67011621638252,"(41.90553744842466, -87.67011621638251)",2011-07-01
113787,07/01/2011,Completed,07/28/2011,11-03287226,Pot Hole in Street,Dispatch Crew, No Problem Found,0.0,11200 S MARSHFIELD AVE,60643.0,1167749.9835921002,1830472.40860997,34.0,22.0,75.0,,41.690329833776566,-87.66164616489941,"(41.69032983377657, -87.6616461648994)",2011-07-01
113788,07/01/2011,Completed,07/29/2011,11-03284443,Pot Hole in Street,Dispatch Crew, No Problem Found,0.0,5259 W FOSTER AVE,60630.0,1140275.03012455,1934075.27627922,45.0,16.0,11.0,,41.97508433759944,-87.7601238443202,"(41.97508433759944, -87.7601238443202)",2011-07-01
113789,07/01/2011,Completed,07/29/2011,11-03286668,Pot Hole in Street,Dispatch Crew,Pothole Patched,12.0,6245 W ROSCOE ST,60634.0,1134156.63403171,1921951.8333854,36.0,16.0,17.0,,41.94192485943132,-87.78300282618002,"(41.94192485943132, -87.78300282618001)",2011-07-01
113790,07/01/2011,Completed,07/29/2011,11-03286742,Pot Hole in Street,Dispatch Crew,Complete Upon Arrival,0.0,1307 W SCHUBERT AVE,60614.0,1167099.43392683,1918052.46740042,32.0,19.0,7.0,,41.93058675484081,-87.66139499589585,"(41.930586754840824, -87.66139499589585)",2011-07-01
113791,07/01/2011,Completed,07/29/2011,11-03288259,Pot Hole in Street,Dispatch Crew,Pothole Patched,10.0,13248 S HOUSTON AVE,60633.0,1198761.4671858998,1817714.35419632,10.0,4.0,55.0,,41.654058014545285,-87.54852653067967,"(41.654058014545285, -87.54852653067965)",2011-07-01
113792,07/01/2011,Completed,08/01/2011,11-03285974,Pot Hole in Street,Dispatch Crew,Complete Upon Arrival,0.0,1438 W CORTEZ ST,60642.0,1166563.59191588,1907107.9309029,27.0,13.0,24.0,29.0,41.90077923672847,-87.66410310360523,"(41.90077923672847, -87.66410310360523)",2011-07-01
113793,07/01/2011,Completed,08/01/2011,11-03286334,Pot Hole in Street,Dispatch Crew,Pothole Patched,4.0,1708 W BLOOMINGDALE AVE,60622.0,1164646.24639653,1912053.0998668,32.0,14.0,22.0,,41.914395390372746,-87.67063222202219,"(41.91439539037274, -87.67063222202218)",2011-07-01
113794,07/01/2011,Completed,08/01/2011,11-03287181,Pot Hole in Street,Dispatch Crew,Pothole Patched,6.0,9200 S HALSTED ST,60620.0,1172592.96589276,1843842.29252011,21.0,22.0,73.0,,41.72684337466403,-87.64350674998192,"(41.72684337466402, -87.64350674998192)",2011-07-01
113795,07/01/2011,Completed,08/02/2011,11-03285912,Pot Hole in Street,Dispatch Crew,Pothole Patched,1.0,4637 W FULLERTON AVE,60639.0,1144931.74001865,1915552.35073248,31.0,25.0,19.0,,41.92417159903378,-87.74312778131961,"(41.924171599033784, -87.74312778131961)",2011-07-01
113796,07/01/2011,Completed,08/02/2011,11-03288734,Pot Hole in Street,Dispatch Crew,WM Sewer Cave In Inspection Transfer Outcome,0.0,7459 S LUELLA AVE,60649.0,1192504.59581099,1855943.10427084,7.0,3.0,43.0,49.0,41.759032904808656,-87.56986636514681,"(41.75903290480866, -87.56986636514681)",2011-07-01
113797,07/01/2011,Completed,08/02/2011,11-03290364,Pot Hole in Street,Dispatch Crew,Pothole Patched,24.0,4951 N KEELER AVE,60630.0,1147491.98927449,1932574.32940709,39.0,17.0,14.0,,41.971514314358224,-87.73290822547442,"(41.971514314358224, -87.7329082254744)",2011-07-01
113798,07/01/2011,Completed,08/03/2011,11-03287721,Pot Hole in Street,Dispatch Crew,Pothole Patched,4.0,5700 N SPAULDING AVE,60659.0,1153348.58447783,1937685.30863395,39.0,17.0,13.0,,41.98489840779572,-87.71151641010839,"(41.98489840779572, -87.71151641010839)",2011-07-01
113799,07/01/2011,Completed,08/04/2011,11-03287872,Pot Hole in Street,Dispatch Crew,Pothole Patched,8.0,717 W 87TH ST,60620.0,1172972.42290096,1847200.53749149,21.0,22.0,71.0,,41.7359096258452,-87.64191365654318,"(41.7359096258452, -87.64191365654318)",2011-07-01
113800,07/01/2011,Completed,08/05/2011,11-03283826,Pot Hole in Street,Dispatch Crew,Pothole Patched,6.0,1706 N LAWNDALE AVE,60647.0,1151449.73966907,1911086.05571179,26.0,25.0,23.0,,41.91204802651657,-87.7192046041144,"(41.91204802651658, -87.7192046041144)",2011-07-01
113801,07/01/2011,Completed,08/05/2011,11-03286188,Pot Hole in Street,Dispatch Crew,Pothole Patched,9.0,2650 W IRVING PARK RD,60618.0,1157777.05028028,1926469.48831412,33.0,17.0,16.0,,41.95409909694461,-87.69541727492033,"(41.95409909694461, -87.69541727492033)",2011-07-01
113802,07/01/2011,Completed,08/05/2011,11-03287991,Pot Hole in Street,Dispatch Crew,Pothole Patched,10.0,2760 W WINDSOR AVE,60625.0,1157046.87101312,1930085.97000468,33.0,17.0,14.0,,41.964035278171615,-87.69845143591188,"(41.964035278171615, -87.69845143591189)",2011-07-01
113803,07/01/2011,Completed,08/05/2011,11-03288066,Pot Hole in Street,Dispatch Crew,Pothole Patched,3.0,3851 N SACRAMENTO AVE,60618.0,1155699.53708786,1925454.45709914,33.0,17.0,16.0,,41.951817663172925,-87.7029197596384,"(41.95181766317292, -87.7029197596384)",2011-07-01
113804,07/01/2011,Completed,08/08/2011,11-03286498,Pot Hole in Street,Dispatch Crew,Pothole Patched,15.0,6400 S BELL AVE,60636.0,1162504.49001219,1862169.36998884,15.0,8.0,66.0,,41.777352926096256,-87.67995239332097,"(41.77735292609626, -87.67995239332099)",2011-07-01
113805,07/01/2011,Completed,08/09/2011,11-03290550,Pot Hole in Street,Dispatch Crew,Pothole Patched,5.0,6342 N MAGNOLIA AVE,60660.0,1166794.47642294,1942260.75199248,40.0,24.0,77.0,26.0,41.997632578647426,-87.66193330105986,"(41.99763257864743, -87.66193330105986)",2011-07-01
113806,07/01/2011,Completed,08/12/2011,11-03288079,Pot Hole in Street,Dispatch Crew,Pothole Patched,5.0,5129 N TROY ST,60625.0,1154445.6267748,1934019.60679414,33.0,17.0,13.0,,41.974813366198845,-87.70728589703045,"(41.97481336619884, -87.70728589703046)",2011-07-01
113807,07/01/2011,Completed,08/16/2011,11-03283350,Pot Hole in Street,Dispatch Crew,Pothole Patched,2.0,650 S KOSTNER AVE,60624.0,1147153.73592304,1896778.40848194,24.0,11.0,26.0,,41.872457241492185,-87.7353347521642,"(41.872457241492185, -87.7353347521642)",2011-07-01
113808,07/01/2011,Completed,08/17/2011,11-03283841,Pot Hole in Street,Dispatch Crew,Pothole Patched,18.0,1500 S ST LOUIS AVE,60623.0,1153279.93186646,1892487.46541902,24.0,10.0,29.0,,41.86073656211352,-87.71296772800741,"(41.86073656211352, -87.71296772800741)",2011-07-01
113809,07/01/2011,Completed,08/17/2011,11-03287132,Pot Hole in Street,Dispatch Crew, No Problem Found,0.0,1228 N ASHLAND AVE,60622.0,1165500.58330894,1908317.15782437,1.0,14.0,24.0,33.0,41.9039814030889,-87.66765910291349,"(41.9039814030889, -87.6676591029135)",2011-07-01
113810,07/01/2011,Completed,08/17/2011,11-03290527,Pot Hole in Street,Dispatch Crew,Pothole Patched,2.0,2500 W SCHUBERT AVE,60647.0,1159235.79997571,1917861.42000579,1.0,14.0,22.0,,41.930446425573024,-87.69029103484077,"(41.93044642557302, -87.69029103484078)",2011-07-01
113811,07/01/2011,Completed,08/22/2011,11-03286813,Pot Hole in Street,Dispatch Crew,Pothole Patched,13.0,5621 W WEST END AVE,60644.0,1138790.60268904,1900911.61627057,29.0,15.0,25.0,,41.88411130615183,-87.76590477889324,"(41.88411130615183, -87.76590477889324)",2011-07-01
113812,07/01/2011,Completed,08/22/2011,11-03287649,Pot Hole in Street,Dispatch Crew,Pothole Patched,5.0,9300 S EVANS AVE,60619.0,1182857.47990199,1843471.05436987,9.0,6.0,44.0,,41.7256248185365,-87.60591905465948,"(41.7256248185365, -87.60591905465948)",2011-07-01
113813,07/01/2011,Completed,08/23/2011,11-03287987,Pot Hole in Street,Dispatch Crew, No Problem Found,0.0,3300 W PENSACOLA AVE,60618.0,1153604.5319792,1928721.36012628,33.0,17.0,16.0,60.0,41.96036181527386,-87.7107899086892,"(41.96036181527387, -87.71078990868921)",2011-07-01
113814,07/01/2011,Completed,08/24/2011,11-03283352,Pot Hole in Street,Dispatch Crew,Pothole Patched,19.0,454 N SACRAMENTO BLVD,60612.0,1156233.16999379,1903190.8601159,27.0,13.0,23.0,,41.89011981474739,-87.70183684284227,"(41.89011981474739, -87.70183684284228)",2011-07-01
113815,07/01/2011,Completed,08/31/2011,11-03290021,Pot Hole in Street,Dispatch Crew,Pothole Patched,3.0,2300 W LAWRENCE AVE,60625.0,1160161.42692223,1931828.99703059,47.0,20.0,4.0,21.0,41.96875599591996,-87.68653737441869,"(41.96875599591996, -87.6865373744187)",2011-07-01
113816,07/01/2011,Completed,09/01/2011,11-03289878,Pot Hole in Street,Dispatch Crew,Pothole Patched,107.0,6500 S HALSTED ST,60621.0,1172072.2441876999,1861765.10450127,20.0,7.0,68.0,,41.7760957556483,-87.64489094733558,"(41.7760957556483, -87.6448909473356)",2011-07-01
113817,07/01/2011,Completed,09/02/2011,11-03286608,Pot Hole in Street,Dispatch Crew,Pothole Patched,30.0,7000 N MEDFORD AVE,60646.0,1133667.56397596,1945911.01133167,41.0,16.0,12.0,,42.00777668081293,-87.78371714770793,"(42.00777668081293, -87.78371714770793)",2011-07-01
113818,07/01/2011,Completed,09/12/2011,11-03289803,Pot Hole in Street,Dispatch Crew,Pothole Patched,6.0,2700 W SCHUBERT AVE,60647.0,1157902.78861227,1917835.1509687,35.0,14.0,22.0,,41.93040301982642,-87.69522411608183,"(41.93040301982642, -87.69522411608183)",2011-07-01
113819,07/01/2011,Completed,09/22/2011,11-03290001,Pot Hole in Street,Dispatch Crew,Complete Upon Arrival,0.0,3137 W 40TH ST,60632.0,1156083.62213365,1877927.11500091,14.0,9.0,58.0,,41.820699828418434,-87.70345393005054,"(41.820699828418434, -87.70345393005054)",2011-07-01
113820,07/01/2011,Completed,10/26/2011,11-03289406,Pot Hole in Street,Dispatch Crew,Pothole Patched,13.0,3100 N NORDICA AVE,60634.0,1128666.74797866,1919886.45639045,36.0,25.0,18.0,,41.93654525895672,-87.8027025904637,"(41.93654525895672, -87.8027025904637)",2011-07-01
113821,07/01/2011,Completed,12/22/2011,11-03285806,Pot Hole in Street,Dispatch Crew,Pothole Patched,3.0,1120 N MONTICELLO AVE,60651.0,1151837.33388383,1907220.7223273998,27.0,11.0,23.0,,41.90157457495271,-87.71788707218084,"(41.90157457495271, -87.71788707218084)",2011-07-01
113848,07/02/2011,Completed - Dup,07/05/2011,11-03292791,Pot Hole in Street,,,,7200 S PULASKI RD,60629.0,1150951.50217357,1856562.3586325,13.0,8.0,65.0,,41.76226471772864,-87.72245397159084,"(41.76226471772864, -87.72245397159084)",2011-07-02
113849,07/02/2011,Completed - Dup,07/07/2011,11-03292247,Pot Hole in Street,,,,5086 S ARCHER AVE,60632.0,1149222.54963175,1870636.2665141004,23.0,8.0,57.0,,41.80104799472233,-87.72835302822511,"(41.80104799472233, -87.72835302822511)",2011-07-02
113850,07/02/2011,Completed - Dup,07/11/2011,11-03290954,Pot Hole in Street,,,,1780 W PETERSON AVE,60660.0,1163299.75988886,1939912.65438875,40.0,24.0,77.0,,41.990873001715,-87.6747245970695,"(41.990873001715, -87.67472459706948)",2011-07-02
113851,07/02/2011,Completed - Dup,07/11/2011,11-03292264,Pot Hole in Street,,,,5350 S NEWCASTLE AVE,60638.0,1131616.03949344,1868675.22019081,23.0,8.0,56.0,,41.794388837450036,-87.79300702485371,"(41.794388837450036, -87.79300702485371)",2011-07-02
113852,07/02/2011,Completed - Dup,07/12/2011,11-03291193,Pot Hole in Street,,,,7600 S STATE ST,60619.0,1177592.44417274,1854632.97492551,6.0,6.0,69.0,,41.75640040667298,-87.62486968589552,"(41.756400406672974, -87.62486968589552)",2011-07-02
113853,07/02/2011,Completed - Dup,07/12/2011,11-03291195,Pot Hole in Street,,,,4300 W DIVERSEY AVE,60639.0,1147237.08822811,1918268.42161747,31.0,25.0,20.0,,41.93180271693363,-87.73440883038772,"(41.93180271693363, -87.73440883038774)",2011-07-02
113854,07/02/2011,Completed - Dup,07/12/2011,11-03291297,Pot Hole in Street,,,,3800 W 107TH ST,60655.0,1152912.71148359,1833383.55200086,19.0,22.0,74.0,,41.69875636943151,-87.71579137086216,"(41.69875636943151, -87.71579137086216)",2011-07-02
113855,07/02/2011,Completed - Dup,07/12/2011,11-03291365,Pot Hole in Street,,,,5100 W STRONG ST,60630.0,1141484.73769869,1932435.26788982,45.0,16.0,11.0,,41.97078562655354,-87.75525872149996,"(41.97078562655354, -87.75525872149996)",2011-07-02
113856,07/02/2011,Completed - Dup,07/12/2011,11-03291449,Pot Hole in Street,,,,200 W OAK ST,60610.0,1174537.62371512,1907122.86882775,27.0,18.0,8.0,,41.900652583172715,-87.63442855063778,"(41.90065258317271, -87.63442855063778)",2011-07-02
113857,07/02/2011,Completed - Dup,07/12/2011,11-03291683,Pot Hole in Street,,,,3800 N CICERO AVE,60641.0,1143694.32451391,1924831.59361591,45.0,16.0,15.0,,41.94980568767765,-87.74735088995207,"(41.949805687677646, -87.74735088995206)",2011-07-02
113858,07/02/2011,Completed - Dup,07/12/2011,11-03291946,Pot Hole in Street,,,,1554 W ARMITAGE AVE,60642.0,1165460.35011231,1913384.64131539,32.0,14.0,22.0,,41.918033866590974,-87.66753315132853,"(41.91803386659098, -87.66753315132853)",2011-07-02
113859,07/02/2011,Completed - Dup,07/12/2011,11-03292489,Pot Hole in Street,,,,7926 S CALUMET AVE,60619.0,1179846.9766052,1852528.31800952,6.0,6.0,44.0,51.0,41.750259970502384,-87.61666231828566,"(41.750259970502384, -87.61666231828566)",2011-07-02
113860,07/02/2011,Completed - Dup,07/12/2011,11-03292578,Pot Hole in Street,,,,5399 S CAMPBELL AVE,60632.0,1160624.02009475,1868623.74518133,14.0,9.0,63.0,,41.79531198532011,-87.68637989235106,"(41.79531198532012, -87.68637989235106)",2011-07-02
113861,07/02/2011,Completed - Dup,07/12/2011,11-03292667,Pot Hole in Street,,,,4000 N IB KENNEDY EXPY,60641.0,1148107.6154671998,1926264.30160146,38.0,17.0,16.0,,41.953574891766294,-87.73110580336353,"(41.9535748917663, -87.73110580336353)",2011-07-02
113862,07/02/2011,Completed - Dup,07/12/2011,11-03293023,Pot Hole in Street,,,,11236 S LANGLEY AVE,60628.0,1182918.84517197,1830593.48731835,9.0,5.0,50.0,,41.690052144925296,-87.60608850317459,"(41.690052144925296, -87.6060885031746)",2011-07-02
113863,07/02/2011,Completed,07/05/2011,11-03291368,Pot Hole in Street,Dispatch Crew,Complete Upon Arrival,0.0,737 S CICERO AVE,60644.0,1144509.21920436,1896198.78048126,24.0,11.0,25.0,,41.87119763658666,-87.74477875073723,"(41.87119763658666, -87.74477875073723)",2011-07-02
113864,07/02/2011,Completed,07/07/2011,11-03292001,Pot Hole in Street,Dispatch Crew,Completed,0.0,300 W ROOSEVELT RD,60607.0,1174532.68678806,1895013.73571127,2.0,1.0,28.0,,41.867424120223475,-87.63476484543921,"(41.86742412022348, -87.63476484543921)",2011-07-02
113865,07/02/2011,Completed,07/07/2011,11-03292931,Pot Hole in Street,Dispatch Crew,Pothole Patched,3.0,5060 N SHERIDAN RD,60640.0,1168712.38982674,1934103.94999669,46.0,20.0,3.0,34.0,41.975119077312534,-87.65512202484139,"(41.975119077312534, -87.65512202484139)",2011-07-02
113866,07/02/2011,Completed,07/11/2011,11-03291088,Pot Hole in Street,Dispatch Crew,Pothole Patched,0.0,6700 S SOUTH SHORE DR,60649.0,1193338.33412355,1861007.40981502,5.0,3.0,43.0,,41.77343856600946,-87.56689930583319,"(41.77343856600946, -87.56689930583318)",2011-07-02
113867,07/02/2011,Completed,07/11/2011,11-03292024,Pot Hole in Street,Dispatch Crew,Pothole Patched,1.0,5200 W GRAND AVE,60639.0,1141397.77766917,1912849.71069516,37.0,25.0,19.0,,41.91705242360961,-87.75596219259077,"(41.91705242360961, -87.75596219259076)",2011-07-02
113868,07/02/2011,Completed,07/11/2011,11-03292729,Pot Hole in Street,Dispatch Crew,Completed,0.0,8400 S VINCENNES AVE,60620.0,1173944.51992356,1849128.96008687,21.0,6.0,71.0,,41.74140958882297,-87.63843149094289,"(41.74140958882297, -87.6384314909429)",2011-07-02
113869,07/02/2011,Completed,07/12/2011,11-03292530,Pot Hole in Street,Dispatch Crew,CDOT Pavement Cave-In Survey Transfer Outcome,0.0,5399 S CAMPBELL AVE,60632.0,1160624.02009475,1868623.74518133,14.0,9.0,63.0,,41.79531198532011,-87.68637989235106,"(41.79531198532012, -87.68637989235106)",2011-07-02
113870,07/02/2011,Completed,07/14/2011,11-03291940,Pot Hole in Street,Dispatch Crew,Pothole Patched,2.0,5700 N FAIRFIELD AVE,60659.0,1156887.45848566,1937773.37808915,40.0,20.0,2.0,,41.98516548039796,-87.6983906040243,"(41.98516548039796, -87.6983906040243)",2011-07-02
113871,07/02/2011,Completed,07/19/2011,11-03292320,Pot Hole in Street,Dispatch Crew,Pothole Patched,14.0,8920 S GREENWOOD AVE,60619.0,1185106.28436877,1846056.1301883,8.0,4.0,47.0,,41.732439714793756,-87.5975945730352,"(41.73243971479376, -87.59759457303521)",2011-07-02
113872,07/02/2011,Completed,07/19/2011,11-03292607,Pot Hole in Street,Dispatch Crew,CDOT Pavement Cave-In Survey Transfer Outcome,0.0,4000 N BROADWAY,60613.0,1169976.97140987,1926766.94590218,46.0,23.0,3.0,34.0,41.95454577693828,-87.65069276916996,"(41.95454577693828, -87.65069276916996)",2011-07-02
113873,07/02/2011,Completed,07/19/2011,11-03292681,Pot Hole in Street,Dispatch Crew,Pothole Patched,20.0,5201 S LAFLIN ST,60609.0,1167217.4023851003,1870246.36812813,16.0,9.0,61.0,,41.799439778612225,-87.66215164547674,"(41.79943977861223, -87.66215164547673)",2011-07-02
113874,07/02/2011,Completed,07/19/2011,11-03292683,Pot Hole in Street,Dispatch Crew,Pothole Patched,12.0,5156 S BISHOP ST,60609.0,1167540.01537149,1870549.58152919,16.0,9.0,61.0,,41.79969022403693,-87.66123789635952,"(41.79969022403693, -87.66123789635952)",2011-07-02
113875,07/02/2011,Completed,07/19/2011,11-03292684,Pot Hole in Street,Dispatch Crew,Pothole Patched,4.0,5101 S BISHOP ST,60609.0,1167530.03688893,1870918.40137434,16.0,9.0,61.0,,41.8012758542636,-87.66098726766855,"(41.8012758542636, -87.66098726766855)",2011-07-02
113876,07/02/2011,Completed,07/27/2011,11-03293112,Pot Hole in Street,Dispatch Crew, No Problem Found,0.0,900 W BELLE PLAINE AVE,60613.0,1169543.89729581,1927652.60872482,46.0,23.0,3.0,34.0,41.9570431507532,-87.65227901891953,"(41.9570431507532, -87.65227901891953)",2011-07-02
113877,07/02/2011,Completed,07/28/2011,11-03292766,Pot Hole in Street,Dispatch Crew,CDOT Street Cut Complaints Transfer Outcome,0.0,6204 N SAYRE AVE,60631.0,1128600.45991473,1940961.41780399,41.0,16.0,10.0,,41.9945460368032,-87.80213086758604,"(41.9945460368032, -87.80213086758604)",2011-07-02
113878,07/02/2011,Completed,08/01/2011,11-03292014,Pot Hole in Street,Dispatch Crew,Pothole Patched,8.0,2154 N LEAVITT ST,60647.0,1161340.04511338,1914449.0998285,32.0,14.0,22.0,,41.92127971051746,-87.68278574971683,"(41.92127971051746, -87.68278574971683)",2011-07-02
113879,07/02/2011,Completed,08/02/2011,11-03291191,Pot Hole in Street,Dispatch Crew,Complete Upon Arrival,0.0,5500 S WOOD ST,60636.0,1165288.82780427,1868078.6903715,15.0,7.0,67.0,,41.79352936056125,-87.66957883882868,"(41.79352936056125, -87.66957883882867)",2011-07-02
113880,07/02/2011,Completed,08/03/2011,11-03291991,Pot Hole in Street,Dispatch Crew,CDOT Pavement Cave-In Survey Transfer Outcome,0.0,7926 S CALUMET AVE,60619.0,1179846.9766052,1852528.31800952,6.0,6.0,44.0,51.0,41.750259970502384,-87.61666231828566,"(41.750259970502384, -87.61666231828566)",2011-07-02
113881,07/02/2011,Completed,08/03/2011,11-03292517,Pot Hole in Street,Dispatch Crew,Complete Upon Arrival,0.0,2324 S WENTWORTH AVE,60616.0,1175340.14548583,1888801.32993097,25.0,21.0,34.0,,41.850171556465924,-87.63210233361866,"(41.85017155646592, -87.63210233361865)",2011-07-02
113882,07/02/2011,Completed,08/03/2011,11-03292967,Pot Hole in Street,Dispatch Crew,Pothole Patched,1.0,2150 S ARCHER AVE,60616.0,1175365.66198277,1890282.89158215,25.0,21.0,34.0,,41.85347580508618,-87.63382152772232,"(41.85347580508617, -87.63382152772233)",2011-07-02
113883,07/02/2011,Completed,08/04/2011,11-03290980,Pot Hole in Street,Dispatch Crew,Pothole Patched,42.0,3600 S VINCENNES AVE,60653.0,1181039.92609706,1881030.12660706,4.0,2.0,35.0,,41.82879199479879,-87.6114276617232,"(41.82879199479879, -87.61142766172318)",2011-07-02
113884,07/02/2011,Completed,08/08/2011,11-03291220,Pot Hole in Street,Dispatch Crew,Pothole Patched,2.0,2435 W 65TH ST,60629.0,1161143.2031978,1861485.83380605,15.0,8.0,66.0,,41.77548716614261,-87.68491206501027,"(41.775487166142604, -87.68491206501027)",2011-07-02
113885,07/02/2011,Completed,08/09/2011,11-03291561,Pot Hole in Street,Dispatch Crew, No Problem Found,0.0,1832 W 79TH ST,60620.0,1165393.81977268,1852290.86392325,18.0,6.0,71.0,,41.75038610053856,-87.66955935587174,"(41.75038610053856, -87.66955935587174)",2011-07-02
113886,07/02/2011,Completed,08/17/2011,11-03292032,Pot Hole in Street,Dispatch Crew,Complete Upon Arrival,0.0,1635 S CENTRAL PARK AVE,60623.0,1152642.09169011,1891569.89001582,24.0,10.0,29.0,,41.85800660759745,-87.71503509965858,"(41.858006607597446, -87.71503509965858)",2011-07-02
113887,07/02/2011,Completed,08/29/2011,11-03292020,Pot Hole in Street,Dispatch Crew,Complete Upon Arrival,0.0,1600 N KEELER AVE,60639.0,1148146.15039178,1910303.58261318,30.0,25.0,23.0,,41.90990759974631,-87.7313603322069,"(41.909907599746305, -87.73136033220689)",2011-07-02
113888,07/02/2011,Completed,09/09/2011,11-03291316,Pot Hole in Street,Dispatch Crew, No Problem Found,0.0,5430 N MOODY AVE,60630.0,1134083.99422486,1935524.77221127,45.0,16.0,11.0,,41.98010590941731,-87.78240417394291,"(41.98010590941731, -87.7824041739429)",2011-07-02
113889,07/02/2011,Completed,09/15/2011,11-03291266,Pot Hole in Street,Dispatch Crew,Pothole Patched,31.0,10500 S DOTY AVE,60628.0,1187446.82489685,1835538.93133352,10.0,5.0,51.0,,41.70379083480453,-87.58943482835087,"(41.703790834804536, -87.58943482835087)",2011-07-02
113987,07/03/2011,Completed - Dup,07/05/2011,11-03294153,Pot Hole in Street,,,,7200 S PULASKI RD,60629.0,1150951.50217357,1856562.3586325,13.0,8.0,65.0,,41.76226471772864,-87.72245397159084,"(41.76226471772864, -87.72245397159084)",2011-07-03
113988,07/03/2011,Completed - Dup,07/05/2011,11-03294350,Pot Hole in Street,,,,7151 S PULASKI RD,60629.0,1150943.00217357,1856881.6586325,13.0,8.0,65.0,3.0,41.762609554663634,-87.72216962242405,"(41.76260955466363, -87.72216962242405)",2011-07-03
113989,07/03/2011,Completed - Dup,07/07/2011,11-03294650,Pot Hole in Street,,,,6718 W DIVERSEY AVE,60707.0,1131065.46930529,1917873.38831892,36.0,25.0,18.0,,41.931012127781464,-87.79391212549265,"(41.93101212778147, -87.79391212549264)",2011-07-03
113990,07/03/2011,Completed - Dup,07/08/2011,11-03294183,Pot Hole in Street,,,,4000 N CENTRAL AVE,60634.0,1138299.74747507,1926039.3148264,38.0,16.0,15.0,,41.953272751035406,-87.76715015131407,"(41.95327275103541, -87.76715015131407)",2011-07-03
113991,07/03/2011,Completed - Dup,07/11/2011,11-03294361,Pot Hole in Street,,,,5350 S NEWCASTLE AVE,60638.0,1131616.03949344,1868675.22019081,23.0,8.0,56.0,,41.794388837450036,-87.79300702485371,"(41.794388837450036, -87.79300702485371)",2011-07-03
113992,07/03/2011,Completed - Dup,07/12/2011,11-03293797,Pot Hole in Street,,,,1500 S SPAULDING AVE,60623.0,1154607.71008859,1892519.8676753999,24.0,10.0,29.0,,41.86079843793609,-87.7080925176972,"(41.86079843793609, -87.7080925176972)",2011-07-03
113993,07/03/2011,Completed - Dup,07/12/2011,11-03293849,Pot Hole in Street,,,,530 W 81ST ST,60620.0,1174039.81018654,1851192.46581566,21.0,6.0,44.0,,41.7471866238455,-87.63778800723,"(41.7471866238455, -87.63778800723)",2011-07-03
113994,07/03/2011,Completed - Dup,07/12/2011,11-03293939,Pot Hole in Street,,,,3323 S MICHIGAN AVE,60616.0,1177740.60896573,1883001.36678415,3.0,21.0,35.0,,41.83399103506653,-87.62317038166874,"(41.83399103506653, -87.62317038166874)",2011-07-03
113995,07/03/2011,Completed - Dup,07/12/2011,11-03294173,Pot Hole in Street,,,,7601 W HIGGINS AVE,60631.0,1124667.57667867,1937015.97127546,41.0,16.0,10.0,,41.98251011042566,-87.81695360023029,"(41.98251011042566, -87.8169536002303)",2011-07-03
113996,07/03/2011,Completed - Dup,07/12/2011,11-03294180,Pot Hole in Street,,,,6545 W IRVING PARK RD,60634.0,1131843.5600331002,1925873.64002702,38.0,16.0,17.0,,41.95273362771231,-87.79079454940374,"(41.95273362771231, -87.79079454940373)",2011-07-03
113997,07/03/2011,Completed - Dup,07/12/2011,11-03294246,Pot Hole in Street,,,,7832 S DR MARTIN LUTHER KING JR DR,60619.0,1180261.99147409,1853165.57409099,6.0,6.0,69.0,51.0,41.751940408084735,-87.61512158366692,"(41.751940408084735, -87.61512158366692)",2011-07-03
113998,07/03/2011,Completed - Dup,07/12/2011,11-03294493,Pot Hole in Street,,,,200 W OAK ST,60610.0,1174537.62371512,1907122.86882775,27.0,18.0,8.0,,41.900652583172715,-87.63442855063778,"(41.90065258317271, -87.63442855063778)",2011-07-03
113999,07/03/2011,Completed - Dup,07/12/2011,11-03294706,Pot Hole in Street,,,,5019 W CORNELIA AVE,60641.0,1142279.13420075,1922803.3170252,38.0,16.0,15.0,,41.94411809004886,-87.75273862748125,"(41.94411809004886, -87.75273862748125)",2011-07-03
114000,07/03/2011,Completed,07/05/2011,11-03294170,Pot Hole in Street,Dispatch Crew,Pothole Patched,0.0,5677 W HIGGINS AVE,60630.0,1137416.15829507,1932528.61860517,45.0,16.0,11.0,,41.970918408957615,-87.77019177195484,"(41.970918408957615, -87.77019177195484)",2011-07-03
114001,07/03/2011,Completed,07/05/2011,11-03294175,Pot Hole in Street,Dispatch Crew,Pothole Patched,4.0,7119 W IRVING PARK RD,60634.0,1128123.85999297,1925817.16997987,38.0,16.0,17.0,,41.95264500125956,-87.8043800015645,"(41.952645001259555, -87.8043800015645)",2011-07-03
114002,07/03/2011,Completed,07/05/2011,11-03294275,Pot Hole in Street,Dispatch Crew,CDOT Pavement Cave-In Survey Transfer Outcome,1.0,1341 W MORSE AVE,60626.0,1165879.58006805,1946186.87710559,49.0,24.0,1.0,24.0,42.007810534759614,-87.66533833805397,"(42.00781053475962, -87.66533833805397)",2011-07-03
114003,07/03/2011,Completed,07/05/2011,11-03294445,Pot Hole in Street,Dispatch Crew,Pothole Patched,10.0,7000 W BELMONT AVE,60634.0,1129025.86090874,1920474.32952064,36.0,16.0,17.0,,41.93818573877898,-87.80129017280973,"(41.93818573877898, -87.80129017280974)",2011-07-03
114004,07/03/2011,Completed,07/05/2011,11-03294646,Pot Hole in Street,Dispatch Crew,Pothole Patched,23.0,8200 S WHIPPLE ST,60652.0,1157472.40219473,1850083.836468,18.0,8.0,70.0,,41.74429157541957,-87.69872732466959,"(41.744291575419574, -87.69872732466959)",2011-07-03
114005,07/03/2011,Completed,07/07/2011,11-03294258,Pot Hole in Street,Dispatch Crew,Pothole Patched,1.0,2500 S DR MARTIN LUTHER KING JR DR,60616.0,1179227.81843215,1887853.24768579,2.0,21.0,33.0,,41.8475166553577,-87.61786266790335,"(41.8475166553577, -87.61786266790335)",2011-07-03
114006,07/03/2011,Completed,07/07/2011,11-03295060,Pot Hole in Street,Dispatch Crew,Pothole Patched,2.0,728 N LA SALLE DR,60654.0,1175004.9933767999,1905330.39947847,42.0,18.0,8.0,,41.89566209555704,-87.63283875493174,"(41.89566209555705, -87.63283875493173)",2011-07-03
114007,07/03/2011,Completed,07/11/2011,11-03294216,Pot Hole in Street,Dispatch Crew,Completed,0.0,8200 S VINCENNES AVE,60620.0,1174641.53587927,1850529.86430659,21.0,6.0,44.0,,41.745211203757336,-87.63581807898403,"(41.745211203757336, -87.63581807898403)",2011-07-03
114008,07/03/2011,Completed,07/12/2011,11-03293795,Pot Hole in Street,Dispatch Crew,WM Sewer Cave In Inspection Transfer Outcome,0.0,1400 W 57TH ST,60636.0,1167969.09878081,1866952.77189384,16.0,7.0,67.0,,41.790565491065784,-87.65970121726072,"(41.79056549106578, -87.65970121726072)",2011-07-03
114009,07/03/2011,Completed,07/12/2011,11-03294358,Pot Hole in Street,Dispatch Crew,Pothole Patched,6.0,5500 W LELAND AVE,60630.0,1138826.25141999,1930542.24771922,45.0,16.0,15.0,,41.96563895835826,-87.76508052292021,"(41.965638958358255, -87.76508052292021)",2011-07-03
114010,07/03/2011,Completed,07/13/2011,11-03294292,Pot Hole in Street,Dispatch Crew,WM Sewer Cave In Inspection Transfer Outcome,1.0,5147 S LOREL AVE,60638.0,1141567.56133346,1869971.09099387,23.0,8.0,56.0,,41.7987411042302,-87.75621546087301,"(41.798741104230196, -87.75621546087301)",2011-07-03
114011,07/03/2011,Completed,07/14/2011,11-03294181,Pot Hole in Street,Dispatch Crew,Pothole Patched,2.0,6409 W HIGGINS AVE,60656.0,1132487.09018881,1934456.78171649,41.0,16.0,10.0,,41.97631174721861,-87.78831353119507,"(41.97631174721861, -87.78831353119507)",2011-07-03
114012,07/03/2011,Completed,07/15/2011,11-03294166,Pot Hole in Street,Dispatch Crew,Pothole Patched,2.0,6005 W HIGGINS AVE,60630.0,1135154.15980767,1933320.96880771,45.0,16.0,11.0,,41.973136066687374,-87.77852173272692,"(41.973136066687374, -87.77852173272692)",2011-07-03
114013,07/03/2011,Completed,07/15/2011,11-03294186,Pot Hole in Street,Dispatch Crew,Pothole Patched,1.0,6011 W HIGGINS AVE,60630.0,1135102.35980767,1933342.66880771,45.0,16.0,11.0,,41.9732173918736,-87.77877051265085,"(41.97321739187359, -87.77877051265085)",2011-07-03
114014,07/03/2011,Completed,07/19/2011,11-03294657,Pot Hole in Street,Dispatch Crew, No Problem Found,0.0,9000 S JEFFERY BLVD,60617.0,1191079.43852053,1845690.93153022,8.0,4.0,48.0,,41.73149099518353,-87.57573005347635,"(41.73149099518353, -87.57573005347636)",2011-07-03
114015,07/03/2011,Completed,07/21/2011,11-03294968,Pot Hole in Street,Dispatch Crew,Pothole Patched,10.0,957 W DIVERSEY PKWY,60614.0,1169336.89998166,1918782.09989337,43.0,19.0,7.0,17.0,41.932531176231386,-87.65370947965263,"(41.93253117623138, -87.65370947965262)",2011-07-03
114016,07/03/2011,Completed,07/27/2011,11-03293829,Pot Hole in Street,Dispatch Crew,Pothole Patched,3.0,4200 N BROADWAY,60613.0,1169285.90598503,1928183.12106847,46.0,23.0,3.0,34.0,41.95848356330247,-87.65321448916944,"(41.95848356330247, -87.65321448916944)",2011-07-03
114017,07/03/2011,Completed,07/28/2011,11-03294373,Pot Hole in Street,Dispatch Crew,Pothole Patched,1.0,6839 S CRANDON AVE,60649.0,1192502.45796601,1860059.5465292998,5.0,3.0,43.0,,41.77076555846083,-87.5697531414597,"(41.77076555846083, -87.56975314145971)",2011-07-03
114018,07/03/2011,Completed,07/29/2011,11-03294495,Pot Hole in Street,Dispatch Crew,Pothole Patched,18.0,340 W OAK ST,60610.0,1173729.46032119,1907102.60129794,27.0,18.0,8.0,,41.90061438395822,-87.63735279479064,"(41.90061438395822, -87.63735279479066)",2011-07-03
114019,07/03/2011,Completed,08/01/2011,11-03294176,Pot Hole in Street,Dispatch Crew,Pothole Patched,1.0,7369 W HIGGINS AVE,60656.0,1126180.39028102,1936389.34699613,41.0,16.0,10.0,,41.98167801454378,-87.81167838504714,"(41.98167801454378, -87.81167838504714)",2011-07-03
114020,07/03/2011,Completed,08/01/2011,11-03294178,Pot Hole in Street,Dispatch Crew,Pothole Patched,2.0,6961 W HIGGINS AVE,60656.0,1128810.00000521,1935737.92469242,41.0,16.0,10.0,,41.97993829406692,-87.80208936681305,"(41.97993829406692, -87.80208936681304)",2011-07-03
114021,07/03/2011,Completed,08/03/2011,11-03294167,Pot Hole in Street,Dispatch Crew,Pothole Patched,4.0,3252 W BRYN MAWR AVE,60659.0,1153599.08873088,1937029.40809349,40.0,17.0,13.0,,41.983152470336826,-87.7110052561553,"(41.983152470336826, -87.7110052561553)",2011-07-03
114022,07/03/2011,Completed,08/03/2011,11-03294242,Pot Hole in Street,Dispatch Crew,Pothole Patched,10.0,7842 S DR MARTIN LUTHER KING JR DR,60619.0,1180263.69147409,1853098.37409099,6.0,6.0,69.0,51.0,41.751657426281575,-87.61511667600452,"(41.751657426281575, -87.61511667600452)",2011-07-03
114023,07/03/2011,Completed,08/04/2011,11-03293782,Pot Hole in Street,Dispatch Crew,Pothole Patched,12.0,4431 W 14TH ST,60623.0,1146943.98009848,1893000.86608566,24.0,10.0,29.0,,41.8622533130933,-87.73600542613424,"(41.8622533130933, -87.73600542613424)",2011-07-03
114024,07/03/2011,Completed,08/11/2011,11-03294315,Pot Hole in Street,Dispatch Crew, No Problem Found,0.0,4800 N DAMEN AVE,60625.0,1162143.06302887,1931883.75002957,47.0,20.0,4.0,31.0,41.96884518171126,-87.67933472473636,"(41.96884518171126, -87.67933472473636)",2011-07-03
114025,07/03/2011,Completed,08/15/2011,11-03294606,Pot Hole in Street,Dispatch Crew, No Problem Found,0.0,8100 S VINCENNES AVE,60620.0,1174769.64537186,1851215.67337518,21.0,6.0,44.0,,41.747049185476214,-87.63533770973757,"(41.74704918547622, -87.63533770973757)",2011-07-03
114026,07/03/2011,Completed,09/09/2011,11-03294185,Pot Hole in Street,Dispatch Crew,Pothole Patched,5.0,6235 W HIGGINS AVE,60630.0,1133543.07003019,1934006.59002584,45.0,16.0,11.0,,41.97499482752185,-87.7842429328283,"(41.97499482752184, -87.78424293282832)",2011-07-03
114027,07/03/2011,Completed,09/16/2011,11-03294199,Pot Hole in Street,Dispatch Crew,Complete Upon Arrival,0.0,2300 W 36TH ST,60609.0,1161616.60000285,1880758.24036821,11.0,9.0,59.0,,41.82859069631707,-87.68263622319742,"(41.82859069631707, -87.68263622319742)",2011-07-03
114239,07/04/2011,Completed - Dup,07/05/2011,11-03295698,Pot Hole in Street,,,,5628 W FOSTER AVE,60630.0,1137577.0949958,1934232.85678871,45.0,16.0,11.0,,41.975790749493534,-87.7694830369517,"(41.97579074949354, -87.76948303695171)",2011-07-04
114240,07/04/2011,Completed - Dup,07/05/2011,11-03296056,Pot Hole in Street,,,,7200 S PULASKI RD,60629.0,1150951.50217357,1856562.3586325,13.0,8.0,65.0,,41.76226471772864,-87.72245397159084,"(41.76226471772864, -87.72245397159084)",2011-07-04
114241,07/04/2011,Completed - Dup,07/05/2011,11-03296080,Pot Hole in Street,,,,7200 S PULASKI RD,60629.0,1150951.50217357,1856562.3586325,13.0,8.0,65.0,,41.76226471772864,-87.72245397159084,"(41.76226471772864, -87.72245397159084)",2011-07-04
114242,07/04/2011,Completed - Dup,07/05/2011,11-03296082,Pot Hole in Street,,,,7300 S PULASKI RD,60629.0,1150968.26590217,1855929.58396917,13.0,8.0,65.0,,41.76042289090515,-87.72240628020184,"(41.76042289090515, -87.72240628020184)",2011-07-04
114243,07/04/2011,Completed - Dup,07/05/2011,11-03296085,Pot Hole in Street,,,,6200 S PULASKI RD,60629.0,1150767.16239956,1863185.96997904,13.0,8.0,65.0,3.0,41.78042379451084,-87.72295662431476,"(41.78042379451084, -87.72295662431476)",2011-07-04
114244,07/04/2011,Completed - Dup,07/06/2011,11-03295281,Pot Hole in Street,,,,7900 S EBERHART AVE,60619.0,1180943.27917283,1852737.18411841,6.0,6.0,44.0,51.0,41.7510660670749,-87.61264684604879,"(41.75106606707491, -87.61264684604879)",2011-07-04
114245,07/04/2011,Completed - Dup,07/06/2011,11-03296018,Pot Hole in Street,,,,8200 S MARYLAND AVE,60619.0,1183330.837018,1850808.62478255,8.0,6.0,44.0,51.0,41.74571774213389,-87.60395653641564,"(41.74571774213389, -87.60395653641562)",2011-07-04
114246,07/04/2011,Completed - Dup,07/07/2011,11-03295154,Pot Hole in Street,,,,5200 S PULASKI RD,60632.0,1150583.3095191002,1869778.63616773,23.0,8.0,62.0,,41.79850504402157,-87.72345873714228,"(41.798505044021574, -87.72345873714228)",2011-07-04
114247,07/04/2011,Completed - Dup,07/07/2011,11-03296360,Pot Hole in Street,,,,1 W 95TH ST,60628.0,1177968.25442431,1841966.54150227,21.0,5.0,49.0,,41.721560993674466,-87.62370601098179,"(41.721560993674466, -87.62370601098178)",2011-07-04
114248,07/04/2011,Completed - Dup,07/07/2011,11-03296607,Pot Hole in Street,,,,8504 S COMMERCIAL AVE,60617.0,1197624.09953358,1849160.87209259,10.0,4.0,46.0,,41.74081368633519,-87.55163962807978,"(41.74081368633519, -87.55163962807978)",2011-07-04
114249,07/04/2011,Completed - Dup,07/12/2011,11-03295197,Pot Hole in Street,,,,10420 S HALSTED ST,60628.0,1172820.7495767,1835750.70378025,34.0,22.0,73.0,45.0,41.704438483241354,-87.64290403070594,"(41.70443848324135, -87.64290403070594)",2011-07-04
114250,07/04/2011,Completed - Dup,07/12/2011,11-03295364,Pot Hole in Street,,,,4000 S ASHLAND AVE,60609.0,1166346.81002682,1877979.93997356,12.0,9.0,61.0,,41.82071161023561,-87.66541679423905,"(41.82071161023561, -87.66541679423904)",2011-07-04
114251,07/04/2011,Completed - Dup,07/12/2011,11-03295614,Pot Hole in Street,,,,4500 N LONG AVE,60630.0,1139530.03401127,1929410.60769118,45.0,16.0,15.0,,41.96245433485117,-87.76254425737709,"(41.96245433485117, -87.76254425737709)",2011-07-04
114252,07/04/2011,Completed - Dup,07/12/2011,11-03295692,Pot Hole in Street,,,,4537 N LONG AVE,60630.0,1139514.03733099,1929794.27419153,45.0,16.0,15.0,,41.96357580383586,-87.76230118745305,"(41.96357580383586, -87.76230118745305)",2011-07-04
114253,07/04/2011,Completed - Dup,07/12/2011,11-03295700,Pot Hole in Street,,,,4801 W LAWRENCE AVE,60630.0,1143433.88692101,1931481.58798664,45.0,16.0,15.0,,41.967913455116886,-87.74804877342508,"(41.96791345511688, -87.74804877342508)",2011-07-04
114254,07/04/2011,Completed - Dup,07/12/2011,11-03295701,Pot Hole in Street,,,,4481 W LAWRENCE AVE,60630.0,1145368.12001735,1931523.01622615,45.0,17.0,16.0,,41.967988926999396,-87.7411422945134,"(41.967988926999396, -87.7411422945134)",2011-07-04
114255,07/04/2011,Completed - Dup,07/12/2011,11-03295704,Pot Hole in Street,,,,4943 W LAWRENCE AVE,60630.0,1142437.89997157,1931458.19242255,45.0,16.0,15.0,,41.96786561675631,-87.75190140294544,"(41.967865616756306, -87.75190140294544)",2011-07-04
114256,07/04/2011,Completed - Dup,07/12/2011,11-03295754,Pot Hole in Street,,,,4317 N BROADWAY,60613.0,1168917.98081691,1928941.24028163,46.0,23.0,3.0,34.0,41.960622528132326,-87.65425592162883,"(41.96062252813233, -87.65425592162885)",2011-07-04
114257,07/04/2011,Completed - Dup,07/12/2011,11-03296050,Pot Hole in Street,,,,4530 N LONG AVE,60630.0,1139515.43733099,1929746.97419153,45.0,16.0,15.0,,41.96339744087008,-87.762589322642,"(41.96339744087008, -87.762589322642)",2011-07-04
114258,07/04/2011,Completed - Dup,07/12/2011,11-03296266,Pot Hole in Street,,,,10400 S HALSTED ST,60628.0,1172816.5495767,1835884.30378025,34.0,22.0,73.0,45.0,41.70500154573659,-87.64292093652246,"(41.70500154573659, -87.64292093652247)",2011-07-04
114259,07/04/2011,Completed - Dup,07/12/2011,11-03296593,Pot Hole in Street,,,,9017 S JEFFERY BLVD,60617.0,1191082.83852053,1845576.93153022,8.0,4.0,48.0,,41.73104250203168,-87.57542576032131,"(41.73104250203168, -87.57542576032132)",2011-07-04
114260,07/04/2011,Completed - Dup,07/28/2011,11-03296599,Pot Hole in Street,Dispatch Crew,Completed,0.0,11000 S ASHLAND AVE,60643.0,1167627.72991072,1831776.86388679,34.0,22.0,75.0,,41.6938617271881,-87.66203960901316,"(41.6938617271881, -87.66203960901315)",2011-07-04
114261,07/04/2011,Completed,07/05/2011,11-03295319,Pot Hole in Street,Dispatch Crew,Complete Upon Arrival,0.0,3100 W 55TH ST,60632.0,1156648.98011612,1867997.61949451,14.0,9.0,63.0,,41.79366832437191,-87.70118235184435,"(41.79366832437191, -87.70118235184434)",2011-07-04
114262,07/04/2011,Completed,07/06/2011,11-03295695,Pot Hole in Street,Dispatch Crew, No Problem Found,0.0,4940 W FOSTER AVE,60630.0,1142364.27208702,1934119.90981451,45.0,16.0,12.0,,41.975394608045924,-87.75174659886025,"(41.975394608045924, -87.75174659886025)",2011-07-04
114263,07/04/2011,Completed,07/06/2011,11-03296304,Pot Hole in Street,Dispatch Crew,Complete Upon Arrival,0.0,2458 S LAWNDALE AVE,60623.0,1152096.19187177,1887418.38357659,22.0,10.0,30.0,,41.84628046327061,-87.71743060571856,"(41.84628046327061, -87.71743060571855)",2011-07-04
114264,07/04/2011,Completed,07/12/2011,11-03295464,Pot Hole in Street,Dispatch Crew,WM Sewer Cave In Inspection Transfer Outcome,0.0,5700 S LOOMIS BLVD,60636.0,1167969.09878081,1866952.77189384,16.0,7.0,67.0,,41.790363141719844,-87.65978148792446,"(41.79036314171984, -87.65978148792445)",2011-07-04
114265,07/04/2011,Completed,07/12/2011,11-03295694,Pot Hole in Street,Dispatch Crew,Pothole Patched,2.0,5207 W LAWRENCE AVE,60630.0,1140762.6200065,1931418.46000462,45.0,16.0,15.0,,41.967788935925306,-87.75799021134537,"(41.967788935925306, -87.75799021134536)",2011-07-04
114266,07/04/2011,Completed,07/13/2011,11-03295512,Pot Hole in Street,Dispatch Crew,Pothole Patched,1.0,3450 N LAKE SHORE DR,60657.0,1172477.25351386,1923343.57091377,44.0,23.0,6.0,,41.945101085211526,-87.64160242635202,"(41.94510108521152, -87.64160242635202)",2011-07-04
114267,07/04/2011,Completed,07/15/2011,11-03295499,Pot Hole in Street,Dispatch Crew,Pothole Patched,5.0,5711 W SUNNYSIDE AVE,60630.0,1137403.79112741,1929360.52629673,38.0,16.0,15.0,,41.96220530181199,-87.77020110994258,"(41.96220530181199, -87.77020110994256)",2011-07-04
114268,07/04/2011,Completed,07/15/2011,11-03295501,Pot Hole in Street,Dispatch Crew,WM Sewer Cave In Inspection Transfer Outcome,0.0,1142 N CAMPBELL AVE,60622.0,1159528.73668161,1907610.01477943,26.0,13.0,24.0,,41.90241348823489,-87.68962119154135,"(41.90241348823489, -87.68962119154135)",2011-07-04
114269,07/04/2011,Completed,07/15/2011,11-03296391,Pot Hole in Street,Dispatch Crew,Complete Upon Arrival,0.0,2650 W 16TH ST,60608.0,1159293.28999433,1891968.16189133,28.0,10.0,29.0,,41.859373270292615,-87.69278759310845,"(41.859373270292615, -87.69278759310845)",2011-07-04
114270,07/04/2011,Completed,07/19/2011,11-03295626,Pot Hole in Street,Dispatch Crew,Pothole Patched,10.0,5231 S WINCHESTER AVE,60609.0,1164239.52250789,1869985.3525221,16.0,9.0,61.0,,41.798492575456464,-87.6730698442568,"(41.79849257545647, -87.6730698442568)",2011-07-04
114271,07/04/2011,Completed,07/19/2011,11-03296241,Pot Hole in Street,Dispatch Crew, No Problem Found,0.0,9017 S JEFFERY BLVD,60617.0,1191082.83852053,1845576.93153022,8.0,4.0,48.0,,41.73104250203168,-87.57542576032131,"(41.73104250203168, -87.57542576032132)",2011-07-04
114272,07/04/2011,Completed,07/20/2011,11-03295696,Pot Hole in Street,Dispatch Crew,Pothole Patched,5.0,4945 W LAWRENCE AVE,60630.0,1142428.39997157,1931457.99242255,45.0,16.0,15.0,,41.96786467281976,-87.75198526224932,"(41.96786467281976, -87.75198526224932)",2011-07-04
114273,07/04/2011,Completed,07/20/2011,11-03295941,Pot Hole in Street,Dispatch Crew,Pothole Patched,2.0,3906 W DICKENS AVE,60647.0,1149959.12998792,1913669.42118255,30.0,25.0,22.0,,41.9191310603121,-87.72448973716565,"(41.919131060312104, -87.72448973716565)",2011-07-04
114274,07/04/2011,Completed,07/25/2011,11-03295190,Pot Hole in Street,Dispatch Crew,Pothole Patched,6.0,2245 W VAN BUREN ST,60612.0,1161650.59139968,1898130.50211584,2.0,12.0,28.0,,41.87602684754868,-87.68252145125284,"(41.87602684754868, -87.68252145125285)",2011-07-04
114275,07/04/2011,Completed,07/26/2011,11-03295608,Pot Hole in Street,Dispatch Crew,CDOT Pavement Cave-In Survey Transfer Outcome,0.0,3529 N ORANGE AVE,60634.0,1122789.83991987,1922481.83031576,36.0,16.0,17.0,,41.94399192264811,-87.82396024246208,"(41.94399192264811, -87.82396024246208)",2011-07-04
114276,07/04/2011,Completed,07/26/2011,11-03295703,Pot Hole in Street,Dispatch Crew,Pothole Patched,2.0,4433 W LAWRENCE AVE,60630.0,1145805.13990798,1931532.78451284,39.0,17.0,16.0,,41.96801015233029,-87.73930519535946,"(41.968010152330294, -87.73930519535946)",2011-07-04
114277,07/04/2011,Completed,07/27/2011,11-03295709,Pot Hole in Street,Dispatch Crew,Pothole Patched,2.0,4800 N BROADWAY,60640.0,1167449.41010572,1932022.94971464,48.0,20.0,3.0,34.0,41.96908331914565,-87.65981945361588,"(41.96908331914566, -87.65981945361588)",2011-07-04
114278,07/04/2011,Completed,07/28/2011,11-03295143,Pot Hole in Street,Dispatch Crew,Pothole Patched,4.0,3136 W FLOURNOY ST,60612.0,1155562.13771322,1896863.70920461,24.0,11.0,27.0,,41.87289833833266,-87.70493026395344,"(41.87289833833266, -87.70493026395343)",2011-07-04
114279,07/04/2011,Completed,07/29/2011,11-03296170,Pot Hole in Street,Dispatch Crew,Pothole Patched,19.0,8600 S HERMITAGE AVE,60620.0,1166176.64410448,1847663.96771065,18.0,6.0,71.0,,41.737470930008286,-87.66690274349584,"(41.737470930008286, -87.66690274349584)",2011-07-04
114280,07/04/2011,Completed,08/01/2011,11-03295189,Pot Hole in Street,Dispatch Crew,Pothole Patched,57.0,2045 W VAN BUREN ST,60612.0,1162723.85989434,1898158.08227955,2.0,12.0,28.0,,41.876085790812546,-87.67833992995821,"(41.876085790812546, -87.67833992995821)",2011-07-04
114281,07/04/2011,Completed,08/01/2011,11-03295640,Pot Hole in Street,Dispatch Crew,Pothole Patched,1.0,9500 S HALSTED ST,60628.0,1172649.69608739,1841845.60390768,21.0,22.0,73.0,,41.721365060783064,-87.64335804234075,"(41.72136506078306, -87.64335804234075)",2011-07-04
114282,07/04/2011,Completed,08/26/2011,11-03296282,Pot Hole in Street,Dispatch Crew,Pothole Patched,18.0,3100 N AVONDALE AVE,60618.0,1155188.41662509,1920262.71488995,35.0,14.0,21.0,,41.93695056483101,-87.7052148709701,"(41.93695056483101, -87.7052148709701)",2011-07-04
114283,07/04/2011,Completed,09/06/2011,11-03295195,Pot Hole in Street,Dispatch Crew,Pothole Patched,4.0,146 S WASHTENAW AVE,60612.0,1158415.96180786,1899186.99372004,2.0,11.0,27.0,,41.87882178855397,-87.6939203622812,"(41.878821788553964, -87.6939203622812)",2011-07-04
114308,07/05/2011,Completed - Dup,07/05/2011,11-03296836,Pot Hole in Street,,,,7121 S PULASKI RD,60629.0,1150937.75446561,1857081.24202977,13.0,8.0,65.0,3.0,41.76345102459104,-87.72219140850441,"(41.763451024591035, -87.7221914085044)",2011-07-05
114309,07/05/2011,Completed - Dup,07/05/2011,11-03296849,Pot Hole in Street,,,,3800 N SOUTHPORT AVE,60613.0,1166291.03527715,1925371.94992482,44.0,19.0,6.0,27.0,41.950722357115495,-87.66426553712635,"(41.95072235711549, -87.66426553712635)",2011-07-05
114310,07/05/2011,Completed - Dup,07/05/2011,11-03298336,Pot Hole in Street,,,,5605 N MENARD AVE,60646.0,1136545.10052478,1936897.78373126,45.0,16.0,11.0,,41.983123315627715,-87.77304045612797,"(41.98312331562772, -87.77304045612797)",2011-07-05
114311,07/05/2011,Completed - Dup,07/06/2011,11-03296840,Pot Hole in Street,,,,3500 S KEDZIE AVE,60632.0,1155600.74279116,1881195.72056585,12.0,9.0,30.0,,41.82977495978446,-87.70475351470604,"(41.82977495978445, -87.70475351470603)",2011-07-05
114312,07/05/2011,Completed - Dup,07/06/2011,11-03296921,Pot Hole in Street,,,,10626 S OAKLEY AVE,60643.0,1162939.46152009,1834112.25822494,19.0,22.0,72.0,,41.70008697896303,-87.67913220315545,"(41.70008697896303, -87.67913220315543)",2011-07-05
114313,07/05/2011,Completed - Dup,07/06/2011,11-03298637,Pot Hole in Street,,,,7826 S CHAMPLAIN AVE,60619.0,1181920.52797143,1853258.02122822,6.0,6.0,69.0,51.0,41.75221547970891,-87.60904401048752,"(41.75221547970891, -87.60904401048751)",2011-07-05
114314,07/05/2011,Completed - Dup,07/06/2011,11-03299360,Pot Hole in Street,,,,7900 S COTTAGE GROVE AVE,60619.0,1182931.38363419,1852800.34381547,6.0,6.0,44.0,51.0,41.75119433822187,-87.60536732633038,"(41.751194338221865, -87.60536732633038)",2011-07-05
114315,07/05/2011,Completed - Dup,07/06/2011,11-03301092,Pot Hole in Street,,,,2513 W PALMER ST,60647.0,1159447.63642614,1914690.70401439,1.0,14.0,22.0,,41.92152140781909,-87.6898731267367,"(41.921521407819085, -87.6898731267367)",2011-07-05
114316,07/05/2011,Completed - Dup,07/06/2011,11-03302395,Pot Hole in Street,,,,10500 S LEAVITT ST,60643.0,1163568.98433272,1834976.20562173,19.0,22.0,72.0,,41.702705922571155,-87.67680808873567,"(41.70270592257116, -87.67680808873567)",2011-07-05
114317,07/05/2011,Completed - Dup,07/06/2011,11-03302418,Pot Hole in Street,,,,10539 S HAMILTON AVE,60643.0,1163905.8817206002,1834724.06149937,19.0,22.0,72.0,,41.70165604340665,-87.67528388065088,"(41.70165604340665, -87.67528388065088)",2011-07-05
114318,07/05/2011,Completed - Dup,07/06/2011,11-03302422,Pot Hole in Street,,,,10617 S HAMILTON AVE,60643.0,1163919.92492996,1834204.54788077,19.0,22.0,72.0,,41.70044452747708,-87.67524962269688,"(41.70044452747708, -87.67524962269688)",2011-07-05
114319,07/05/2011,Completed - Dup,07/06/2011,11-03302428,Pot Hole in Street,,,,10635 S HAMILTON AVE,60643.0,1163923.62492996,1834081.64788077,19.0,22.0,72.0,,41.69992628481723,-87.67523411343781,"(41.69992628481723, -87.6752341134378)",2011-07-05
114320,07/05/2011,Completed - Dup,07/06/2011,11-03302440,Pot Hole in Street,,,,10634 S HAMILTON AVE,60643.0,1163923.42492996,1834088.54788077,19.0,22.0,72.0,,41.69992147517747,-87.67552698030464,"(41.69992147517747, -87.67552698030464)",2011-07-05
114321,07/05/2011,Completed - Dup,07/06/2011,11-03302443,Pot Hole in Street,,,,10658 S HAMILTON AVE,60643.0,1163928.23000017,1833924.66012946,19.0,22.0,72.0,,41.69923061345313,-87.675507042859,"(41.699230613453125, -87.675507042859)",2011-07-05
114322,07/05/2011,Completed - Dup,07/06/2011,11-03302452,Pot Hole in Street,,,,10633 S OAKLEY AVE,60643.0,1162940.86152009,1834064.35822494,19.0,22.0,72.0,,41.69991881996073,-87.67883429620609,"(41.699918819960736, -87.6788342962061)",2011-07-05
114323,07/05/2011,Completed - Dup,07/06/2011,11-03302465,Pot Hole in Street,,,,10655 S OAKLEY AVE,60643.0,1162945.35001249,1833913.97879986,19.0,22.0,72.0,,41.69928473832125,-87.67881529975121,"(41.69928473832125, -87.67881529975121)",2011-07-05
114324,07/05/2011,Completed - Dup,07/07/2011,11-03298822,Pot Hole in Street,,,,1062 W CHICAGO AVE,60642.0,1169177.63909862,1905528.57458172,27.0,13.0,24.0,29.0,41.89638218590878,-87.65506732661171,"(41.89638218590878, -87.65506732661171)",2011-07-05
114325,07/05/2011,Completed - Dup,07/07/2011,11-03301387,Pot Hole in Street,,,,546 W DEMING PL,60614.0,1172060.2781251,1917221.39920376,43.0,19.0,7.0,23.0,41.928260293091675,-87.64368428531769,"(41.92826029309168, -87.64368428531769)",2011-07-05
114326,07/05/2011,Completed - Dup,07/07/2011,11-03301440,Pot Hole in Street,,,,9644 S PERRY AVE,60628.0,1177307.01251076,1841011.51957896,21.0,5.0,49.0,,41.718538461549045,-87.6263152727532,"(41.718538461549045, -87.6263152727532)",2011-07-05
114327,07/05/2011,Completed - Dup,07/07/2011,11-03301787,Pot Hole in Street,,,,2500 S DR MARTIN LUTHER KING JR DR,60616.0,1179227.81843215,1887853.24768579,2.0,21.0,33.0,,41.8475166553577,-87.61786266790335,"(41.8475166553577, -87.61786266790335)",2011-07-05
114328,07/05/2011,Completed - Dup,07/07/2011,11-03302668,Pot Hole in Street,,,,2935 N NEWCASTLE AVE,60634.0,1130246.35743024,1918752.7547056999,36.0,25.0,18.0,,41.93374216061157,-87.79664019048958,"(41.933742160611565, -87.79664019048958)",2011-07-05
114329,07/05/2011,Completed - Dup,07/07/2011,11-03302694,Pot Hole in Street,,,,6841 W 63RD ST,60638.0,1131890.59931528,1861977.40988767,23.0,8.0,64.0,,41.77737396518158,-87.79267764056905,"(41.777373965181575, -87.79267764056907)",2011-07-05
114330,07/05/2011,Completed - Dup,07/07/2011,11-03305218,Pot Hole in Street,,,,10100 S STATE ST,60628.0,1178037.6289718,1838007.7942027,9.0,5.0,49.0,,41.71075806387458,-87.62373986711684,"(41.71075806387458, -87.62373986711683)",2011-07-05
114331,07/05/2011,Completed - Dup,07/07/2011,11-03305243,Pot Hole in Street,,,,917 W GUNNISON ST,60640.0,1169292.16888759,1932412.94693371,48.0,20.0,3.0,34.0,41.9699428106275,-87.6531808372974,"(41.9699428106275, -87.6531808372974)",2011-07-05
114332,07/05/2011,Completed - Dup,07/07/2011,11-03305309,Pot Hole in Street,,,,5059 N SHERIDAN RD,60640.0,1168712.58982674,1934098.64999669,48.0,20.0,3.0,34.0,41.97510679666417,-87.65482752875877,"(41.97510679666417, -87.65482752875877)",2011-07-05
114333,07/05/2011,Completed - Dup,07/07/2011,11-03306130,Pot Hole in Street,,,,5086 S ARCHER AVE,60632.0,1149222.54963175,1870636.2665141004,23.0,8.0,57.0,,41.80104799472233,-87.72835302822511,"(41.80104799472233, -87.72835302822511)",2011-07-05
114334,07/05/2011,Completed - Dup,07/08/2011,11-03302121,Pot Hole in Street,,,,8600 S COMMERCIAL AVE,60617.0,1197638.12177095,1848524.92357859,10.0,4.0,46.0,5.0,41.739107097952015,-87.5516095748948,"(41.739107097952015, -87.5516095748948)",2011-07-05
114335,07/05/2011,Completed - Dup,07/08/2011,11-03302271,Pot Hole in Street,,,,2000 W 100TH ST,60643.0,1164787.8307303002,1838334.08067003,19.0,22.0,72.0,,41.712099647963065,-87.67217190346845,"(41.71209964796306, -87.67217190346845)",2011-07-05
114336,07/05/2011,Completed - Dup,07/08/2011,11-03304768,Pot Hole in Street,,,,11600 S AVENUE O,60617.0,1200915.03526599,1828653.72002893,10.0,4.0,52.0,,41.68449844535833,-87.54027607893326,"(41.68449844535833, -87.54027607893326)",2011-07-05
114337,07/05/2011,Completed - Dup,07/11/2011,11-03297419,Pot Hole in Street,,,,7900 S STONY ISLAND AVE,60617.0,1188221.70228264,1852925.66627643,8.0,4.0,45.0,50.0,41.75146060316686,-87.5859719929647,"(41.75146060316686, -87.5859719929647)",2011-07-05
114338,07/05/2011,Completed - Dup,07/11/2011,11-03300402,Pot Hole in Street,,,,1751 W PETERSON AVE,60660.0,1163582.02987619,1939921.48379616,40.0,20.0,77.0,,41.99067388923909,-87.67357932188378,"(41.99067388923909, -87.67357932188378)",2011-07-05
114339,07/05/2011,Completed - Dup,07/11/2011,11-03301327,Pot Hole in Street,,,,9956 S DAMEN AVE,60643.0,1164779.7307303,1838621.48067003,19.0,22.0,72.0,,41.71213530994612,-87.6722598941694,"(41.71213530994612, -87.6722598941694)",2011-07-05
114340,07/05/2011,Completed - Dup,07/11/2011,11-03301978,Pot Hole in Street,,,,8600 S WALLACE ST,60620.0,1173805.87932566,1847831.91161283,21.0,6.0,71.0,,41.73777940401365,-87.63894633997532,"(41.73777940401365, -87.63894633997533)",2011-07-05
114341,07/05/2011,Completed - Dup,07/11/2011,11-03302308,Pot Hole in Street,,,,9527 S HOYNE AVE,60643.0,1164035.16600992,1841446.47628045,19.0,22.0,72.0,4.0,41.720220877769705,-87.67462357642488,"(41.72022087776971, -87.67462357642489)",2011-07-05
114342,07/05/2011,Completed - Dup,07/11/2011,11-03302335,Pot Hole in Street,,,,9900 S OAKLEY AVE,60643.0,1162786.44057781,1838937.78383396,19.0,22.0,72.0,,41.713594608787844,-87.67956432424931,"(41.713594608787844, -87.6795643242493)",2011-07-05
114343,07/05/2011,Completed - Dup,07/12/2011,11-03297464,Pot Hole in Street,,,,3323 S MICHIGAN AVE,60616.0,1177740.60896573,1883001.36678415,3.0,21.0,35.0,,41.83399103506653,-87.62317038166874,"(41.83399103506653, -87.62317038166874)",2011-07-05
114344,07/05/2011,Completed - Dup,07/12/2011,11-03298552,Pot Hole in Street,,,,7118 S PARNELL AVE,60621.0,1173855.76382883,1857710.66280568,6.0,7.0,68.0,,41.764696003397155,-87.6384528352632,"(41.764696003397155, -87.63845283526321)",2011-07-05
114345,07/05/2011,Completed - Dup,07/12/2011,11-03298672,Pot Hole in Street,,,,3340 S MICHIGAN AVE,60616.0,1177743.10896573,1882887.46678415,3.0,21.0,35.0,,41.83361675506015,-87.6234571333317,"(41.83361675506015, -87.62345713333171)",2011-07-05
114346,07/05/2011,Completed - Dup,07/12/2011,11-03299827,Pot Hole in Street,,,,10400 S HALSTED ST,60628.0,1172816.5495767,1835884.30378025,34.0,22.0,73.0,45.0,41.70500154573659,-87.64292093652246,"(41.70500154573659, -87.64292093652247)",2011-07-05
114347,07/05/2011,Completed - Dup,07/12/2011,11-03299933,Pot Hole in Street,,,,532 W 81ST ST,60620.0,1174011.11018654,1851191.56581566,21.0,6.0,44.0,,41.747184972223465,-87.63788034752778,"(41.74718497222346, -87.6378803475278)",2011-07-05
114348,07/05/2011,Completed - Dup,07/12/2011,11-03300761,Pot Hole in Street,,,,4010 W LAKE ST,60624.0,1149612.41963064,1901444.04251033,28.0,11.0,26.0,,41.885592174779326,-87.72630419970099,"(41.885592174779326, -87.72630419970098)",2011-07-05
114349,07/05/2011,Completed - Dup,07/12/2011,11-03301079,Pot Hole in Street,,,,4535 N LONG AVE,60630.0,1139514.43733099,1929780.77419153,45.0,16.0,15.0,,41.96351824815552,-87.76229936564218,"(41.963518248155516, -87.76229936564218)",2011-07-05
114350,07/05/2011,Completed - Dup,07/12/2011,11-03301089,Pot Hole in Street,,,,2948 W FLETCHER ST,60618.0,1156075.42013212,1920797.08632438,33.0,14.0,21.0,,41.93856452714432,-87.70224766276694,"(41.938564527144315, -87.70224766276694)",2011-07-05
114351,07/05/2011,Completed - Dup,07/12/2011,11-03301169,Pot Hole in Street,,,,5016 W CORNELIA AVE,60641.0,1142300.63420075,1922803.8170252,38.0,16.0,15.0,,41.94433856674074,-87.75267059345953,"(41.94433856674074, -87.75267059345953)",2011-07-05
114352,07/05/2011,Completed - Dup,07/12/2011,11-03301429,Pot Hole in Street,,,,3757 N CICERO AVE,60641.0,1143701.53002935,1924629.08047052,38.0,17.0,15.0,,41.949676990093344,-87.74703974643957,"(41.949676990093344, -87.74703974643957)",2011-07-05
114353,07/05/2011,Completed - Dup,07/12/2011,11-03301522,Pot Hole in Street,,,,957 W DIVERSEY PKWY,60614.0,1169336.89998166,1918782.09989337,43.0,19.0,7.0,17.0,41.932531176231386,-87.65370947965263,"(41.93253117623138, -87.65370947965262)",2011-07-05
114354,07/05/2011,Completed - Dup,07/12/2011,11-03301561,Pot Hole in Street,,,,8100 S WALLACE ST,60620.0,1173707.74010161,1851181.41998642,21.0,6.0,71.0,,41.74696017917659,-87.6392104249587,"(41.74696017917659, -87.6392104249587)",2011-07-05
114355,07/05/2011,Completed - Dup,07/12/2011,11-03302221,Pot Hole in Street,,,,4535 N LONG AVE,60630.0,1139514.43733099,1929780.77419153,45.0,16.0,15.0,,41.96351824815552,-87.76229936564218,"(41.963518248155516, -87.76229936564218)",2011-07-05
114356,07/05/2011,Completed - Dup,07/12/2011,11-03302348,Pot Hole in Street,,,,2001 W 96TH ST,60643.0,1164702.16340628,1840983.11840619,19.0,22.0,72.0,,41.719151535779226,-87.6723661481025,"(41.719151535779226, -87.6723661481025)",2011-07-05
114357,07/05/2011,Completed - Dup,07/12/2011,11-03302439,Pot Hole in Street,,,,5500 W LELAND AVE,60630.0,1138826.25141999,1930542.24771922,45.0,16.0,15.0,,41.96563895835826,-87.76508052292021,"(41.965638958358255, -87.76508052292021)",2011-07-05
114358,07/05/2011,Completed - Dup,07/12/2011,11-03302561,Pot Hole in Street,,,,5400 W CORNELIA AVE,60641.0,1139742.9282875,1922743.35337761,38.0,16.0,15.0,,41.944222055166904,-87.76190067565176,"(41.94422205516691, -87.76190067565176)",2011-07-05
114359,07/05/2011,Completed - Dup,07/12/2011,11-03302767,Pot Hole in Street,,,,3450 N LAKE SHORE DR,60657.0,1172477.25351386,1923343.57091377,44.0,23.0,6.0,,41.945101085211526,-87.64160242635202,"(41.94510108521152, -87.64160242635202)",2011-07-05
114360,07/05/2011,Completed - Dup,07/12/2011,11-03302842,Pot Hole in Street,,,,6800 W WAVELAND AVE,60634.0,1130407.998716,1923841.40236571,36.0,16.0,17.0,,41.947401317730815,-87.79612581402692,"(41.94740131773081, -87.79612581402692)",2011-07-05
114361,07/05/2011,Completed - Dup,07/12/2011,11-03302931,Pot Hole in Street,,,,641 W WILLOW ST,60614.0,1171623.29988787,1911959.50301767,43.0,18.0,7.0,,41.91376601254093,-87.64518550070112,"(41.91376601254093, -87.64518550070112)",2011-07-05
114362,07/05/2011,Completed - Dup,07/12/2011,11-03303051,Pot Hole in Street,,,,8100 S ELIZABETH ST,60620.0,1169399.55422924,1851069.20128594,21.0,6.0,71.0,,41.74674498729027,-87.65499487767954,"(41.74674498729027, -87.65499487767954)",2011-07-05
114363,07/05/2011,Completed - Dup,07/12/2011,11-03303349,Pot Hole in Street,,,,8100 S ELIZABETH ST,60620.0,1169399.55422924,1851069.20128594,21.0,6.0,71.0,,41.74674498729027,-87.65499487767954,"(41.74674498729027, -87.65499487767954)",2011-07-05
114364,07/05/2011,Completed - Dup,07/12/2011,11-03303950,Pot Hole in Street,,,,8100 S VINCENNES AVE,60620.0,1174769.64537186,1851215.67337518,21.0,6.0,44.0,,41.747049185476214,-87.63533770973757,"(41.74704918547622, -87.63533770973757)",2011-07-05
114365,07/05/2011,Completed - Dup,07/12/2011,11-03304160,Pot Hole in Street,,,,3602 W 66TH ST,60629.0,1153435.91840148,1860606.80599983,13.0,8.0,65.0,,41.77345076226759,-87.71315988992075,"(41.773450762267586, -87.71315988992075)",2011-07-05
114366,07/05/2011,Completed - Dup,07/12/2011,11-03304199,Pot Hole in Street,,,,7600 S KOSTNER AVE,60652.0,1148224.57221787,1853874.65460722,13.0,8.0,65.0,,41.75487894781921,-87.73251534802752,"(41.7548789478192, -87.73251534802752)",2011-07-05
114367,07/05/2011,Completed - Dup,07/12/2011,11-03304359,Pot Hole in Street,,,,8100 S WALLACE ST,60620.0,1173707.74010161,1851181.41998642,21.0,6.0,71.0,,41.74696017917659,-87.6392104249587,"(41.74696017917659, -87.6392104249587)",2011-07-05
114368,07/05/2011,Completed - Dup,07/12/2011,11-03304549,Pot Hole in Street,,,,5128 N BROADWAY,60640.0,1167384.07502501,1934356.10988015,46.0,20.0,3.0,34.0,41.97547196367442,-87.65999117172262,"(41.97547196367442, -87.65999117172262)",2011-07-05
114369,07/05/2011,Completed - Dup,07/12/2011,11-03304562,Pot Hole in Street,,,,4925 N BROADWAY,60640.0,1167421.35997978,1933022.64000833,48.0,20.0,3.0,34.0,41.9722135569909,-87.65960910010729,"(41.97221355699091, -87.6596091001073)",2011-07-05
114370,07/05/2011,Completed - Dup,07/12/2011,11-03304571,Pot Hole in Street,,,,4945 N BROADWAY,60640.0,1167418.95997978,1933113.14000833,48.0,20.0,3.0,34.0,41.972835022790385,-87.65962504271593,"(41.97283502279038, -87.65962504271593)",2011-07-05
114371,07/05/2011,Completed - Dup,07/12/2011,11-03304667,Pot Hole in Street,,,,3400 W PETERSON AVE,60659.0,1152622.85378866,1939672.30711398,50.0,17.0,13.0,,41.990431843921826,-87.71404663663584,"(41.990431843921826, -87.71404663663583)",2011-07-05
114372,07/05/2011,Completed - Dup,07/12/2011,11-03305273,Pot Hole in Street,,,,3300 W POLK ST,60624.0,1154495.70996667,1896178.18429142,24.0,11.0,27.0,,41.87104256108479,-87.70838490213814,"(41.871042561084785, -87.70838490213814)",2011-07-05
114373,07/05/2011,Completed - Dup,07/12/2011,11-03305322,Pot Hole in Street,,,,5040 N MARINE DR,60640.0,1169678.65997453,1934023.38996648,48.0,20.0,3.0,34.0,41.9745895130019,-87.65161345058887,"(41.97458951300191, -87.65161345058888)",2011-07-05
114374,07/05/2011,Completed,07/05/2011,11-03296844,Pot Hole in Street,Dispatch Crew,Pothole Patched,8.0,2400 W 16TH ST,60608.0,1160636.01580729,1892008.09990702,28.0,10.0,28.0,,41.8594739107064,-87.68595084061718,"(41.8594739107064, -87.68595084061717)",2011-07-05
114375,07/05/2011,Completed,07/05/2011,11-03296853,Pot Hole in Street,Dispatch Crew,Pothole Patched,8.0,3835 N SHEFFIELD AVE,60613.0,1168916.25918593,1925710.62588067,44.0,23.0,6.0,17.0,41.95219271743461,-87.65432845714645,"(41.95219271743462, -87.65432845714646)",2011-07-05
114376,07/05/2011,Completed,07/05/2011,11-03296864,Pot Hole in Street,Dispatch Crew,Pothole Patched,1.0,1000 W CERMAK RD,60608.0,1170032.98008171,1889606.28609683,25.0,12.0,31.0,,41.852685383495775,-87.65149236677266,"(41.852685383495775, -87.65149236677266)",2011-07-05
114377,07/05/2011,Completed,07/05/2011,11-03296865,Pot Hole in Street,Dispatch Crew,Pothole Patched,17.0,1000 N LAKE SHORE DR,60611.0,1177323.45566697,1907246.95042657,42.0,18.0,8.0,,41.900752974041694,-87.62423499977997,"(41.900752974041694, -87.62423499977997)",2011-07-05
114378,07/05/2011,Completed,07/05/2011,11-03298780,Pot Hole in Street,Dispatch Crew,Pothole Patched,3.0,2100 E 88TH ST,60617.0,1191704.79701245,1847038.00990154,8.0,4.0,48.0,,41.73537624132575,-87.57319358968668,"(41.735376241325746, -87.57319358968668)",2011-07-05
114379,07/05/2011,Completed,07/05/2011,11-03298794,Pot Hole in Street,Dispatch Crew,Pothole Patched,19.0,2200 E 88TH ST,60617.0,1192367.20377787,1847056.97098874,8.0,4.0,48.0,,41.735412171448885,-87.57076615712715,"(41.73541217144888, -87.57076615712715)",2011-07-05
114380,07/05/2011,Completed,07/05/2011,11-03298799,Pot Hole in Street,Dispatch Crew,Pothole Patched,3.0,2300 E 88TH ST,60617.0,1193029.36709652,1847073.65901049,8.0,4.0,48.0,,41.735441225928184,-87.56833411288166,"(41.73544122592819, -87.56833411288166)",2011-07-05
114381,07/05/2011,Completed,07/05/2011,11-03298812,Pot Hole in Street,Dispatch Crew,Pothole Patched,1.0,2000 E 89TH ST,60617.0,1191061.3361102,1846355.99216863,8.0,4.0,48.0,,41.73352022464962,-87.57557235197838,"(41.73352022464962, -87.57557235197837)",2011-07-05
114382,07/05/2011,Completed,07/05/2011,11-03298830,Pot Hole in Street,Dispatch Crew,Pothole Patched,7.0,2100 E 89TH ST,60617.0,1191723.72062511,1846374.04670247,8.0,4.0,48.0,,41.733553248694854,-87.57317562149235,"(41.733553248694854, -87.57317562149234)",2011-07-05
114383,07/05/2011,Completed,07/05/2011,11-03298835,Pot Hole in Street,Dispatch Crew,Pothole Patched,18.0,2200 E 89TH ST,60617.0,1192386.84712227,1846391.76926969,8.0,4.0,48.0,,41.7335862167255,-87.5707154276561,"(41.7335862167255, -87.5707154276561)",2011-07-05
114384,07/05/2011,Completed,07/05/2011,11-03298857,Pot Hole in Street,Dispatch Crew,Pothole Patched,11.0,2300 E 89TH ST,60617.0,1193050.07529668,1846409.73700587,8.0,4.0,48.0,,41.73361946945789,-87.56828541285418,"(41.73361946945789, -87.56828541285417)",2011-07-05
114385,07/05/2011,Completed,07/05/2011,11-03300905,Pot Hole in Street,Dispatch Crew,Pothole Patched,15.0,3955 N NATCHEZ AVE,60634.0,1132321.86220124,1925534.40912694,38.0,16.0,17.0,,41.952024441463664,-87.78880069886739,"(41.952024441463664, -87.7888006988674)",2011-07-05
114386,07/05/2011,Completed,07/05/2011,11-03300927,Pot Hole in Street,Dispatch Crew,Pothole Patched,2.0,7200 W BYRON ST,60634.0,1127370.42867387,1925073.47741598,38.0,16.0,17.0,,41.950833610682224,-87.80726437111157,"(41.950833610682224, -87.80726437111157)",2011-07-05
114387,07/05/2011,Completed,07/05/2011,11-03300979,Pot Hole in Street,Dispatch Crew,Pothole Patched,2.0,4418 N BERNARD ST,60625.0,1152592.94948141,1929148.68519779,33.0,17.0,14.0,60.0,41.961712500277926,-87.7145283555885,"(41.961712500277926, -87.71452835558848)",2011-07-05
114388,07/05/2011,Completed,07/05/2011,11-03301014,Pot Hole in Street,Dispatch Crew,Pothole Patched,1.0,3157 W BYRON ST,60618.0,1154562.80252173,1925763.39689042,33.0,17.0,16.0,,41.952001921621296,-87.7078215999596,"(41.952001921621296, -87.70782159995959)",2011-07-05
114389,07/05/2011,Completed,07/05/2011,11-03301036,Pot Hole in Street,Dispatch Crew,Pothole Patched,2.0,3400 N CALIFORNIA AVE,60618.0,1157117.52857273,1922383.34257393,33.0,17.0,21.0,,41.94289470034111,-87.6980723359472,"(41.94289470034111, -87.6980723359472)",2011-07-05
114390,07/05/2011,Completed,07/05/2011,11-03301105,Pot Hole in Street,Dispatch Crew,Complete Upon Arrival,0.0,4528 N RICHMOND ST,60625.0,1155896.90528566,1929933.30436853,33.0,17.0,14.0,,41.963925743046325,-87.70236510351484,"(41.96392574304633, -87.70236510351484)",2011-07-05
114391,07/05/2011,Completed,07/05/2011,11-03303541,Pot Hole in Street,Dispatch Crew,Pothole Patched,12.0,5700 N MENARD AVE,60646.0,1136551.7947181999,1937529.57482077,45.0,16.0,11.0,,41.98483883474493,-87.77329443297421,"(41.98483883474493, -87.77329443297421)",2011-07-05
114392,07/05/2011,Completed,07/05/2011,11-03303741,Pot Hole in Street,Dispatch Crew,Pothole Patched,10.0,1300 W 35TH ST,60609.0,1168468.2527133,1881585.55201542,11.0,9.0,59.0,13.0,41.83070858349421,-87.65748319286037,"(41.830708583494214, -87.65748319286038)",2011-07-05
114393,07/05/2011,Completed,07/05/2011,11-03303761,Pot Hole in Street,Dispatch Crew,Pothole Patched,12.0,1400 W 35TH ST,60609.0,1167575.9772865,1881564.43441962,11.0,9.0,59.0,13.0,41.83066932197492,-87.66078914042616,"(41.830669321974916, -87.66078914042615)",2011-07-05
114394,07/05/2011,Completed,07/06/2011,11-03298628,Pot Hole in Street,Dispatch Crew,Pothole Patched,4.0,7748 S CHAMPLAIN AVE,60619.0,1181906.89206712,1853774.86066733,6.0,6.0,69.0,,41.75341672938517,-87.6090702422522,"(41.75341672938517, -87.6090702422522)",2011-07-05
114395,07/05/2011,Completed,07/06/2011,11-03298649,Pot Hole in Street,Dispatch Crew,Pothole Patched,15.0,7914 S CHAMPLAIN AVE,60619.0,1181936.45947303,1852674.09823217,6.0,6.0,44.0,51.0,41.75072983209563,-87.60900146353153,"(41.75072983209563, -87.60900146353153)",2011-07-05
114396,07/05/2011,Completed,07/06/2011,11-03300619,Pot Hole in Street,Dispatch Crew,Pothole Patched,2.0,100 S ASHLAND AVE,60607.0,1165773.5623716998,1899628.40006657,2.0,12.0,28.0,,41.88010090247722,-87.6669018187883,"(41.88010090247722, -87.6669018187883)",2011-07-05
114397,07/05/2011,Completed,07/06/2011,11-03300802,Pot Hole in Street,Dispatch Crew,Complete Upon Arrival,0.0,3725 N TALMAN AVE,60618.0,1157936.1469700001,1924763.05753051,47.0,19.0,5.0,,41.9492777002764,-87.69475171075673,"(41.9492777002764, -87.69475171075675)",2011-07-05
114398,07/05/2011,Completed,07/06/2011,11-03300860,Pot Hole in Street,Dispatch Crew,Pothole Patched,8.0,2513 W PALMER ST,60647.0,1159447.63642614,1914690.70401439,1.0,14.0,22.0,,41.92152140781909,-87.6898731267367,"(41.921521407819085, -87.6898731267367)",2011-07-05
114399,07/05/2011,Completed,07/06/2011,11-03302406,Pot Hole in Street,Dispatch Crew,Pothole Patched,9.0,10450 S HAMILTON AVE,60643.0,1163880.17468877,1835648.70736866,19.0,22.0,72.0,,41.70313647602875,-87.67560818073244,"(41.70313647602875, -87.67560818073243)",2011-07-05
114400,07/05/2011,Completed,07/06/2011,11-03302416,Pot Hole in Street,Dispatch Crew,Pothole Patched,19.0,10543 S HAMILTON AVE,60643.0,1163906.5817206001,1834697.26149937,19.0,22.0,72.0,,41.70154263253887,-87.67528079608459,"(41.70154263253887, -87.67528079608459)",2011-07-05
114401,07/05/2011,Completed,07/06/2011,11-03302473,Pot Hole in Street,Dispatch Crew,Pothole Patched,39.0,10540 S OAKLEY AVE,60643.0,1162921.36222123,1834686.66488595,19.0,22.0,72.0,,41.70153192013707,-87.67917133313514,"(41.70153192013707, -87.67917133313514)",2011-07-05
114402,07/05/2011,Completed,07/06/2011,11-03302482,Pot Hole in Street,Dispatch Crew,Pothole Patched,44.0,10517 S OAKLEY AVE,60643.0,1162916.36222123,1834841.36488595,19.0,22.0,72.0,,41.70221685561935,-87.67889448969156,"(41.70221685561935, -87.67889448969157)",2011-07-05
114403,07/05/2011,Completed,07/06/2011,11-03302490,Pot Hole in Street,Dispatch Crew,Pothole Patched,31.0,10447 S OAKLEY AVE,60643.0,1162899.35257386,1835304.53029244,19.0,22.0,72.0,,41.70319126263153,-87.67895641193941,"(41.703191262631535, -87.67895641193941)",2011-07-05
114404,07/05/2011,Completed,07/06/2011,11-03302496,Pot Hole in Street,Dispatch Crew,Pothole Patched,39.0,10423 S OAKLEY AVE,60643.0,1162893.25257386,1835465.63029244,19.0,22.0,72.0,,41.70387044039648,-87.6789763501063,"(41.70387044039648, -87.6789763501063)",2011-07-05
114405,07/05/2011,Completed,07/06/2011,11-03302501,Pot Hole in Street,Dispatch Crew,Pothole Patched,1.0,10314 S OAKLEY AVE,60643.0,1162868.41946937,1836190.01512204,19.0,22.0,72.0,,41.70591492438631,-87.67933553125505,"(41.70591492438631, -87.67933553125505)",2011-07-05
114406,07/05/2011,Completed,07/06/2011,11-03302505,Pot Hole in Street,Dispatch Crew, No Problem Found,0.0,10306 S OAKLEY AVE,60643.0,1162866.61946937,1836243.71512204,19.0,22.0,72.0,,41.70614110862774,-87.67934376125629,"(41.70614110862774, -87.6793437612563)",2011-07-05
114407,07/05/2011,Completed,07/06/2011,11-03303756,Pot Hole in Street,Dispatch Crew,Complete Upon Arrival,0.0,2211 S ST LOUIS AVE,,1153381.80011318,1888960.76549164,22.0,10.0,30.0,,41.85124145519964,-87.71239850281796,"(41.85124145519964, -87.71239850281796)",2011-07-05
114408,07/05/2011,Completed,07/06/2011,11-03304824,Pot Hole in Street,Dispatch Crew,Pothole Patched,4.0,5924 N FAIRFIELD AVE,60659.0,1156934.85770756,1939235.11742216,40.0,20.0,2.0,,41.98936940594471,-87.69829230990891,"(41.9893694059447, -87.6982923099089)",2011-07-05
114409,07/05/2011,Completed,07/06/2011,11-03304826,Pot Hole in Street,Dispatch Crew,Pothole Patched,2.0,5934 N FAIRFIELD AVE,60659.0,1156932.65770756,1939303.81742216,40.0,20.0,2.0,,41.98965863113517,-87.69830272645619,"(41.98965863113517, -87.69830272645618)",2011-07-05
114410,07/05/2011,Completed,07/06/2011,11-03305424,Pot Hole in Street,Dispatch Crew,Pothole Patched,11.0,5656 N KILBOURN AVE,60646.0,1145351.170193,1937203.82997949,39.0,17.0,12.0,,41.984228602525576,-87.74095339073078,"(41.984228602525576, -87.74095339073078)",2011-07-05
114411,07/05/2011,Completed,07/07/2011,11-03300477,Pot Hole in Street,Dispatch Crew,Pothole Patched,6.0,2600 N LAKEWOOD AVE,60614.0,1167191.34012594,1917393.4659753998,32.0,19.0,7.0,,41.92897503655794,-87.66119107601604,"(41.92897503655794, -87.66119107601604)",2011-07-05
114412,07/05/2011,Completed,07/07/2011,11-03302128,Pot Hole in Street,Dispatch Crew,Completed,0.0,3000 S INDIANA AVE,60616.0,1178104.57421804,1884977.64111799,2.0,21.0,35.0,,41.8396260809438,-87.62207175251065,"(41.8396260809438, -87.62207175251064)",2011-07-05
114413,07/05/2011,Completed,07/07/2011,11-03303864,Pot Hole in Street,Dispatch Crew,Completed,0.0,110 E 31ST ST,60616.0,1177737.28849804,1884483.57140489,2.0,21.0,35.0,,41.838460283877566,-87.62294258802788,"(41.83846028387757, -87.62294258802788)",2011-07-05
114414,07/05/2011,Completed,07/07/2011,11-03304101,Pot Hole in Street,Dispatch Crew,Pothole Patched,25.0,6400 S MELVINA AVE,60638.0,1136187.06480827,1861440.50852175,13.0,8.0,64.0,,41.77592748531347,-87.77645248704714,"(41.77592748531347, -87.77645248704714)",2011-07-05
114415,07/05/2011,Completed,07/07/2011,11-03305099,Pot Hole in Street,Dispatch Crew,Pothole Patched,3.0,920 W GUNNISON ST,60640.0,1169272.56888759,1932412.44693371,48.0,20.0,3.0,34.0,41.97016065533713,-87.65333224939242,"(41.970160655337125, -87.6533322493924)",2011-07-05
114416,07/05/2011,Completed,07/07/2011,11-03305200,Pot Hole in Street,Dispatch Crew,CDOT Pavement Cave-In Survey Transfer Outcome,0.0,821 W GUNNISON ST,60640.0,1169872.70858172,1932427.59746575,48.0,20.0,3.0,34.0,41.969969203223954,-87.65107048779984,"(41.96996920322395, -87.65107048779984)",2011-07-05
114417,07/05/2011,Completed,07/07/2011,11-03305238,Pot Hole in Street,Dispatch Crew,Pothole Patched,6.0,909 W GUNNISON ST,60640.0,1169344.16888759,1932414.24693371,48.0,20.0,3.0,34.0,41.96994612886309,-87.65288691451117,"(41.969946128863086, -87.65288691451116)",2011-07-05
114418,07/05/2011,Completed,07/07/2011,11-03305251,Pot Hole in Street,Dispatch Crew,Pothole Patched,2.0,941 W GUNNISON ST,60640.0,1169136.06888759,1932409.14693371,48.0,20.0,3.0,34.0,41.969931286552075,-87.65406202532539,"(41.96993128655208, -87.65406202532539)",2011-07-05
114419,07/05/2011,Completed,07/07/2011,11-03305302,Pot Hole in Street,Dispatch Crew,Pothole Patched,1.0,5039 N SHERIDAN RD,60640.0,1168715.48982674,1933991.64999669,48.0,20.0,3.0,34.0,41.97447473171836,-87.65481391591213,"(41.97447473171836, -87.65481391591213)",2011-07-05
114420,07/05/2011,Completed,07/08/2011,11-03296749,Pot Hole in Street,Dispatch Crew,Pothole Patched,22.0,5500 S ROCKWELL ST,60629.0,1159971.5320978002,1868103.49762573,16.0,8.0,63.0,,41.79369240212008,-87.68907921317732,"(41.79369240212008, -87.68907921317732)",2011-07-05
114421,07/05/2011,Completed,07/08/2011,11-03298606,Pot Hole in Street,Dispatch Crew, No Problem Found,0.0,309 W 103RD ST,60628.0,1176006.62140593,1836629.39496698,34.0,5.0,49.0,,41.706958436585396,-87.63110776907274,"(41.706958436585396, -87.63110776907273)",2011-07-05
114422,07/05/2011,Completed,07/08/2011,11-03298653,Pot Hole in Street,Dispatch Crew,Pothole Patched,3.0,6222 W BERENICE AVE,60634.0,1134198.56401342,1924943.41401792,38.0,16.0,17.0,,41.95036142886558,-87.78251691112763,"(41.95036142886558, -87.78251691112763)",2011-07-05
114423,07/05/2011,Completed,07/08/2011,11-03299530,Pot Hole in Street,Dispatch Crew,Pothole Patched,0.0,2108 N ALBANY AVE,60647.0,1155180.95321233,1913831.30122614,35.0,14.0,22.0,,41.919560429000285,-87.7054244404039,"(41.91956042900028, -87.70542444040389)",2011-07-05
114424,07/05/2011,Completed,07/08/2011,11-03300554,Pot Hole in Street,Dispatch Crew,Pothole Patched,10.0,1902 W 100TH ST,60643.0,1165644.80900949,1838358.92712705,19.0,22.0,72.0,,41.712149075690434,-87.66906069810896,"(41.712149075690434, -87.66906069810896)",2011-07-05
114425,07/05/2011,Completed,07/08/2011,11-03300566,Pot Hole in Street,Dispatch Crew,Pothole Patched,14.0,1920 W 100TH ST,60643.0,1165465.60900949,1838353.62712705,19.0,22.0,72.0,,41.71213693515034,-87.66978252619384,"(41.71213693515034, -87.66978252619384)",2011-07-05
114426,07/05/2011,Completed,07/08/2011,11-03302281,Pot Hole in Street,Dispatch Crew,Pothole Patched,20.0,2030 W 100TH ST,60643.0,1164467.84871911,1838324.57618515,19.0,22.0,72.0,,41.71208150552896,-87.6732633232211,"(41.712081505528964, -87.6732633232211)",2011-07-05
114427,07/05/2011,Completed,07/08/2011,11-03302324,Pot Hole in Street,Dispatch Crew,Pothole Patched,17.0,2058 W 100TH ST,60643.0,1164329.14871911,1838320.47618515,19.0,22.0,72.0,,41.71206162595004,-87.67447080281734,"(41.71206162595005, -87.67447080281735)",2011-07-05
114428,07/05/2011,Completed,07/08/2011,11-03303783,Pot Hole in Street,Dispatch Crew,Pothole Patched,0.0,800 W 65TH ST,60621.0,1172072.2441876999,1861765.10450127,20.0,7.0,68.0,,41.77621813705395,-87.64485270101784,"(41.77621813705395, -87.64485270101784)",2011-07-05
114429,07/05/2011,Completed,07/11/2011,11-03298661,Pot Hole in Street,Dispatch Crew,Pothole Patched,51.0,8100 S STONY ISLAND AVE,60617.0,1188214.56531037,1851590.6195077999,8.0,4.0,45.0,50.0,41.7477492117195,-87.58603741639239,"(41.7477492117195, -87.58603741639237)",2011-07-05
114430,07/05/2011,Completed,07/11/2011,11-03300082,Pot Hole in Street,Dispatch Crew,Pothole Patched,76.0,1146 W KINZIE ST,60642.0,1168679.43280446,1902855.15307271,27.0,13.0,24.0,,41.88906435663289,-87.65640018841923,"(41.889064356632886, -87.65640018841923)",2011-07-05
114431,07/05/2011,Completed,07/11/2011,11-03301412,Pot Hole in Street,Dispatch Crew,Complete Upon Arrival,0.0,600 N HALSTED ST,60642.0,1170953.77908045,1904112.91649306,27.0,13.0,24.0,,41.892365986173026,-87.64775282419549,"(41.89236598617302, -87.6477528241955)",2011-07-05
114432,07/05/2011,Completed,07/11/2011,11-03301970,Pot Hole in Street,Dispatch Crew, No Problem Found,0.0,8500 S WALLACE ST,60620.0,1173787.26260473,1848473.24500793,21.0,6.0,71.0,,41.73952923794297,-87.63899518528117,"(41.73952923794297, -87.63899518528119)",2011-07-05
114433,07/05/2011,Completed,07/11/2011,11-03302345,Pot Hole in Street,Dispatch Crew,Pothole Patched,2.0,2041 W 99TH ST,60643.0,1164393.33621517,1838984.84053407,19.0,22.0,72.0,,41.71367048434401,-87.67376533067042,"(41.71367048434401, -87.67376533067042)",2011-07-05
114434,07/05/2011,Completed,07/11/2011,11-03302367,Pot Hole in Street,Dispatch Crew,Pothole Patched,0.0,2026 W 96TH ST,60643.0,1164433.42586881,1840975.21102805,19.0,22.0,72.0,4.0,41.71935311899117,-87.67347160277237,"(41.71935311899117, -87.67347160277237)",2011-07-05
114435,07/05/2011,Completed,07/11/2011,11-03302408,Pot Hole in Street,Dispatch Crew,Pothole Patched,1.0,6640 N AVONDALE AVE,60631.0,1124593.67692302,1943326.22592685,41.0,16.0,9.0,,42.00079580990674,-87.81713552167315,"(42.00079580990674, -87.81713552167314)",2011-07-05
114436,07/05/2011,Completed,07/11/2011,11-03303336,Pot Hole in Street,Dispatch Crew,CDOT Pavement Cave-In Survey Transfer Outcome,0.0,548 W 87TH ST,60620.0,1174075.03243362,1847217.66399163,21.0,6.0,71.0,,41.73627491402111,-87.63827381147499,"(41.73627491402111, -87.63827381147499)",2011-07-05
114437,07/05/2011,Completed,07/11/2011,11-03304635,Pot Hole in Street,Dispatch Crew,Pothole Patched,2.0,1702 W FOSTER AVE,60640.0,1164034.81359917,1934587.65587798,40.0,20.0,77.0,,41.9762444305102,-87.67227126876999,"(41.9762444305102, -87.67227126876999)",2011-07-05
114438,07/05/2011,Completed,07/11/2011,11-03304637,Pot Hole in Street,Dispatch Crew,Pothole Patched,6.0,1800 W FOSTER AVE,60640.0,1163362.72277566,1934569.14751029,40.0,20.0,4.0,31.0,41.9762051282077,-87.67477654985265,"(41.9762051282077, -87.67477654985265)",2011-07-05
114439,07/05/2011,Completed,07/11/2011,11-03304645,Pot Hole in Street,Dispatch Crew,Pothole Patched,1.0,1928 W FOSTER AVE,60640.0,1162574.21381662,1934548.51659806,40.0,20.0,4.0,,41.97616679194789,-87.67764745280192,"(41.97616679194789, -87.6776474528019)",2011-07-05
114440,07/05/2011,Completed,07/11/2011,11-03305522,Pot Hole in Street,Dispatch Crew,WM Sewer Cave In Inspection Transfer Outcome,0.0,7000 S OGLESBY AVE,60649.0,1192978.48272448,1859000.55030758,5.0,3.0,43.0,,41.76801242734015,-87.56834058175087,"(41.76801242734015, -87.56834058175087)",2011-07-05
114441,07/05/2011,Completed,07/12/2011,11-03296748,Pot Hole in Street,Dispatch Crew,Complete Upon Arrival,0.0,5500 S KEDZIE AVE,60629.0,1155984.71656958,1867976.04090668,14.0,8.0,63.0,,41.79342023675585,-87.70369750845423,"(41.793420236755864, -87.70369750845424)",2011-07-05
114442,07/05/2011,Completed,07/12/2011,11-03298537,Pot Hole in Street,Dispatch Crew,Pothole Patched,2.0,7116 S PARNELL AVE,60621.0,1173855.36382883,1857724.06280568,6.0,7.0,68.0,,41.76475261923318,-87.63845430351509,"(41.76475261923318, -87.63845430351509)",2011-07-05
114443,07/05/2011,Completed,07/12/2011,11-03298566,Pot Hole in Street,Dispatch Crew,Pothole Patched,5.0,7124 S PARNELL AVE,60621.0,1173857.16382883,1857670.36280568,6.0,7.0,68.0,,41.764525950077406,-87.63844831047659,"(41.76452595007741, -87.6384483104766)",2011-07-05
