SERVICE REQUEST TYPE,SERVICE REQUEST NUMBER,DATE SERVICE REQUEST WAS RECEIVED,"LOCATION OF BUILDING ON THE LOT (IF GARAGE, CHANGE TYPE CODE TO BGD).",IS THE BUILDING DANGEROUS OR HAZARDOUS?,IS BUILDING OPEN OR BOARDED?,"IF THE BUILDING IS OPEN, WHERE IS THE ENTRY POINT?",IS THE BUILDING CURRENTLY VACANT OR OCCUPIED?,IS THE BUILDING VACANT DUE TO FIRE?,"ANY PEOPLE USING PROPERTY? (HOMELESS, CHILDEN, GANGS)",ADDRESS STREET NUMBER,ADDRESS STREET DIRECTION,ADDRESS STREET NAME,ADDRESS STREET SUFFIX,ZIP CODE,X COORDINATE,Y COORDINATE,Ward,Police District,Community Area,LATITUDE,LONGITUDE,Location,date
Vacant/Abandoned Building,11-03287290,07/01/2011,Front,,Open,,Vacant,True,False,6831,S,CALUMET,AVE,60637.0,1179657.16597256,1859795.38248116,20.0,3.0,69.0,41.77055670508758,-87.61699938989548,"(41.77055670508758, -87.61699938989548)",2011-07-01
Vacant/Abandoned Building,11-03283714,07/01/2011,Front,,Open,DOORS WINDOWS,Vacant,False,False,2111,S,HARDING,AVE,60623.0,1150379.57671495,1889691.16989557,24.0,10.0,29.0,41.853214045921646,-87.7235427531473,"(41.85321404592165, -87.72354275314729)",2011-07-01
Vacant/Abandoned Building,11-03283715,07/01/2011,Front,,Open,DORS WINDOWS,Vacant,False,False,2102,S,HARDING,AVE,60623.0,1150377.87671495,1889752.56989557,24.0,10.0,29.0,41.853382568198775,-87.72354739240143,"(41.853382568198775, -87.72354739240143)",2011-07-01
Vacant/Abandoned Building,11-03283748,07/01/2011,Front,,Open,DOORS WINDOW,Vacant,False,False,4019,W,VAN BUREN,ST,60624.0,1149665.45708053,1897720.88108957,24.0,11.0,26.0,41.8752624151194,-87.72595532768936,"(41.87526241511941, -87.72595532768936)",2011-07-01
Vacant/Abandoned Building,11-03283754,07/01/2011,Front,,Open,DOORS WINDOWS FRONT REAR SIDE,Vacant,False,True,4023,W,VAN BUREN,ST,60624.0,1149638.45708053,1897720.28108957,24.0,11.0,26.0,41.87526129290517,-87.72605447740395,"(41.87526129290517, -87.72605447740396)",2011-07-01
Vacant/Abandoned Building,11-03283758,07/01/2011,Front,,Open,WINDOWS DOORS FRONT REAR,Vacant,False,False,4025,W,VAN BUREN,ST,60624.0,1149624.95708053,1897719.88108957,24.0,11.0,26.0,41.875260457354564,-87.7261040548579,"(41.87526045735456, -87.7261040548579)",2011-07-01
Vacant/Abandoned Building,11-03283764,07/01/2011,Front,,Open,DOORS WINDOW FRONT REA R,Vacant,False,False,4009,W,GLADYS,AVE,60624.0,1149722.14287347,1898053.93787324,24.0,11.0,26.0,41.87617525973904,-87.72573854158243,"(41.87617525973904, -87.72573854158244)",2011-07-01
Vacant/Abandoned Building,11-03283937,07/01/2011,Front,,Open,"FRONT, REAR, SIDES",Vacant,False,True,4523,W,FULTON,ST,60624.0,1146200.37979445,1901369.63537957,28.0,11.0,26.0,41.88534160757195,-87.73858500632238,"(41.88534160757195, -87.73858500632238)",2011-07-01
Vacant/Abandoned Building,11-03284298,07/01/2011,Front,,Open,REAR DOOR IS OPEN   /// GARAGE WINDOW IS OPEN...,Vacant,False,True,5117,S,CENTRAL,AVE,60638.0,1139889.88349003,1870134.54906679,23.0,8.0,56.0,41.79974561123493,-87.76252093284985,"(41.799745611234925, -87.76252093284984)",2011-07-01
Vacant/Abandoned Building,11-03284508,07/01/2011,,,,,,,,6422,S,INGLESIDE,AVE,60637.0,1183829.51332029,1862598.86730184,20.0,3.0,42.0,41.77815334800915,-87.60161793232975,"(41.77815334800915, -87.60161793232975)",2011-07-01
Vacant/Abandoned Building,11-03285123,07/01/2011,Front,,Open,BOTH FRONT AND BACK YARD FILLED WITH WEEDS. 5' TALL.. AND OPEN UNSECURE PROPERTY -- CREATING A RODENT PROBLEM,Vacant,False,True,11346,S,CHURCH,ST,60643.0,1166152.27119502,1829605.84829667,19.0,22.0,75.0,41.688010027940564,-87.66735921044166,"(41.68801002794056, -87.66735921044166)",2011-07-01
Vacant/Abandoned Building,11-03285657,07/01/2011,Front,,Open,,Vacant,False,False,2236,N,WASHTENAW,AVE,60647.0,1157818.04252523,1915014.31952518,1.0,14.0,22.0,41.92255489731488,-87.69555011392937,"(41.92255489731488, -87.69555011392937)",2011-07-01
Vacant/Abandoned Building,11-03285920,07/01/2011,Rear,,Open,,Vacant,True,True,1501,N,SPRINGFIELD,AVE,60651.0,1150103.35451981,1909696.35936889,30.0,25.0,23.0,41.90811586887489,-87.72403529992643,"(41.90811586887488, -87.72403529992643)",2011-07-01
Vacant/Abandoned Building,11-03286002,07/01/2011,Front,,Open,,Vacant,False,False,3638,W,LEXINGTON,ST,60624.0,1152242.61202142,1896456.33052625,24.0,11.0,27.0,41.87174191570447,-87.71652633346669,"(41.87174191570447, -87.71652633346669)",2011-07-01
Vacant/Abandoned Building,11-03286008,07/01/2011,Front,,Open,,Vacant,False,False,3626,W,LEXINGTON,ST,60624.0,1152323.21202142,1896457.83052625,24.0,11.0,27.0,41.87174444217765,-87.71623037692041,"(41.87174444217765, -87.71623037692042)",2011-07-01
Vacant/Abandoned Building,11-03286021,07/01/2011,Front,,Open,,Vacant,False,False,3620,W,LEXINGTON,ST,60624.0,1152363.61202142,1896458.53052625,24.0,11.0,27.0,41.87174556594937,-87.7160820328194,"(41.87174556594937, -87.7160820328194)",2011-07-01
Vacant/Abandoned Building,11-03286038,07/01/2011,,,,,,,,6607,S,MINERVA,AVE,60637.0,1185019.6256754,1861430.27807831,5.0,3.0,42.0,41.77491876430149,-87.5972916545126,"(41.774918764301496, -87.5972916545126)",2011-07-01
Vacant/Abandoned Building,11-03286440,07/01/2011,Front,,Open,,Vacant,False,False,6431,S,CAMPBELL,AVE,60629.0,1160812.01357335,1861933.69007641,15.0,8.0,66.0,41.77683447056639,-87.68601947515909,"(41.776834470566385, -87.6860194751591)",2011-07-01
Vacant/Abandoned Building,11-03286918,07/01/2011,Front,,Open,,Vacant,False,True,1500,E,71ST,ST,60619.0,1187408.53500345,1858249.72627632,5.0,3.0,43.0,41.766134616558354,-87.58863533546015,"(41.76613461655835, -87.58863533546015)",2011-07-01
Vacant/Abandoned Building,11-03287032,07/01/2011,,,,,,,,3026,W,LEXINGTON,ST,60612.0,1156308.21042954,1896547.17106709,28.0,11.0,27.0,41.87191005405927,-87.7015973642111,"(41.87191005405927, -87.7015973642111)",2011-07-01
Vacant/Abandoned Building,11-03287094,07/01/2011,Front,,Open,,Vacant,False,True,7042,S,ST LAWRENCE,AVE,60637.0,1181457.12690116,1858342.74989942,6.0,3.0,69.0,41.766529207226725,-87.61044625474736,"(41.76652920722673, -87.61044625474734)",2011-07-01
Vacant/Abandoned Building,11-03287176,07/01/2011,Front,,Open,,Vacant,False,True,6634,S,MICHIGAN,AVE,60637.0,1178080.28163371,1861045.33712637,20.0,3.0,69.0,41.77402260801535,-87.62274172907095,"(41.77402260801535, -87.62274172907095)",2011-07-01
Vacant/Abandoned Building,11-03287245,07/01/2011,Front,,Open,,Vacant,False,True,6652,S,MICHIGAN,AVE,60637.0,1178083.78163371,1860925.63712637,20.0,3.0,69.0,41.77369405925566,-87.6227325244919,"(41.77369405925566, -87.62273252449191)",2011-07-01
Vacant/Abandoned Building,11-03287271,07/01/2011,Front,,Open,OPEN AT THE REAR .. SQUATTERS GOING IN THE BLDG.. PUT A LOCK ON SIDE ..  WATER ILLEGALLY TURNED ON,Vacant,False,True,7914,S,GREENWOOD,AVE,60619.0,1184925.4321027999,1852752.76936925,8.0,6.0,44.0,41.7511090647021,-87.59790891453257,"(41.751109064702106, -87.59790891453257)",2011-07-01
Vacant/Abandoned Building,11-03287375,07/01/2011,Front,,Open,,Vacant,False,True,6650,S,CALUMET,AVE,60637.0,1179598.8158911,1861293.7054992002,20.0,3.0,69.0,41.77466959052701,-87.61716754141455,"(41.77466959052701, -87.61716754141455)",2011-07-01
Vacant/Abandoned Building,11-03287688,07/01/2011,Front,,Open,FRONT/REAR/SIDE AND WINDOWS,Vacant,False,True,5349,W,VAN BUREN,ST,60644.0,1140799.45440216,1897493.19999632,29.0,15.0,25.0,41.874805179036,-87.75851378529639,"(41.874805179035995, -87.75851378529639)",2011-07-01
Vacant/Abandoned Building,11-03287765,07/01/2011,Front,,Open,,Vacant,False,True,317,W,52ND,ST,60609.0,1175117.06592631,1870484.28977303,3.0,9.0,37.0,41.79999076143653,-87.63332252767364,"(41.799990761436526, -87.63332252767364)",2011-07-01
Vacant/Abandoned Building,11-03288422,07/01/2011,Rear,,Open,WINDOWS AND REAR DOOR,Vacant,False,False,5546,S,UNION,AVE,60621.0,1172579.56419498,1868017.79716827,3.0,7.0,68.0,41.79327877359616,-87.64270090766226,"(41.79327877359616, -87.64270090766225)",2011-07-01
Vacant/Abandoned Building,11-03288441,07/01/2011,Front,,Open,WINDOWS,Vacant,False,False,7250,S,GREEN,ST,60621.0,1171882.19712292,1857110.79917117,17.0,7.0,68.0,41.76336404633532,-87.6455779479535,"(41.76336404633532, -87.6455779479535)",2011-07-01
Vacant/Abandoned Building,11-03288526,07/01/2011,Front,,Open,,Occupied,False,True,8347,S,PHILLIPS,AVE,60617.0,1193957.69987995,1850100.47340614,7.0,4.0,46.0,41.74361432299957,-87.56489755645204,"(41.74361432299957, -87.56489755645204)",2011-07-01
Vacant/Abandoned Building,11-03288884,07/01/2011,Front,,Boarded,,Vacant,False,False,4407,S,FAIRFIELD,AVE,60632.0,1158769.00552957,1875326.94460539,12.0,9.0,58.0,41.81362932431765,-87.69314347582399,"(41.813629324317645, -87.693143475824)",2011-07-01
Vacant/Abandoned Building,11-03288970,07/01/2011,Front,,Open,,Vacant,False,False,1639,W,78TH,ST,60620.0,1166663.71851722,1852985.9575264999,17.0,6.0,71.0,41.75215781891155,-87.66482220096876,"(41.75215781891155, -87.66482220096876)",2011-07-01
Vacant/Abandoned Building,11-03288982,07/01/2011,Front,,Open,REAR,Vacant,False,False,7826,S,MARSHFIELD,AVE,60620.0,1166702.81851722,1852812.6575264998,17.0,6.0,71.0,41.75168142566702,-87.66468385189474,"(41.75168142566702, -87.66468385189474)",2011-07-01
Vacant/Abandoned Building,11-03289066,07/01/2011,Front,,Open,REAR APARTMENT,Occupied,False,True,2445,S,SPAULDING,AVE,60623.0,1154749.63999325,1887561.89172974,22.0,10.0,30.0,41.847284778996205,-87.70755998312872,"(41.8472847789962, -87.70755998312872)",2011-07-01
Vacant/Abandoned Building,11-03289182,07/01/2011,Front,,Open,,Vacant,False,True,3719,W,60TH,ST,60629.0,1152608.40141592,1864566.26289015,13.0,8.0,65.0,41.78422417179943,-87.71602465383518,"(41.78422417179943, -87.71602465383519)",2011-07-01
Vacant/Abandoned Building,11-03289317,07/01/2011,Front,,Open,"FRONT/REAR DOORS- NOT BOARDED, WINDOWS",Vacant,True,False,2544,W,CARMEN,AVE,60625.0,1158148.13951019,1933771.17429238,40.0,20.0,4.0,41.974018126060926,-87.6938230035938,"(41.97401812606093, -87.69382300359382)",2011-07-01
Vacant/Abandoned Building,11-03289561,07/01/2011,Front,,Open,REAR DOOR WIDE OPEN,Vacant,False,True,6241,S,CAMPBELL,AVE,60629.0,1160775.38726875,1863194.10212511,15.0,8.0,66.0,41.78029397298881,-87.6861189701178,"(41.78029397298881, -87.68611897011779)",2011-07-01
Vacant/Abandoned Building,11-03289609,07/01/2011,Front,,Open,,Vacant,False,False,3133,N,LAWNDALE,AVE,60618.0,1151217.14133254,1920583.36998502,35.0,25.0,21.0,41.93796899664489,-87.71965757954361,"(41.93796899664489, -87.71965757954361)",2011-07-01
Vacant/Abandoned Building,11-03289785,07/01/2011,Front,,Open,ALL THE WAY AROUND,Vacant,False,True,6427,S,RHODES,AVE,60637.0,1181006.74273002,1862516.54607061,20.0,3.0,42.0,41.77799289489303,-87.61196874940258,"(41.77799289489303, -87.61196874940258)",2011-07-01
Vacant/Abandoned Building,11-03289844,07/01/2011,Front,,Open,REAR DOOR IS NOT SECURED,Vacant,False,True,30,W,110TH,ST,60628.0,1178012.94519049,1832026.8679951,34.0,5.0,49.0,41.69439383695006,-87.62386544156216,"(41.69439383695006, -87.62386544156216)",2011-07-01
Vacant/Abandoned Building,11-03289849,07/01/2011,Front,,Boarded,CALLER IS CONCERNED THAT REAR YARD TREE IS OVERGROWN GROWING INTO ALLEY - LIMBS BRUSHING AGAINST AUTOS,Vacant,False,False,32,W,110TH,ST,60628.0,1177999.64519049,1832026.5679951,34.0,5.0,49.0,41.694393314314794,-87.62391414529782,"(41.694393314314794, -87.62391414529782)",2011-07-01
Vacant/Abandoned Building,11-03289861,07/01/2011,Front,,Boarded,CALLER IS CONCERNED THAT REAR YARD TREE IS OVERGROWN - GROWING INTO ALLEY - LIMBS BRUSHING AGAINST AUTOS,Vacant,False,False,36,W,110TH,ST,60628.0,1177972.94519049,1832025.9679951,34.0,5.0,49.0,41.6943922712421,-87.62401191889307,"(41.6943922712421, -87.62401191889306)",2011-07-01
Vacant/Abandoned Building,11-03289882,07/01/2011,Front,,Open,FRONT,Vacant,False,True,1112,N,CENTRAL,AVE,60651.0,1138807.0087171001,1906898.75222746,29.0,15.0,25.0,41.900651593871295,-87.76560083735512,"(41.9006515938713, -87.76560083735512)",2011-07-01
Vacant/Abandoned Building,11-03290084,07/01/2011,Front,,Open,AT REAR.. DUMPING AT THE REAR.. HAS BEEN ABANDON FOR YEARS .. IT NEEDS TO BE TORN DWN.. --CREATING A HAZARD,Vacant,False,True,6631,S,WOLCOTT,AVE,60636.0,1164827.39276576,1860695.62540628,15.0,7.0,67.0,41.77335317309305,-87.67133411648257,"(41.77335317309305, -87.67133411648256)",2011-07-01
Vacant/Abandoned Building,11-03290184,07/01/2011,Front,,Open,AT THE REAR.. AND FRONT - VANDALIZED THE PROPERTY,Vacant,False,True,4948,W,VAN BUREN,ST,60644.0,1143605.0281202,1897559.49262471,24.0,15.0,25.0,41.8749350733439,-87.74821111170219,"(41.8749350733439, -87.74821111170218)",2011-07-01
Vacant/Abandoned Building,11-03290335,07/01/2011,Rear,,Open,BACK,Vacant,False,True,8338,S,PHILLIPS,AVE,60617.0,1193956.39987995,1850160.67340614,7.0,4.0,46.0,41.74377954870671,-87.56490034993016,"(41.743779548706705, -87.56490034993016)",2011-07-01
Vacant/Abandoned Building,11-03290734,07/01/2011,Front,,Open,FRONT AND REAR DOOR,Vacant,False,True,824,N,LAWNDALE,AVE,60651.0,1151568.81861408,1905247.30690853,27.0,11.0,23.0,41.89587854562698,-87.71876898281747,"(41.89587854562698, -87.71876898281745)",2011-07-01
Vacant/Abandoned Building,11-03290900,07/01/2011,Front,,Open,,Vacant,False,False,2051,W,EVERGREEN,AVE,60622.0,1162477.40776804,1909012.93000259,1.0,14.0,24.0,41.905990295763615,-87.67859847816094,"(41.90599029576362, -87.67859847816094)",2011-07-01
Vacant/Abandoned Building,11-03291075,07/02/2011,Front,,Open,FRONT,Vacant,True,True,216,S,WHIPPLE,ST,60612.0,1156081.21240635,1898787.02758157,28.0,11.0,27.0,41.87806102919736,-87.70237031872439,"(41.87806102919736, -87.70237031872439)",2011-07-02
Vacant/Abandoned Building,11-03291116,07/02/2011,Front,,Open,FRONT,Vacant,False,True,3600,W,69TH,ST,60629.0,1153497.69487159,1858606.74338727,13.0,8.0,65.0,41.767852763304965,-87.71292175666935,"(41.76785276330497, -87.71292175666935)",2011-07-02
Vacant/Abandoned Building,11-03291137,07/02/2011,Front,,Open,FRONT AND REAR DOORS,Vacant,False,True,2841,W,CONGRESS,PKWY,60612.0,1157514.26522444,1897641.94258097,2.0,11.0,27.0,41.87488977346764,-87.6971396355554,"(41.87488977346764, -87.6971396355554)",2011-07-02
Vacant/Abandoned Building,11-03291181,07/02/2011,Front,,Open,REAR,Vacant,True,False,9911,S,LA SALLE,ST,60628.0,1177020.96466783,1839235.20567892,9.0,5.0,49.0,41.71419689880629,-87.62728096028982,"(41.714196898806286, -87.62728096028981)",2011-07-02
Vacant/Abandoned Building,11-03291258,07/02/2011,Front,,Open,FRONT AND REAR DOOR,Vacant,False,True,7749,S,MARSHFIELD,AVE,60620.0,1166689.21197367,1853321.50337484,17.0,6.0,71.0,41.753078059990074,-87.66471922270365,"(41.753078059990074, -87.66471922270365)",2011-07-02
Vacant/Abandoned Building,11-03291277,07/02/2011,Front,,Open,ALL SIDES,Vacant,True,True,6600,S,UNION,AVE,60621.0,1172645.04951918,1861111.76891825,6.0,7.0,68.0,41.77432641370654,-87.64266419320063,"(41.77432641370654, -87.64266419320062)",2011-07-02
Vacant/Abandoned Building,11-03291287,07/02/2011,Rear,,Open,REAR,Vacant,True,False,2979,N,RIDGEWAY,AVE,60618.0,1151317.39997309,1919695.36997737,35.0,25.0,21.0,41.935530282895634,-87.71931248154628,"(41.93553028289563, -87.7193124815463)",2011-07-02
Vacant/Abandoned Building,11-03291392,07/02/2011,Rear,,Open,REAR AND FRONT DOORS,Vacant,False,True,6951,S,INDIANA,AVE,60637.0,1178797.26442704,1858875.41010831,6.0,3.0,69.0,41.76805181356193,-87.62017938822801,"(41.76805181356193, -87.62017938822801)",2011-07-02
Vacant/Abandoned Building,11-03291518,07/02/2011,Front,,Open,FRONT AND REAR,Vacant,False,True,5146,W,FULTON,ST,60644.0,1141913.98010697,1901453.30631966,28.0,15.0,25.0,41.88565165240838,-87.75432356741074,"(41.885651652408384, -87.75432356741074)",2011-07-02
Vacant/Abandoned Building,11-03291664,07/02/2011,Front,,Open,FRONT WINDOWS,Vacant,False,False,4317,W,DICKENS,AVE,60639.0,1147263.61866683,1913606.38078296,30.0,25.0,20.0,41.91890023563067,-87.73436681747637,"(41.91890023563067, -87.73436681747638)",2011-07-02
Vacant/Abandoned Building,11-03291715,07/02/2011,Front,,Open,IN THE BACK IS OPEN,Vacant,False,False,6208,S,ABERDEEN,ST,60621.0,1170046.43769972,1863636.02466683,16.0,7.0,68.0,41.7813101493437,-87.65211692553781,"(41.7813101493437, -87.65211692553781)",2011-07-02
Vacant/Abandoned Building,11-03291721,07/02/2011,Front,,Open,FRONT AND BACK,Vacant,False,False,1444,W,61ST,ST,60636.0,1167651.75150979,1864290.3913085,16.0,7.0,67.0,41.78315753588789,-87.66087761370973,"(41.78315753588789, -87.66087761370973)",2011-07-02
Vacant/Abandoned Building,11-03293048,07/02/2011,Front,,Open,SOME WINDOWS ARE BROKEN AND MOSTLY OPEN,Vacant,False,True,2435,S,SPRINGFIELD,AVE,60623.0,1150762.69508061,1887539.99791857,22.0,10.0,30.0,41.84730348939392,-87.7221927577288,"(41.847303489393916, -87.7221927577288)",2011-07-02
Vacant/Abandoned Building,11-03293294,07/02/2011,Front,,Open,FRONT DOOR IS OPEN,Vacant,False,True,9149,S,YATES,BLVD,60617.0,1193761.60349696,1844767.97033178,7.0,4.0,48.0,41.728986268562714,-87.56579030423065,"(41.72898626856271, -87.56579030423066)",2011-07-02
Vacant/Abandoned Building,11-03293798,07/03/2011,Rear,,Open,,Vacant,False,False,7628,S,UNION,AVE,60620.0,1172955.54202199,1854291.0730131,17.0,6.0,71.0,41.755602753012845,-87.6417270253638,"(41.75560275301284, -87.64172702536382)",2011-07-03
Vacant/Abandoned Building,11-03293810,07/03/2011,Rear,,Open,NO ENTRY POINT,Vacant,False,False,2537,W,CULLOM,AVE,60618.0,1158499.63029987,1928463.05762721,47.0,19.0,5.0,41.95944516865424,-87.69267642925615,"(41.95944516865424, -87.69267642925615)",2011-07-03
Vacant/Abandoned Building,11-03293862,07/03/2011,Front,,Open,ALL AROUND -- PEOPLE GETTING IN IT.,Vacant,False,True,4126,W,JACKSON,BLVD,60624.0,1148929.23006794,1898366.81947818,28.0,11.0,26.0,41.87704920860895,-87.72864177626577,"(41.87704920860895, -87.72864177626577)",2011-07-03
Vacant/Abandoned Building,11-03293896,07/03/2011,Front,,Open,FRONT DR,Vacant,False,True,9020,S,ESSEX,AVE,60617.0,1194400.14927107,1845646.30841944,7.0,4.0,48.0,41.73138085819445,-87.56342242322503,"(41.73138085819445, -87.56342242322505)",2011-07-03
Vacant/Abandoned Building,11-03294760,07/03/2011,Front,,Open,?,Vacant,False,False,6030,S,INDIANA,AVE,60637.0,1178631.70591778,1865074.10512274,20.0,3.0,40.0,41.78506543498963,-87.62059792104013,"(41.78506543498963, -87.62059792104014)",2011-07-03
Vacant/Abandoned Building,11-03294797,07/03/2011,Garage,,Open,"FRONT/REAR DOORS, GARAGE AND WINDOWS MISSING",Vacant,False,True,7922,S,COLFAX,AVE,60617.0,1194892.4925343,1852943.08988943,7.0,4.0,46.0,41.75139173163115,-87.56137903488931,"(41.751391731631145, -87.56137903488931)",2011-07-03
Vacant/Abandoned Building,11-03294856,07/03/2011,Rear,,Open,FRONT AND REAR DOORS ARE MISSING,Vacant,False,True,4808,W,JACKSON,BLVD,60644.0,1144386.43712363,1898245.88291661,28.0,15.0,25.0,41.87680395929931,-87.74532480254324,"(41.87680395929931, -87.74532480254324)",2011-07-03
Vacant/Abandoned Building,11-03295310,07/04/2011,Rear,,Boarded,REAR,Vacant,True,True,9100,S,STONY ISLAND,AVE,60617.0,1188381.74876858,1844947.85901246,8.0,4.0,48.0,41.72960985386509,-87.58549196793011,"(41.72960985386509, -87.58549196793011)",2011-07-04
Vacant/Abandoned Building,11-03295315,07/04/2011,Rear,,Open,,Vacant,False,True,6719,S,BELL,AVE,60636.0,1162557.61308965,1860059.14189981,17.0,8.0,66.0,41.77165421743854,-87.67967236819038,"(41.77165421743854, -87.67967236819037)",2011-07-04
Vacant/Abandoned Building,11-03295540,07/04/2011,Front,,Open,REAR TALL WEEDS,Vacant,False,False,8643,S,YATES,BLVD,60617.0,1193663.38248365,1848170.73007979,7.0,4.0,46.0,41.7383261486418,-87.56603897945055,"(41.7383261486418, -87.56603897945054)",2011-07-04
Vacant/Abandoned Building,11-03295727,07/04/2011,Front,,Open,FRONT DOOR,Vacant,False,True,263,W,106TH,ST,60628.0,1176365.74057082,1834645.2714203,34.0,5.0,49.0,41.701616191142286,-87.62981797696251,"(41.701616191142286, -87.6298179769625)",2011-07-04
Vacant/Abandoned Building,11-03295998,07/04/2011,Front,,Open,BACK DOOR AND WINDOW,Vacant,False,False,4926,W,NELSON,ST,60641.0,1143000.42161227,1919827.19679319,31.0,25.0,19.0,41.936051418779996,-87.74987490641146,"(41.936051418779996, -87.74987490641146)",2011-07-04
Vacant/Abandoned Building,11-03296055,07/04/2011,Front,,Open,ANYWHERE OPEN ALL OVER THE PLACE,Vacant,False,False,6520,N,OGALLAH,AVE,60631.0,1125429.81186831,1942772.57259671,41.0,16.0,9.0,41.99932605799064,-87.81393857064839,"(41.99932605799064, -87.81393857064838)",2011-07-04
Vacant/Abandoned Building,11-03296163,07/04/2011,Front,,Open,"FRONT/REAR DOORS, WINDOWS HAVE BROKEN GLASS HANGING FROM FRAME JUST ABOUT READY TO FALL FROM FRAME",Vacant,False,False,3240,W,PIERCE,AVE,60651.0,1154470.84683401,1910115.4898893002,26.0,14.0,23.0,41.90917974762772,-87.7079800615972,"(41.90917974762772, -87.70798006159718)",2011-07-04
Vacant/Abandoned Building,11-03296202,07/04/2011,Rear,,Open,REAR DOOR -BASEMENT WINDOW IS BROKEN,Vacant,False,True,2311,S,ALBANY,AVE,60623.0,1156054.87907065,1888481.57117475,24.0,10.0,30.0,41.849782285602174,-87.70274494647934,"(41.84978228560217, -87.70274494647934)",2011-07-04
Vacant/Abandoned Building,11-03296293,07/04/2011,Front,,Open,OPEN & DANGEROUS BLDG - HAD FIRE ON MONDAY --NOTIFICATION,Vacant,True,False,1323,W,18TH,ST,60608.0,1167760.3392254,1891529.27409518,25.0,12.0,31.0,41.85790154716963,-87.65969653634741,"(41.85790154716963, -87.6596965363474)",2011-07-04
Vacant/Abandoned Building,11-03296381,07/04/2011,Front,,Open,"FRONT/REAR DOORS, WINDOWS WIDE OPEN",Vacant,False,True,4045,N,PULASKI,RD,60641.0,1149002.63677118,1926584.25989102,39.0,17.0,16.0,41.9544791337205,-87.7276405411058,"(41.9544791337205, -87.72764054110581)",2011-07-04
Vacant/Abandoned Building,11-03296389,07/04/2011,Front,,Open,"FRONT/REAR DOORS, WINDOWS WIDE OPEN",Vacant,False,True,4041,N,PULASKI,RD,60641.0,1149003.33677118,1926557.25989102,39.0,17.0,16.0,41.954405030078334,-87.72763866929242,"(41.954405030078334, -87.7276386692924)",2011-07-04
Vacant/Abandoned Building,11-03296446,07/04/2011,Front,,Open,FRONT,Vacant,True,False,7337,S,PERRY,AVE,60621.0,1176665.84289625,1856339.72788506,6.0,7.0,69.0,41.76114184557781,-87.62806819562219,"(41.76114184557781, -87.62806819562218)",2011-07-04
Vacant/Abandoned Building,11-03296729,07/05/2011,Front,,Open,FRONT AND SIDE,Vacant,True,True,6000,S,KARLOV,AVE,60629.0,1150063.48238107,1864497.84349388,13.0,8.0,65.0,41.78408617727386,-87.72535720451395,"(41.78408617727386, -87.72535720451395)",2011-07-05
Vacant/Abandoned Building,11-03296810,07/05/2011,Front,,Open,HAZARD AND DANGER  FRONT DOOR,Vacant,True,True,8214,S,SOUTH SHORE,DR,60617.0,1198577.32417116,1851108.29837944,7.0,4.0,46.0,41.74626541802253,-87.5479375938406,"(41.746265418022524, -87.54793759384059)",2011-07-05
Vacant/Abandoned Building,11-03296870,07/05/2011,Front,,Open,,Vacant,False,True,5606,S,SANGAMON,ST,60621.0,1170932.0058296998,1867656.45328315,16.0,7.0,68.0,41.792323367383204,-87.64875288195263,"(41.792323367383204, -87.64875288195262)",2011-07-05
Vacant/Abandoned Building,11-03297364,07/05/2011,Front,,Open,FRONT REAR SIDE ALL OPEN DOORS WINDOWS,Vacant,False,True,1932,S,AVERS,AVE,60623.0,1151047.12870637,1890154.19236737,24.0,10.0,29.0,41.85447160093596,-87.72108047264601,"(41.85447160093596, -87.721080472646)",2011-07-05
Vacant/Abandoned Building,11-03297435,07/05/2011,Front,,Open,FRONT WINDOWS AND SIDE ENTRANCES,Vacant,False,False,4321,S,HONORE,ST,60609.0,1164739.72003128,1876029.92128701,12.0,9.0,61.0,41.81543422516492,-87.67122256175115,"(41.81543422516492, -87.67122256175116)",2011-07-05
Vacant/Abandoned Building,11-03298675,07/05/2011,,,,,,,,12450,S,HARVARD,AVE,60628.0,1176200.78996617,1822699.44052357,34.0,5.0,53.0,41.668838706601335,-87.63077868651548,"(41.668838706601335, -87.63077868651548)",2011-07-05
Vacant/Abandoned Building,11-03298763,07/05/2011,,,,,,,,5025,W,WASHINGTON,BLVD,60644.0,1142872.06249314,1900035.8185082,28.0,15.0,25.0,41.881744099963775,-87.75084058453497,"(41.881744099963775, -87.75084058453497)",2011-07-05
Vacant/Abandoned Building,11-03298767,07/05/2011,,,,,,,,215,E,76TH,ST,60619.0,1178978.21211164,1854668.23209093,6.0,6.0,69.0,41.75650273975478,-87.61964408206892,"(41.75650273975478, -87.61964408206892)",2011-07-05
Vacant/Abandoned Building,11-03298847,07/05/2011,,,,,,,,4238,W,GLADYS,AVE,60624.0,1148191.97142235,1898017.4503168,28.0,11.0,26.0,41.87610472084529,-87.73135779515152,"(41.87610472084529, -87.73135779515151)",2011-07-05
Vacant/Abandoned Building,11-03298849,07/05/2011,,,,,,,,1809,S,PEORIA,ST,60608.0,1170869.90981401,1891509.50449359,25.0,12.0,31.0,41.857779783382796,-87.64828316495131,"(41.8577797833828, -87.64828316495131)",2011-07-05
Vacant/Abandoned Building,11-03298852,07/05/2011,,,,,,,,3325,S,GILES,AVE,60616.0,1178809.25470935,1883005.81128503,2.0,21.0,35.0,41.834267543439815,-87.61940079199259,"(41.83426754343981, -87.61940079199259)",2011-07-05
Vacant/Abandoned Building,11-03299078,07/05/2011,Front,,Boarded,REAR DOOR IS MISSING,Vacant,False,False,11342,S,EDBROOKE,AVE,60628.0,1179223.95842981,1829772.58958258,9.0,5.0,49.0,41.68818031694745,-87.61950001273115,"(41.688180316947445, -87.61950001273115)",2011-07-05
Vacant/Abandoned Building,11-03299101,07/05/2011,,,,,,,,1114,E,73RD,ST,60619.0,1184965.04000846,1856837.19178039,5.0,3.0,69.0,41.76231619229355,-87.5976357776491,"(41.762316192293554, -87.59763577764909)",2011-07-05
Vacant/Abandoned Building,11-03299103,07/05/2011,,,,,,,,1555,N,SHEFFIELD,AVE,60642.0,1169385.55309195,1910506.61012616,32.0,18.0,8.0,41.909941548617994,-87.65317895487091,"(41.90994154861799, -87.6531789548709)",2011-07-05
Vacant/Abandoned Building,11-03299104,07/05/2011,,,,,,,,3826,N,PACIFIC,AVE,60634.0,1122024.94516661,1924460.71991312,36.0,16.0,17.0,41.949132253735705,-87.8268627272753,"(41.949132253735705, -87.8268627272753)",2011-07-05
Vacant/Abandoned Building,11-03299105,07/05/2011,,,,,,,,6100,N,HERMITAGE,AVE,60660.0,1163659.36942556,1940669.39002972,40.0,24.0,77.0,41.99283238026837,-87.6733612783337,"(41.99283238026837, -87.6733612783337)",2011-07-05
Vacant/Abandoned Building,11-03299106,07/05/2011,,,,,,,,8600,S,LAFLIN,ST,60620.0,1167834.9428666001,1847707.33581843,21.0,6.0,71.0,41.73764748314964,-87.66068138493686,"(41.73764748314963, -87.66068138493686)",2011-07-05
Vacant/Abandoned Building,11-03299107,07/05/2011,,,,,,,,119,N,WALLER,AVE,60644.0,1138141.13678425,1900306.7628994999,29.0,15.0,25.0,41.88257440726572,-87.7682061344383,"(41.88257440726572, -87.76820613443829)",2011-07-05
Vacant/Abandoned Building,11-03299110,07/05/2011,,,,,,,,5939,S,LAFLIN,ST,60636.0,1167351.34370349,1865347.54686838,16.0,7.0,67.0,41.78606494226368,-87.66194874333955,"(41.78606494226368, -87.66194874333956)",2011-07-05
Vacant/Abandoned Building,11-03299116,07/05/2011,,,,,,,,8248,S,CALUMET,AVE,60619.0,1179908.15722514,1850384.67581511,6.0,6.0,44.0,41.74472695859826,-87.61636685407711,"(41.744726958598264, -87.61636685407711)",2011-07-05
Vacant/Abandoned Building,11-03299593,07/05/2011,,,,,,,,3644,W,PALMER,ST,60647.0,1151616.63008719,1914375.32797138,26.0,25.0,22.0,41.92092575284197,-87.71835301662048,"(41.920925752841974, -87.71835301662048)",2011-07-05
Vacant/Abandoned Building,11-03299652,07/05/2011,Front,,Boarded,,Vacant,False,False,8042,S,BURNHAM,AVE,60617.0,1196234.12170728,1852183.01702105,7.0,4.0,46.0,41.749272897422266,-87.55648786721271,"(41.749272897422266, -87.55648786721272)",2011-07-05
Vacant/Abandoned Building,11-03300185,07/05/2011,Front,,Open,FRONT,Vacant,False,True,1444,W,60TH,ST,60636.0,1167632.39427722,1864953.38287993,16.0,7.0,67.0,41.784977281381686,-87.66092957495171,"(41.784977281381686, -87.6609295749517)",2011-07-05
Vacant/Abandoned Building,11-03300210,07/05/2011,Front,,Open,,Vacant,False,False,1321,W,18TH,ST,60608.0,1167770.8392254,1891529.57409518,25.0,12.0,31.0,41.85790214432993,-87.659657986475,"(41.85790214432993, -87.65965798647498)",2011-07-05
Vacant/Abandoned Building,11-03300459,07/05/2011,Rear,,Open,,Vacant,False,True,6146,S,CAMPBELL,AVE,60629.0,1160758.20232872,1863825.61320673,15.0,8.0,66.0,41.78202728137252,-87.68616454837074,"(41.78202728137252, -87.68616454837074)",2011-07-05
Vacant/Abandoned Building,11-03300559,07/05/2011,Front,,Open,,Vacant,False,False,4607,N,KENNICOTT,AVE,60630.0,1147623.72087185,1930209.98407571,39.0,17.0,14.0,41.96445502973437,-87.73261624721312,"(41.96445502973437, -87.73261624721312)",2011-07-05
Vacant/Abandoned Building,11-03300583,07/05/2011,Front,,Open,,Vacant,False,True,8842,S,EXCHANGE,AVE,60617.0,1197300.69871622,1846905.88118262,10.0,4.0,46.0,41.734765539883426,-87.55275499984194,"(41.73476553988343, -87.55275499984194)",2011-07-05
Vacant/Abandoned Building,11-03300748,07/05/2011,Front,,Open,,Vacant,,False,11567,S,PERRY,AVE,60628.0,1177658.91500423,1828022.16319626,34.0,5.0,53.0,41.683412331232816,-87.62528215195252,"(41.683412331232816, -87.62528215195252)",2011-07-05
Vacant/Abandoned Building,11-03300809,07/05/2011,Front,,Open,,Vacant,False,True,8837,S,EXCHANGE,AVE,60617.0,1197299.79871622,1846939.58118262,10.0,4.0,46.0,41.73485803778785,-87.55275717725311,"(41.73485803778785, -87.55275717725311)",2011-07-05
Vacant/Abandoned Building,11-03300834,07/05/2011,Front,,Open,,Vacant,False,True,8826,S,EXCHANGE,AVE,60617.0,1197297.69871622,1847013.58118262,10.0,4.0,46.0,41.73506115198771,-87.55276241184477,"(41.73506115198771, -87.55276241184477)",2011-07-05
Vacant/Abandoned Building,11-03300852,07/05/2011,Front,,Open,,Vacant,False,True,8828,S,EXCHANGE,AVE,60617.0,1197298.09871622,1847000.08118262,10.0,4.0,46.0,41.73502409695031,-87.55276139500026,"(41.735024096950305, -87.55276139500026)",2011-07-05
Vacant/Abandoned Building,11-03300943,07/05/2011,Front,,Open,REAR DOOR,Vacant,False,False,9323,S,YATES,BLVD,60617.0,1193799.15283136,1843613.80909745,7.0,4.0,48.0,41.72581822482154,-87.56569045897136,"(41.72581822482154, -87.56569045897137)",2011-07-05
Vacant/Abandoned Building,11-03301011,07/05/2011,Front,,Open,,Vacant,False,True,8821,S,EXCHANGE,AVE,60617.0,1197296.79871622,1847047.28118262,10.0,4.0,46.0,41.73515364988744,-87.55276458927008,"(41.73515364988744, -87.55276458927008)",2011-07-05
Vacant/Abandoned Building,11-03301048,07/05/2011,Front,,Open,,Vacant,False,True,8806,S,EXCHANGE,AVE,60617.0,1197293.89871622,1847148.18118262,10.0,4.0,46.0,41.735430599739324,-87.55277186092171,"(41.73543059973932, -87.55277186092171)",2011-07-05
Vacant/Abandoned Building,11-03301064,07/05/2011,Front,,Open,,Vacant,False,True,8808,S,EXCHANGE,AVE,60617.0,1197294.29871622,1847134.78118262,10.0,4.0,46.0,41.73539381911226,-87.55277084074656,"(41.73539381911226, -87.55277084074655)",2011-07-05
Vacant/Abandoned Building,11-03301130,07/05/2011,Front,,Open,,Vacant,False,True,8728,S,EXCHANGE,AVE,60617.0,1197281.53998056,1847664.31998962,10.0,4.0,46.0,41.73684723332069,-87.55279998837909,"(41.73684723332069, -87.5527999883791)",2011-07-05
Vacant/Abandoned Building,11-03301144,07/05/2011,Front,,Open,,Vacant,False,True,8723,S,EXCHANGE,AVE,60617.0,1197280.73998056,1847697.81998962,10.0,4.0,46.0,41.73693917988751,-87.55280180616388,"(41.73693917988751, -87.55280180616387)",2011-07-05
Vacant/Abandoned Building,11-03301163,07/05/2011,Front,,Open,,Vacant,False,True,8706,S,EXCHANGE,AVE,60617.0,1197278.03998056,1847811.71998962,10.0,4.0,46.0,41.73725179770613,-87.55280791338323,"(41.737251797706136, -87.55280791338323)",2011-07-05
Vacant/Abandoned Building,11-03301235,07/05/2011,Front,,Open,,Vacant,False,True,8336,S,CARPENTER,ST,60620.0,1170768.40411614,1849538.40609249,21.0,6.0,71.0,41.742608771953314,-87.64988068826976,"(41.74260877195331, -87.64988068826976)",2011-07-05
Vacant/Abandoned Building,11-03301239,07/05/2011,Front,,Open,,Vacant,False,True,8909,S,EXCHANGE,AVE,60617.0,1197313.16110925,1846461.83469884,10.0,4.0,46.0,41.73354673038549,-87.55272409849546,"(41.73354673038549, -87.55272409849547)",2011-07-05
Vacant/Abandoned Building,11-03301254,07/05/2011,Front,,Open,,Vacant,False,True,9023,S,EXCHANGE,AVE,60617.0,1197335.15779618,1845669.54797981,10.0,4.0,46.0,41.731372083696435,-87.55266984145447,"(41.73137208369644, -87.55266984145447)",2011-07-05
Vacant/Abandoned Building,11-03301285,07/05/2011,Front,,Open,,Vacant,False,True,8746,S,BALTIMORE,AVE,60617.0,1198411.6600666,1847572.53569962,10.0,4.0,46.0,41.73656716996353,-87.54866274281639,"(41.736567169963536, -87.54866274281639)",2011-07-05
Vacant/Abandoned Building,11-03301318,07/05/2011,Front,,Open,,Vacant,False,True,8742,S,BALTIMORE,AVE,60617.0,1198410.9600666,1847599.43569962,10.0,4.0,46.0,41.736641003141166,-87.54866440879563,"(41.73664100314117, -87.54866440879562)",2011-07-05
Vacant/Abandoned Building,11-03301339,07/05/2011,Front,,Open,,Vacant,False,True,8740,S,BALTIMORE,AVE,60617.0,1198410.5600666,1847612.93569962,10.0,4.0,46.0,41.73667805818443,-87.54866542329567,"(41.73667805818443, -87.54866542329567)",2011-07-05
Vacant/Abandoned Building,11-03301349,07/05/2011,Front,,Open,,Vacant,False,True,8814,S,HOUSTON,AVE,60617.0,1198051.99082058,1847112.84662762,10.0,4.0,46.0,41.73531473836687,-87.54999575096788,"(41.73531473836687, -87.54999575096788)",2011-07-05
Vacant/Abandoned Building,11-03301362,07/05/2011,Front,,Open,,Vacant,False,True,8417,S,BALTIMORE,AVE,60617.0,1197392.75321497,1849771.46030458,10.0,4.0,46.0,41.74262662146762,-87.55232248642872,"(41.742626621467615, -87.55232248642872)",2011-07-05
Vacant/Abandoned Building,11-03301379,07/05/2011,Front,,Open,,Vacant,False,False,8500,S,BALTIMORE,AVE,60617.0,1197904.08641148,1849194.64022273,10.0,4.0,46.0,41.741031033472794,-87.5504682228595,"(41.7410310334728, -87.5504682228595)",2011-07-05
Vacant/Abandoned Building,11-03301451,07/05/2011,Front,,Open,,Vacant,False,True,8619,S,BALTIMORE,AVE,60617.0,1198250.58336697,1848413.49009241,7.0,4.0,46.0,41.73887884169279,-87.54922479058632,"(41.73887884169279, -87.54922479058631)",2011-07-05
Vacant/Abandoned Building,11-03301482,07/05/2011,Front,,Open,,Vacant,False,True,8640,S,BALTIMORE,AVE,60617.0,1198278.48336697,1848273.49009241,10.0,4.0,46.0,41.738493973437535,-87.54912724682484,"(41.738493973437535, -87.54912724682485)",2011-07-05
Vacant/Abandoned Building,11-03301499,07/05/2011,Front,,Open,,Vacant,False,True,8642,S,ESCANABA,AVE,60617.0,1196980.61160306,1848226.59249637,10.0,4.0,46.0,41.738397637886294,-87.5538838145808,"(41.73839763788629, -87.5538838145808)",2011-07-05
Vacant/Abandoned Building,11-03301511,07/05/2011,Front,,Open,,Vacant,False,True,8606,S,ESCANABA,AVE,60617.0,1196976.11160306,1848467.49249637,10.0,4.0,46.0,41.73905879839292,-87.55389230755985,"(41.73905879839292, -87.55389230755985)",2011-07-05
Vacant/Abandoned Building,11-03301613,07/05/2011,Front,,Open,,Vacant,False,False,11332,S,PRAIRIE,AVE,60628.0,1179934.03989912,1829868.20229319,9.0,5.0,49.0,41.688426515794795,-87.61689756616909,"(41.6884265157948, -87.61689756616909)",2011-07-05
Vacant/Abandoned Building,11-03301616,07/05/2011,Front,,Open,OPEN,Vacant,False,True,1711,W,90TH,ST,60620.0,1166465.99566864,1844994.3286964002,21.0,22.0,73.0,41.73023183851022,-87.66577394825327,"(41.73023183851022, -87.66577394825327)",2011-07-05
Vacant/Abandoned Building,11-03301625,07/05/2011,Front,,Open,,Vacant,False,False,1339,S,PRAIRIE,AVE,60605.0,1178292.00488438,1894157.39339535,2.0,1.0,33.0,41.86488002444217,-87.62095925498232,"(41.86488002444217, -87.62095925498232)",2011-07-05
Vacant/Abandoned Building,11-03301654,07/05/2011,,,,,,,,8201,S,TALMAN,AVE,60652.0,1160132.62077264,1850149.87970887,18.0,8.0,70.0,41.744511945297816,-87.68883377679659,"(41.74451194529782, -87.6888337767966)",2011-07-05
Vacant/Abandoned Building,11-03301655,07/05/2011,Front,,Open,FRONT DOOR,Vacant,False,True,1329,W,99TH,ST,60643.0,1169218.37760072,1839119.48318949,21.0,22.0,73.0,41.71405136531225,-87.65586046753882,"(41.71405136531225, -87.65586046753882)",2011-07-05
Vacant/Abandoned Building,11-03301723,07/05/2011,Front,,Open,ALL DOORS ARE OPENED,Vacant,False,False,11607,S,YALE,AVE,60628.0,1176689.9040805001,1827972.59187315,34.0,5.0,53.0,41.68329809927868,-87.62883083148583,"(41.68329809927868, -87.62883083148583)",2011-07-05
Vacant/Abandoned Building,11-03301828,07/05/2011,Front,,Open,,Vacant,False,True,10326,S,CALHOUN,AVE,60617.0,1194842.35701226,1837013.98120172,10.0,4.0,51.0,41.70768207865071,-87.5620857754949,"(41.707682078650706, -87.56208577549491)",2011-07-05
Vacant/Abandoned Building,11-03301830,07/05/2011,Front,,Open,,Vacant,False,False,11415,S,INDIANA,AVE,60628.0,1179607.0689021999,1829380.09543185,9.0,5.0,49.0,41.68709453636219,-87.61810941399256,"(41.68709453636219, -87.61810941399257)",2011-07-05
Vacant/Abandoned Building,11-03301841,07/05/2011,Front,,Open,,Vacant,False,False,11330,S,INDIANA,AVE,60628.0,1179591.8611271998,1829868.19922793,9.0,5.0,49.0,41.68843430983241,-87.61815025250347,"(41.68843430983241, -87.61815025250347)",2011-07-05
Vacant/Abandoned Building,11-03301857,07/05/2011,Front,,Open,"CALLER STATES BUILDING IS SECURED DOORS ARE LOCKED , BUT IS AN EYESORE",Vacant,False,False,7800,S,WOOD,ST,60620.0,1165704.80112547,1852963.01792843,17.0,6.0,71.0,41.752115261682796,-87.66833686948964,"(41.752115261682796, -87.66833686948962)",2011-07-05
Vacant/Abandoned Building,11-03301866,07/05/2011,Front,,Open,,Vacant,False,False,332,W,112TH,ST,60628.0,1176114.77743222,1830657.24426621,34.0,5.0,49.0,41.69067807926701,-87.63085602010234,"(41.69067807926701, -87.63085602010234)",2011-07-05
Vacant/Abandoned Building,11-03301885,07/05/2011,Front,,Open,,Vacant,False,False,11256,S,PRINCETON,AVE,60628.0,1176290.56277257,1830211.58182197,34.0,5.0,49.0,41.68945117910759,-87.63022577873501,"(41.689451179107586, -87.630225778735)",2011-07-05
Vacant/Abandoned Building,11-03301894,07/05/2011,Front,,Open,,Vacant,False,False,321,W,112TH,ST,60628.0,1176170.17743222,1830658.34426621,34.0,5.0,49.0,41.69067985788062,-87.63065316510907,"(41.69067985788062, -87.63065316510907)",2011-07-05
Vacant/Abandoned Building,11-03301910,07/05/2011,Front,,Open,,Vacant,False,False,256,W,113TH,ST,60628.0,1176501.92987225,1830003.8932704,34.0,5.0,49.0,41.688876513774424,-87.62945818095635,"(41.68887651377442, -87.62945818095635)",2011-07-05
Vacant/Abandoned Building,11-03301915,07/05/2011,Front,,Open,,Vacant,False,True,4909,W,GRACE,ST,60641.0,1142938.91331443,1924813.48968126,45.0,16.0,15.0,41.94973541977581,-87.74997624586297,"(41.94973541977581, -87.74997624586295)",2011-07-05
Vacant/Abandoned Building,11-03301924,07/05/2011,Front,,Open,,Vacant,False,False,248,W,113TH,ST,60628.0,1176539.92987225,1830004.7932703998,34.0,5.0,49.0,41.68887813137757,-87.62931903806971,"(41.68887813137757, -87.62931903806971)",2011-07-05
Vacant/Abandoned Building,11-03301934,07/05/2011,Front,,Open,,Vacant,False,False,243,W,113TH,ST,60628.0,1176563.62987225,1830005.2932703998,34.0,5.0,49.0,41.68887897190609,-87.6292322586807,"(41.688878971906085, -87.6292322586807)",2011-07-05
Vacant/Abandoned Building,11-03301949,07/05/2011,Front,,Open,,Vacant,False,False,225,W,113TH,ST,60628.0,1176689.12987225,1830008.0932703998,34.0,5.0,49.0,41.68888383970415,-87.62877272610909,"(41.68888383970415, -87.62877272610908)",2011-07-05
Vacant/Abandoned Building,11-03301967,07/05/2011,Front,,Open,,Vacant,False,False,11577,S,LAFAYETTE,AVE,60628.0,1177994.12720311,1827917.56598568,34.0,5.0,53.0,41.683117734283925,-87.6240582154829,"(41.68311773428393, -87.6240582154829)",2011-07-05
Vacant/Abandoned Building,11-03301984,07/05/2011,Front,,Open,,Vacant,False,False,11579,S,LAFAYETTE,AVE,60628.0,1177994.82720311,1827898.06598568,34.0,5.0,53.0,41.683064207553294,-87.62405624072059,"(41.6830642075533, -87.6240562407206)",2011-07-05
Vacant/Abandoned Building,11-03302003,07/05/2011,Front,,Open,,Vacant,False,False,11572,S,LAFAYETTE,AVE,60628.0,1177992.52720311,1827966.26598568,34.0,5.0,53.0,41.683251410512064,-87.62406260481363,"(41.683251410512064, -87.62406260481364)",2011-07-05
Vacant/Abandoned Building,11-03302007,07/05/2011,Rear,,Open,REAR,Vacant,False,True,9642,S,GREEN,ST,60643.0,1172346.63636816,1840798.33309504,21.0,22.0,73.0,41.71859025790429,-87.64435436529945,"(41.71859025790429, -87.64435436529945)",2011-07-05
Vacant/Abandoned Building,11-03302012,07/05/2011,Front,,Open,,Vacant,False,False,11552,S,LAFAYETTE,AVE,60628.0,1177986.07998227,1828161.32997634,34.0,5.0,53.0,41.683786840889894,-87.62408032718322,"(41.683786840889894, -87.62408032718322)",2011-07-05
Vacant/Abandoned Building,11-03302063,07/05/2011,Front,,Open,,Vacant,False,False,11339,S,PRAIRIE,AVE,60628.0,1179935.63989912,1829819.50229319,9.0,5.0,49.0,41.688292839526994,-87.61689319147276,"(41.688292839526994, -87.61689319147277)",2011-07-05
Vacant/Abandoned Building,11-03302108,07/05/2011,Front,,Open,,Vacant,False,False,11435,S,INDIANA,AVE,60628.0,1179617.59361286,1829044.92009217,9.0,5.0,49.0,41.686174527076396,-87.61808107230526,"(41.686174527076396, -87.61808107230527)",2011-07-05
Vacant/Abandoned Building,11-03302155,07/05/2011,Front,,Open,BOARDS HAVE BEEN TAKEN OFF WINDOWS AND DOOR,Vacant,False,True,2049,W,GARFIELD,BLVD,60636.0,1163561.56990459,1868040.87239645,15.0,7.0,67.0,41.793536138187115,-87.67576842949931,"(41.79353613818712, -87.67576842949931)",2011-07-05
Vacant/Abandoned Building,11-03302792,07/05/2011,Front,,Open,,Vacant,False,False,32,S,SACRAMENTO,BLVD,60612.0,1156399.32830852,1899591.70102709,28.0,11.0,27.0,41.88026270928213,-87.70118050560811,"(41.880262709282135, -87.70118050560811)",2011-07-05
Vacant/Abandoned Building,11-03302801,07/05/2011,Front,,Open,,Vacant,False,False,34,S,SACRAMENTO,BLVD,60612.0,1156399.52830852,1899585.70102709,28.0,11.0,27.0,41.88024624064933,-87.70117993350586,"(41.88024624064933, -87.70117993350586)",2011-07-05
Vacant/Abandoned Building,11-03302915,07/05/2011,Front,,Open,REAR DOOR,Vacant,False,False,11242,S,EDBROOKE,AVE,60628.0,1179202.1173945,1830451.49582363,9.0,5.0,49.0,41.69004383005342,-87.61955937670197,"(41.69004383005342, -87.61955937670197)",2011-07-05
Vacant/Abandoned Building,11-03303047,07/05/2011,,,,,,,,4942,W,FULLERTON,AVE,60639.0,1143048.67891622,1915506.14342827,31.0,25.0,19.0,41.924193118298476,-87.74980563268127,"(41.92419311829848, -87.74980563268127)",2011-07-05
Vacant/Abandoned Building,11-03303050,07/05/2011,,,,,,,,5135,W,ALTGELD,ST,60639.0,1141733.39130898,1916150.35888602,31.0,25.0,19.0,41.925985371848434,-87.75462262416674,"(41.92598537184844, -87.75462262416674)",2011-07-05
Vacant/Abandoned Building,11-03303119,07/05/2011,,,Open,BASEMENT/FONT/REAR,Vacant,,,2742,W,WASHINGTON,BLVD,60612.0,1158084.07011805,1900569.41728471,2.0,13.0,27.0,41.88291143578921,-87.69496759765579,"(41.88291143578921, -87.6949675976558)",2011-07-05
Vacant/Abandoned Building,11-03303167,07/05/2011,Front,,Open,TALL WEEDS,Vacant,False,False,5018,S,KOLIN,AVE,60632.0,1148210.06282901,1870994.89550687,23.0,8.0,57.0,41.80195086406839,-87.73198601387408,"(41.80195086406839, -87.73198601387408)",2011-07-05
Vacant/Abandoned Building,11-03303496,07/05/2011,Front,,Open,FRONT DOOR,Vacant,False,False,5959,S,MAY,ST,60621.0,1169671.02490049,1865275.16850407,16.0,7.0,68.0,41.78581630733545,-87.65344575311363,"(41.785816307335445, -87.65344575311364)",2011-07-05
Vacant/Abandoned Building,11-03303573,07/05/2011,Front,,Open,FRONT,Vacant,False,False,1403,W,61ST,ST,60636.0,1168008.86588879,1864299.79759628,16.0,7.0,67.0,41.78317567651871,-87.65956804510323,"(41.78317567651871, -87.65956804510324)",2011-07-05
Vacant/Abandoned Building,11-03303614,07/05/2011,Garage,,Open,ONE SIDE GONE,Vacant,False,False,6338,S,MARSHFIELD,AVE,60636.0,1166416.99748868,1862672.60997243,15.0,7.0,67.0,41.77874454867838,-87.66545069963269,"(41.77874454867838, -87.66545069963269)",2011-07-05
Vacant/Abandoned Building,11-03303662,07/05/2011,Garage,,Open,DOOR,Vacant,False,False,6432,S,HERMITAGE,AVE,60636.0,1165773.87763097,1862037.96887613,15.0,7.0,67.0,41.77701669399495,-87.66782643553076,"(41.77701669399495, -87.66782643553077)",2011-07-05
Vacant/Abandoned Building,11-03303830,07/05/2011,Front,,Open,REAR DOOR,Vacant,False,False,6355,S,HONORE,ST,60636.0,1165105.18670437,1862525.86381228,15.0,7.0,67.0,41.77836971593632,-87.67026405531739,"(41.778369715936314, -87.67026405531738)",2011-07-05
Vacant/Abandoned Building,11-03303912,07/05/2011,Front,,Open,FRONT WONDOW WAS BROEKN OUT,Vacant,False,True,2168,N,MCVICKER,AVE,60639.0,1135715.63859466,1913801.97103205,29.0,25.0,19.0,41.91965044393886,-87.77679128554085,"(41.91965044393886, -87.77679128554085)",2011-07-05
Vacant/Abandoned Building,11-03303922,07/05/2011,Front,,Boarded,,Vacant,True,False,5809,N,NORTHWEST,HWY,60631.0,1132087.57060902,1938318.46070984,41.0,16.0,10.0,41.986990150994956,-87.78955003913481,"(41.986990150994956, -87.78955003913482)",2011-07-05
Vacant/Abandoned Building,11-03303979,07/05/2011,Front,,Open,DOOR,Vacant,False,False,3800,W,ROSEMONT,AVE,60659.0,1149897.15587756,1941535.51511179,39.0,17.0,13.0,41.99548895302154,-87.7239611543661,"(41.99548895302154, -87.7239611543661)",2011-07-05
Vacant/Abandoned Building,11-03304358,07/05/2011,Rear,,Open,,Vacant,False,True,2100,N,RICHMOND,ST,60647.0,1156599.38648043,1913917.02931519,35.0,14.0,22.0,41.919568631457,-87.7000576264798,"(41.919568631457, -87.70005762647979)",2011-07-05
Vacant/Abandoned Building,11-03304434,07/05/2011,Front,,Open,"FRONT, BACK & WINDOWS",Vacant,False,False,1899,S,KOMENSKY,AVE,60623.0,1149688.8000168998,1890340.06988694,24.0,10.0,29.0,41.85500814120197,-87.72606131711436,"(41.855008141201964, -87.72606131711434)",2011-07-05
Vacant/Abandoned Building,11-03304464,07/05/2011,Front,,Open,FRONT AND REAR,Vacant,False,True,5310,S,JUSTINE,ST,60609.0,1166905.85788658,1869513.68027545,16.0,9.0,61.0,41.7975068474852,-87.66346309408651,"(41.7975068474852, -87.66346309408652)",2011-07-05
Vacant/Abandoned Building,11-03304499,07/05/2011,Front,,Open,FRONT DOOR/ AND GARAGE OPEN,Vacant,False,False,2106,W,67TH,PL,60636.0,1163464.2705049,1859877.25440756,15.0,7.0,67.0,41.77113613568567,-87.6763539402927,"(41.77113613568567, -87.67635394029271)",2011-07-05
Vacant/Abandoned Building,11-03304515,07/05/2011,Front,,Open,WINDOWS AND BACK DOOR,Vacant,False,True,6504,S,WOLCOTT,AVE,60636.0,1164803.7739154,1861537.72782272,15.0,7.0,67.0,41.77566451294446,-87.67139693778988,"(41.77566451294446, -87.67139693778988)",2011-07-05
Vacant/Abandoned Building,11-03304546,07/05/2011,Front,,Open,OPEN IN FRONT HIGH GRASS 4 FEET,Vacant,False,False,2058,W,67TH,PL,60636.0,1163800.5705049,1859885.25440756,15.0,7.0,67.0,41.77115103267933,-87.67512095616402,"(41.771151032679334, -87.67512095616401)",2011-07-05
Vacant/Abandoned Building,11-03304575,07/05/2011,Front,,Open,FRONT,Vacant,False,False,6621,S,HOYNE,AVE,60636.0,1163503.41378068,1860729.98711894,15.0,7.0,67.0,41.773475330162455,-87.67618657038086,"(41.773475330162455, -87.67618657038086)",2011-07-05
Vacant/Abandoned Building,11-03304591,07/05/2011,Rear,,Boarded,,Vacant,False,False,6340,S,HOYNE,AVE,60636.0,1163452.53691096,1862581.81861535,15.0,7.0,67.0,41.778558072337844,-87.67632121134035,"(41.778558072337844, -87.67632121134035)",2011-07-05
Vacant/Abandoned Building,11-03304606,07/05/2011,Front,,Boarded,,Vacant,False,False,6315,S,SEELEY,AVE,60636.0,1163780.99099619,1862755.60419514,15.0,7.0,67.0,41.77902807040906,-87.67511219655806,"(41.77902807040906, -87.67511219655805)",2011-07-05
Vacant/Abandoned Building,11-03304628,07/05/2011,Front,,Open,REAR,Vacant,False,False,6326,S,SEELEY,AVE,60636.0,1163782.89099619,1862682.90419514,15.0,7.0,67.0,41.77882853204013,-87.67510727107005,"(41.77882853204013, -87.67510727107005)",2011-07-05
Vacant/Abandoned Building,11-03304649,07/05/2011,Front,,Open,,Vacant,False,False,6441,S,SEELEY,AVE,60636.0,1163802.76097257,1861926.99600216,15.0,7.0,67.0,41.77675380174556,-87.67505563934179,"(41.77675380174556, -87.6750556393418)",2011-07-05
Vacant/Abandoned Building,11-03304655,07/05/2011,Front,,Open,,Vacant,False,False,6601,S,SEELEY,AVE,60636.0,1163832.04726565,1860871.73089918,15.0,7.0,67.0,41.77385739711297,-87.67497789210026,"(41.77385739711297, -87.67497789210026)",2011-07-05
Vacant/Abandoned Building,11-03304670,07/05/2011,Front,,Open,,Vacant,False,False,6520,S,DAMEN,AVE,60636.0,1164149.78541169,1861414.43270864,15.0,7.0,67.0,41.77533996312544,-87.67379786774315,"(41.77533996312544, -87.67379786774316)",2011-07-05
Vacant/Abandoned Building,11-03304680,07/05/2011,Front,,Open,,Vacant,False,False,6346,S,DAMEN,AVE,60636.0,1164117.81902696,1862559.61858459,15.0,7.0,67.0,41.77848317835307,-87.67388286018667,"(41.77848317835307, -87.67388286018667)",2011-07-05
Vacant/Abandoned Building,11-03304693,07/05/2011,Front,,Open,,Vacant,False,False,6510,S,DAMEN,AVE,60636.0,1164147.78541169,1861481.23270864,15.0,7.0,67.0,41.77552331335528,-87.67380332150812,"(41.77552331335528, -87.67380332150813)",2011-07-05
Vacant/Abandoned Building,11-03304704,07/05/2011,Front,,Open,,Vacant,False,False,6440,S,WINCHESTER,AVE,60636.0,1164462.97713032,1861950.75261748,15.0,7.0,67.0,41.77680509931482,-87.67263463559138,"(41.77680509931482, -87.67263463559138)",2011-07-05
Vacant/Abandoned Building,11-03304713,07/05/2011,Rear,,Open,,Vacant,False,False,6433,S,WINCHESTER,AVE,60636.0,1164461.67713032,1861997.55261748,15.0,7.0,67.0,41.77693355212322,-87.6726380832288,"(41.77693355212322, -87.6726380832288)",2011-07-05
Vacant/Abandoned Building,11-03304731,07/05/2011,Front,,Open,,Vacant,False,False,7150,S,DAMEN,AVE,60636.0,1164251.18723398,1857576.6560047,17.0,7.0,67.0,41.76480644645573,-87.67353406786175,"(41.76480644645573, -87.67353406786175)",2011-07-05
Vacant/Abandoned Building,11-03304755,07/05/2011,Garage,,Open,GARAGE OPEN,Vacant,False,False,6133,S,CHAMPLAIN,AVE,60637.0,1181621.49466713,1864486.06138898,20.0,3.0,42.0,41.78338325721539,-87.60965430671905,"(41.78338325721539, -87.60965430671904)",2011-07-05
Vacant/Abandoned Building,11-03304770,07/05/2011,Front,,Boarded,,Vacant,False,False,9443,S,HALSTED,ST,60620.0,1172640.53709409,1842170.61901534,21.0,22.0,73.0,41.72234954733476,-87.64323762218383,"(41.72234954733476, -87.64323762218385)",2011-07-05
Vacant/Abandoned Building,11-03304814,07/05/2011,Front,,Open,REAR,Vacant,False,True,943,N,HAMLIN,AVE,60651.0,1150880.03777732,1906026.36729059,27.0,11.0,23.0,41.89802987667311,-87.72127833229861,"(41.89802987667311, -87.7212783322986)",2011-07-05
Vacant/Abandoned Building,11-03305048,07/05/2011,Front,,Open,BACK DOOR WAS KICKED IN,Vacant,False,True,2041,N,KEDZIE,AVE,60647.0,1154711.2057768998,1913502.10301162,35.0,14.0,22.0,41.918468091158736,-87.70700623576808,"(41.918468091158736, -87.70700623576808)",2011-07-05
Vacant/Abandoned Building,11-03305563,07/05/2011,Rear,,Open,REAR,Vacant,False,False,1418,S,KEDVALE,AVE,60623.0,1148945.79419031,1892933.11998898,24.0,10.0,29.0,41.8621381772439,-87.72872148038887,"(41.8621381772439, -87.72872148038887)",2011-07-05
Vacant/Abandoned Building,11-03305639,07/05/2011,Front,,Open,REAR,Vacant,False,False,5400,S,MARSHFIELD,AVE,60609.0,1166260.1039838002,1868900.82922244,16.0,9.0,61.0,41.795838895589775,-87.6658486209589,"(41.795838895589775, -87.6658486209589)",2011-07-05
Vacant/Abandoned Building,11-03305762,07/05/2011,Front,,Open,,Vacant,False,True,2158,N,MCVICKER,AVE,60639.0,1135718.63859466,1913707.87103205,29.0,25.0,19.0,41.919392169084745,-87.77678250669761,"(41.919392169084745, -87.77678250669763)",2011-07-05
Vacant/Abandoned Building,11-03305821,07/05/2011,Front,,Open,FRONT AND REAR,Vacant,False,True,2951,W,GEORGE,ST,60618.0,1156108.37732931,1919133.03177503,35.0,14.0,21.0,41.933891676289996,-87.70172050312084,"(41.93389167628999, -87.70172050312085)",2011-07-05
Vacant/Abandoned Building,11-03305898,07/05/2011,Front,,Boarded,FRONT GATE ONLY...BUILDING IS SECURE,Vacant,False,False,2621,W,24TH,PL,60608.0,1159275.73000936,1887748.13998168,12.0,10.0,30.0,41.847704161112695,-87.69094406091696,"(41.847704161112695, -87.69094406091695)",2011-07-05
Vacant/Abandoned Building,11-03305960,07/05/2011,Front,,Open,,Vacant,False,True,11920,S,WALLACE,ST,60628.0,1174453.25999545,1825841.3239957,34.0,5.0,53.0,41.67749946081425,-87.63708141470646,"(41.677499460814246, -87.63708141470646)",2011-07-05
Vacant/Abandoned Building,11-03306063,07/05/2011,Front,,Open,,Vacant,False,True,11940,S,WALLACE,ST,60628.0,1174457.35999545,1825707.3239957,34.0,5.0,53.0,41.677131652459686,-87.63707037089708,"(41.67713165245969, -87.63707037089708)",2011-07-05
Vacant/Abandoned Building,11-03306387,07/06/2011,Front,,Open,,Vacant,False,False,2113,N,SPRINGFIELD,AVE,60647.0,1150035.22998792,1913820.72118255,30.0,25.0,22.0,41.919434834229975,-87.72417794844792,"(41.91943483422998, -87.7241779484479)",2011-07-06
Vacant/Abandoned Building,11-03306445,07/06/2011,Front,,Open,,Vacant,False,False,3119,N,ODELL,AVE,60707.0,1126542.8916137,1919920.41232482,36.0,25.0,17.0,41.93659863789692,-87.81035691360908,"(41.93659863789692, -87.8103569136091)",2011-07-06
Vacant/Abandoned Building,11-03307013,07/06/2011,Rear,,Open,,Vacant,False,True,3546,W,FRANKLIN,BLVD,60624.0,1152626.72630038,1903103.47881459,27.0,11.0,23.0,41.88997480809038,-87.71494023951936,"(41.88997480809038, -87.71494023951936)",2011-07-06
Vacant/Abandoned Building,11-03307026,07/06/2011,Front,,Open,REAR DOOR AND OPEN GARAGE,Vacant,False,False,1531,S,KOLIN,AVE,60623.0,1147635.7705166,1892145.06807972,24.0,10.0,29.0,41.86000088049622,-87.7335506394464,"(41.860000880496216, -87.7335506394464)",2011-07-06
Vacant/Abandoned Building,11-03307555,07/06/2011,,,,,,,,1032,W,110TH,PL,60643.0,1171312.07159453,1831532.65557146,34.0,22.0,75.0,41.693186480276935,-87.64841352818262,"(41.693186480276935, -87.64841352818262)",2011-07-06
Vacant/Abandoned Building,11-03307690,07/06/2011,,,,,,,,5626,S,SANGAMON,ST,60621.0,1170935.8058296998,1867522.65328315,16.0,7.0,68.0,41.791956122199956,-87.64874285485153,"(41.79195612219995, -87.64874285485153)",2011-07-06
Vacant/Abandoned Building,11-03307714,07/06/2011,,,,,,,,1861,N,HOYNE,AVE,60647.0,1162060.98121372,1912455.76856968,32.0,14.0,22.0,41.91544640589338,-87.68003183639001,"(41.915446405893384, -87.68003183639001)",2011-07-06
Vacant/Abandoned Building,11-03307754,07/06/2011,Front,,Open,FRONT,Vacant,False,False,5956,S,JUSTINE,ST,60636.0,1167025.20392814,1865224.98233258,15.0,7.0,67.0,41.78573559231625,-87.66314803614884,"(41.78573559231625, -87.66314803614883)",2011-07-06
Vacant/Abandoned Building,11-03307767,07/06/2011,,,,,,,,6835,S,MAY,ST,60621.0,1169830.17227113,1859471.85868081,17.0,7.0,68.0,41.76988786837904,-87.65303057202503,"(41.76988786837904, -87.65303057202503)",2011-07-06
Vacant/Abandoned Building,11-03307769,07/06/2011,,,,,,,,4807,S,KOLIN,AVE,60632.0,1148170.43647949,1872399.74557572,23.0,8.0,57.0,41.8058067454368,-87.73209530125456,"(41.805806745436804, -87.73209530125456)",2011-07-06
Vacant/Abandoned Building,11-03307793,07/06/2011,,,,,,,,3140,S,BENSON,ST,60608.0,1167522.48850481,1883849.91991042,11.0,9.0,60.0,41.836833810096756,-87.66079034002794,"(41.83683381009676, -87.66079034002793)",2011-07-06
Vacant/Abandoned Building,11-03307794,07/06/2011,,,,,,,,4342,N,KENNETH,AVE,60641.0,1145685.30077462,1928544.42471796,38.0,17.0,16.0,41.95992167450174,-87.73978576983026,"(41.95992167450174, -87.73978576983026)",2011-07-06
Vacant/Abandoned Building,11-03307797,07/06/2011,,,,,,,,2514,W,CHICAGO,AVE,60622.0,1159590.37228583,1905246.98058694,1.0,13.0,24.0,41.895716199959566,-87.68930746913837,"(41.89571619995956, -87.68930746913838)",2011-07-06
Vacant/Abandoned Building,11-03307832,07/06/2011,,,,,,,,3248,W,EVERGREEN,AVE,60651.0,1154458.01413276,1908795.36009288,26.0,14.0,23.0,41.905557450695284,-87.70806255397603,"(41.905557450695284, -87.70806255397605)",2011-07-06
Vacant/Abandoned Building,11-03307996,07/06/2011,Front,,Open,WIDE OPEN SINCE FEBRUARY  2011.. PEOPLE USING THIS PROPERTY ... DUMPING OCCURING.. ON PROERTY AND OUTSIDE THE PROPERTY,Vacant,False,True,3337,W,CARROLL,AVE,60624.0,1154049.76126723,1902203.73059094,28.0,11.0,27.0,41.88747754897735,-87.70973820438013,"(41.88747754897735, -87.70973820438013)",2011-07-06
Vacant/Abandoned Building,11-03308109,07/06/2011,,,,,,,,4338,S,WELLS,ST,60609.0,1175339.22593043,1876103.40492669,3.0,9.0,37.0,41.81540517846317,-87.63233973010746,"(41.815405178463166, -87.63233973010746)",2011-07-06
Vacant/Abandoned Building,11-03308171,07/06/2011,Front,,Open,REAR,Vacant,False,True,10012,S,PARNELL,AVE,60628.0,1174398.85409152,1838502.52809861,9.0,22.0,73.0,41.71224493039306,-87.6369058466074,"(41.71224493039306, -87.63690584660739)",2011-07-06
Vacant/Abandoned Building,11-03308195,07/06/2011,Rear,,Open,REAR DOOR,Vacant,False,False,6610,S,CARPENTER,ST,60621.0,1170450.85801834,1860982.96891347,17.0,7.0,68.0,41.774021045189784,-87.65071144352028,"(41.77402104518978, -87.65071144352028)",2011-07-06
Vacant/Abandoned Building,11-03308267,07/06/2011,Front,,Open,DOOR AND WINDOWS,Vacant,False,False,6319,S,CARPENTER,ST,60621.0,1170397.89491693,1862910.75658733,16.0,7.0,68.0,41.779312280013336,-87.65084951131522,"(41.779312280013336, -87.6508495113152)",2011-07-06
Vacant/Abandoned Building,11-03308362,07/06/2011,Front,,Open,DOORS AND WINDOWS,Vacant,False,False,6602,S,ABERDEEN,ST,60621.0,1170118.42160733,1861027.50399978,17.0,7.0,68.0,41.77415048932232,-87.65192879576288,"(41.774150489322324, -87.65192879576288)",2011-07-06
Vacant/Abandoned Building,11-03308687,07/06/2011,Front,,Open,FRONT,Vacant,False,True,6349,S,ABERDEEN,ST,60621.0,1170072.55088343,1862701.46081528,16.0,7.0,68.0,41.778745026821476,-87.65204833494856,"(41.77874502682148, -87.65204833494856)",2011-07-06
Vacant/Abandoned Building,11-03308771,07/06/2011,,,,,,,,4404,S,ARCHER,AVE,60632.0,1155404.11982732,1875191.60699981,14.0,8.0,58.0,41.81332606538616,-87.7054898257845,"(41.81332606538616, -87.7054898257845)",2011-07-06
Vacant/Abandoned Building,11-03308819,07/06/2011,,,,,,,,10209,S,STATE,ST,60628.0,1178055.20329384,1837247.51858606,9.0,5.0,49.0,41.70871908019032,-87.62355319383362,"(41.70871908019032, -87.62355319383363)",2011-07-06
Vacant/Abandoned Building,11-03308867,07/06/2011,Front,,Open,FRONT AND REAR,Vacant,True,False,12856,S,EGGLESTON,AVE,60628.0,1175589.80121204,1819548.746782,9.0,5.0,53.0,41.660206334001934,-87.63310847667009,"(41.660206334001934, -87.63310847667009)",2011-07-06
Vacant/Abandoned Building,11-03308933,07/06/2011,Front,,Open,ALL WINDOWS,Vacant,False,False,6429,S,CARPENTER,ST,60621.0,1170418.12548415,1862181.26061622,16.0,7.0,68.0,41.777310015260156,-87.65079657100803,"(41.77731001526016, -87.65079657100803)",2011-07-06
Vacant/Abandoned Building,11-03309033,07/06/2011,Front,,Open,FRONT DOOR  WIDE OPEN,Vacant,False,True,8154,S,MANISTEE,AVE,60617.0,1195919.1877918001,1851431.6001855,7.0,4.0,46.0,41.74721874865124,-87.55766670651577,"(41.747218748651235, -87.55766670651576)",2011-07-06
Vacant/Abandoned Building,11-03309034,07/06/2011,Front,,Open,DOORS AND WONDOWS,Vacant,False,False,6451,S,ABERDEEN,ST,60621.0,1170091.00849554,1862025.21409576,16.0,7.0,68.0,41.77688892308078,-87.65200031053297,"(41.77688892308078, -87.65200031053297)",2011-07-06
Vacant/Abandoned Building,11-03309046,07/06/2011,Front,,Boarded,TALL WEEDS IN YARD,Vacant,False,False,3419,W,HARRISON,ST,60624.0,1153674.7135183997,1897152.03770299,24.0,11.0,27.0,41.873622651620934,-87.71124997057409,"(41.87362265162093, -87.7112499705741)",2011-07-06
Vacant/Abandoned Building,11-03309074,07/06/2011,Rear,,Open,REAR WINDOWS,Vacant,False,False,6444,S,ABERDEEN,ST,60621.0,1170089.75279061,1862072.09761347,16.0,7.0,68.0,41.77701760442013,-87.65200355217718,"(41.777017604420124, -87.65200355217718)",2011-07-06
Vacant/Abandoned Building,11-03309092,07/06/2011,Front,,Open,FRONT AND BACK,Vacant,False,False,6657,S,CARPENTER,ST,60621.0,1170459.57368199,1860668.32051327,17.0,7.0,68.0,41.773157421840025,-87.65068864918604,"(41.773157421840025, -87.65068864918605)",2011-07-06
Vacant/Abandoned Building,11-03309156,07/06/2011,Front,,Open,,Vacant,False,True,10205,S,STATE,ST,60628.0,1178054.20329384,1837290.51858606,9.0,5.0,49.0,41.708837100698304,-87.62355555793395,"(41.708837100698304, -87.62355555793397)",2011-07-06
Vacant/Abandoned Building,11-03309186,07/06/2011,Rear,,Open,WINDOWS,Vacant,False,False,6442,S,ABERDEEN,ST,60621.0,1170089.45279061,1862085.49761347,16.0,7.0,68.0,41.77705438216145,-87.65200426276651,"(41.77705438216145, -87.65200426276651)",2011-07-06
Vacant/Abandoned Building,11-03309269,07/06/2011,Front,,Open,,Vacant,False,True,10339,S,VERNON,AVE,60628.0,1181071.5805986999,1836505.49562498,9.0,5.0,49.0,41.706614113449696,-87.61252978208576,"(41.706614113449696, -87.61252978208576)",2011-07-06
Vacant/Abandoned Building,11-03309645,07/06/2011,Front,,Open,,Vacant,False,False,1281,W,74TH,ST,60636.0,1168880.86488414,1855699.4102993999,17.0,7.0,67.0,41.75955633471975,-87.65661911384964,"(41.75955633471974, -87.65661911384964)",2011-07-06
Vacant/Abandoned Building,11-03309949,07/06/2011,,,,,,,,2233,S,KOSTNER,AVE,60623.0,1147405.46448841,1888781.47838419,22.0,10.0,29.0,41.85077517349383,-87.73448215091558,"(41.85077517349383, -87.7344821509156)",2011-07-06
Vacant/Abandoned Building,11-03309949,07/06/2011,Front,,Open,,Vacant,False,True,2233,S,KOSTNER,AVE,60623.0,1147405.46448841,1888781.47838419,22.0,10.0,29.0,41.85077517349383,-87.73448215091558,"(41.85077517349383, -87.7344821509156)",2011-07-06
Vacant/Abandoned Building,11-03310216,07/06/2011,Front,,Open,,Vacant,,True,2949,W,25TH,PL,60623.0,1157105.31757891,1886938.42406911,12.0,10.0,30.0,41.845526484275545,-87.69893150880438,"(41.845526484275545, -87.69893150880438)",2011-07-06
Vacant/Abandoned Building,11-03310248,07/06/2011,Front,,Open,,Vacant,False,False,2113,N,SPAULDING,AVE,60647.0,1153808.94752881,1913845.8539328,26.0,14.0,22.0,41.919429406981614,-87.71031204609166,"(41.919429406981614, -87.71031204609166)",2011-07-06
Vacant/Abandoned Building,11-03310307,07/06/2011,Rear,,Open,,Vacant,False,True,3337,W,65TH,PL,60629.0,1155271.04482944,1860992.64686931,15.0,8.0,66.0,41.77436476317837,-87.70635780386984,"(41.77436476317837, -87.70635780386985)",2011-07-06
Vacant/Abandoned Building,11-03310324,07/06/2011,,,,,,,,2427,W,FLOURNOY,ST,60612.0,1160315.00861932,1896969.92831177,2.0,11.0,28.0,41.872988277309524,-87.68687504384451,"(41.872988277309524, -87.68687504384452)",2011-07-06
Vacant/Abandoned Building,11-03310443,07/06/2011,Front,,Open,,Vacant,False,False,10027,S,DR MARTIN LUTHER KING JR,DR,,1180679.03490438,1838494.44480439,9.0,5.0,49.0,41.7120810579564,-87.61390640895794,"(41.7120810579564, -87.61390640895794)",2011-07-06
Vacant/Abandoned Building,11-03310474,07/06/2011,,,,,,,,5515,W,IRVING PARK,RD,60641.0,1138867.75013212,1926051.92632043,38.0,16.0,15.0,41.95320887198074,-87.76491135494831,"(41.95320887198074, -87.76491135494831)",2011-07-06
Vacant/Abandoned Building,11-03310573,07/06/2011,Front,,Boarded,,Vacant,False,False,4710,W,47TH,ST,60632.0,1145709.45552569,1873053.62897875,23.0,8.0,56.0,41.807647989493844,-87.74110485325184,"(41.807647989493844, -87.74110485325185)",2011-07-06
Vacant/Abandoned Building,11-03310678,07/06/2011,Front,,Open,,Vacant,False,False,7400,S,BENNETT,AVE,60649.0,1189987.96142435,1856277.77306895,8.0,3.0,43.0,41.76066174051317,-87.5792443372787,"(41.760661740513164, -87.57924433727868)",2011-07-06
Vacant/Abandoned Building,11-03310702,07/06/2011,Front,,Open,REAR,Vacant,False,True,547,E,45TH,ST,60653.0,1180772.68996564,1875301.18129472,3.0,2.0,38.0,41.81308045405032,-87.61243374391495,"(41.81308045405032, -87.61243374391495)",2011-07-06
Vacant/Abandoned Building,11-03310816,07/06/2011,Front,,Open,FRONT & REAR,Vacant,False,True,1235,E,46TH,ST,60653.0,1185244.13699194,1874578.9798285,4.0,21.0,39.0,41.810994578896405,-87.59605526137747,"(41.810994578896405, -87.59605526137747)",2011-07-06
Vacant/Abandoned Building,11-03310882,07/06/2011,Front,,Boarded,FRONT AND REAR DOOR,Vacant,False,True,6022,S,ELIZABETH,ST,60636.0,1169021.86422049,1864843.00888775,16.0,7.0,67.0,41.78464447134555,-87.65583837007894,"(41.78464447134555, -87.65583837007894)",2011-07-06
Vacant/Abandoned Building,11-03310957,07/06/2011,Rear,,Open,,Vacant,False,False,6437,S,MAPLEWOOD,AVE,60629.0,1160480.55077254,1861883.54019497,15.0,8.0,66.0,41.77670369244678,-87.68723599493956,"(41.77670369244678, -87.68723599493954)",2011-07-06
Vacant/Abandoned Building,11-03311039,07/06/2011,Front,,Open,BASEMENT WINDOW,Vacant,False,True,6318,S,KEATING,AVE,60629.0,1145795.96071908,1862291.24532187,13.0,8.0,64.0,41.77811264345029,-87.74105952064734,"(41.778112643450285, -87.74105952064735)",2011-07-06
Vacant/Abandoned Building,11-03311052,07/06/2011,Front,,Open,FRONT -REAR -WINDWS,Vacant,True,True,8352,S,PHILLIPS,AVE,60617.0,1193958.37719994,1850067.05238716,7.0,4.0,46.0,41.74352259631981,-87.56489616827831,"(41.74352259631981, -87.56489616827831)",2011-07-06
Vacant/Abandoned Building,11-03311277,07/06/2011,Front,,Open,FRONT & REAR & BASEMENT,Vacant,False,True,37,S,SACRAMENTO,BLVD,60612.0,1156399.72830852,1899576.90102709,2.0,11.0,27.0,41.88022208854093,-87.70117943713377,"(41.88022208854094, -87.70117943713377)",2011-07-06
Vacant/Abandoned Building,11-03311339,07/06/2011,Front,,Open,REAR DOOR AND WINDOWS,Vacant,False,True,3334,W,84TH,PL,60652.0,1155627.10217692,1848363.70959606,18.0,8.0,70.0,41.73970181317012,-87.70539046781347,"(41.739701813170115, -87.70539046781347)",2011-07-06
Vacant/Abandoned Building,11-03311352,07/06/2011,Front,,Open,,Vacant,True,False,9723,S,OGLESBY,AVE,60617.0,1193677.33161237,1840755.58478873,7.0,4.0,51.0,41.71797796552403,-87.5662299816703,"(41.71797796552403, -87.56622998167032)",2011-07-06
Vacant/Abandoned Building,11-03311402,07/06/2011,Rear,,Open,REAR,Vacant,True,False,8657,S,SAGINAW,AVE,60617.0,1195327.71992346,1848083.15368114,7.0,4.0,46.0,41.73804495040931,-87.55994423407427,"(41.73804495040931, -87.55994423407427)",2011-07-06
Vacant/Abandoned Building,11-03311473,07/06/2011,Rear,,Open,REAR,Vacant,True,False,3403,W,63RD,PL,60629.0,1154803.8798743999,1862302.10972948,15.0,8.0,66.0,41.7779674614587,-87.7080354623708,"(41.7779674614587, -87.70803546237079)",2011-07-06
Vacant/Abandoned Building,11-03311561,07/06/2011,Front,,Open,,Vacant,False,False,911,W,37TH,ST,60609.0,1171025.45799601,1880516.55198001,11.0,9.0,60.0,41.827610758520066,-87.64803417936659,"(41.82761075852006, -87.6480341793666)",2011-07-06
Vacant/Abandoned Building,11-03311570,07/06/2011,Rear,,Boarded,ENTERING THROUGH SIDE WINDOWS,Vacant,False,True,57,E,102ND,ST,60628.0,1178619.09739844,1837360.86650212,9.0,5.0,49.0,41.70901734891455,-87.62148474495845,"(41.70901734891455, -87.62148474495845)",2011-07-06
Vacant/Abandoned Building,11-03311908,07/06/2011,Front,,Open,,Vacant,False,False,7949,S,JUSTINE,ST,60620.0,1167386.12987916,1852012.27331313,21.0,6.0,71.0,41.74947046020132,-87.66220270949171,"(41.74947046020132, -87.66220270949172)",2011-07-06
Vacant/Abandoned Building,11-03312021,07/06/2011,,,,,,,,5242,N,MEADE,AVE,60630.0,1134450.26990582,1934486.84201944,45.0,16.0,11.0,41.976434353595295,-87.78095071657661,"(41.976434353595295, -87.78095071657661)",2011-07-06
Vacant/Abandoned Building,11-03312235,07/06/2011,Front,,Boarded,TALL WEEDS,Vacant,False,False,2346,E,96TH,ST,60617.0,1193560.98997336,1841980.6500098999,7.0,4.0,51.0,41.72134250653613,-87.56661612872651,"(41.721342506536125, -87.5666161287265)",2011-07-06
Vacant/Abandoned Building,11-03312408,07/06/2011,Front,,Open,"REAR, DOOR AND WINDOWS",Vacant,False,False,4921,S,DORCHESTER,AVE,60615.0,1186391.29642106,1872647.86409243,4.0,21.0,39.0,41.80566837871605,-87.59190874488566,"(41.80566837871605, -87.59190874488566)",2011-07-06
Vacant/Abandoned Building,11-03312478,07/06/2011,Front,,Open,,Vacant,False,False,9008,S,MAY,ST,60620.0,1170234.65420537,1845061.09861056,21.0,22.0,73.0,41.730334028683075,-87.65196623323378,"(41.73033402868308, -87.65196623323378)",2011-07-06
Vacant/Abandoned Building,11-03312713,07/06/2011,Front,,Open,FRONT,Vacant,False,True,6321,S,CARPENTER,ST,60621.0,1170398.29491693,1862897.35658733,16.0,7.0,68.0,41.77927550010612,-87.65084843476806,"(41.77927550010612, -87.65084843476806)",2011-07-06
Vacant/Abandoned Building,11-03312839,07/06/2011,Front,,Open,FRONT AND REAR,Vacant,False,True,6728,S,PEORIA,ST,60621.0,1171466.56189264,1860226.95558024,17.0,7.0,68.0,41.77192427033936,-87.64701019439596,"(41.77192427033936, -87.64701019439595)",2011-07-06
Vacant/Abandoned Building,11-03313001,07/06/2011,,,,,,,,1312,W,BARRY,AVE,60657.0,1167015.46991515,1920704.33322487,32.0,19.0,6.0,41.93797591260088,-87.66159215996353,"(41.93797591260088, -87.66159215996353)",2011-07-06
Vacant/Abandoned Building,11-03313182,07/06/2011,Front,,Open,,Vacant,False,True,341,N,LOCKWOOD,AVE,60644.0,1140979.33097909,1901846.79350483,28.0,15.0,25.0,41.886748684008786,-87.75774614017902,"(41.886748684008786, -87.75774614017902)",2011-07-06
Vacant/Abandoned Building,11-03313264,07/06/2011,Front,,Open,ALL WINDOWS HAVE BEEN REMOVED AND ALL DOORS REMOVED,Vacant,False,True,5948,S,MARSHFIELD,AVE,,1166359.65979085,1865261.87368622,15.0,7.0,67.0,41.785851036370886,-87.66558718888943,"(41.78585103637088, -87.66558718888942)",2011-07-06
Vacant/Abandoned Building,11-03313341,07/06/2011,Front,,Boarded,TALL WEEDS IN YARD,Vacant,False,False,455,E,134TH,ST,60827.0,1181722.7600191003,1816557.64997225,9.0,5.0,54.0,41.65185938557504,-87.61075781623931,"(41.651859385575044, -87.61075781623933)",2011-07-06
Vacant/Abandoned Building,11-03313441,07/06/2011,Front,,Open,,Vacant,False,True,171,N,LONG,AVE,60644.0,1140303.19008671,1900870.92000763,28.0,15.0,25.0,41.884083182738856,-87.76025307429322,"(41.884083182738856, -87.76025307429322)",2011-07-06
Vacant/Abandoned Building,11-03313584,07/06/2011,Rear,,Boarded,,Vacant,False,False,3825,W,84TH,PL,60652.0,1152369.14396898,1848267.70130532,18.0,8.0,70.0,41.739502964735365,-87.71732979965023,"(41.73950296473537, -87.71732979965023)",2011-07-06
Vacant/Abandoned Building,11-03313637,07/06/2011,Front,,Open,WINDOWS AND DOORS OPEN,Vacant,True,True,10601,S,EMERALD,AVE,60628.0,1173189.41038197,1834561.2218156997,34.0,22.0,49.0,41.70145615970706,-87.64145114052776,"(41.701456159707064, -87.64145114052776)",2011-07-06
Vacant/Abandoned Building,11-03313686,07/06/2011,Front,,Open,FRONT AND REAR,Vacant,False,True,1306,N,HARDING,AVE,60651.0,1149810.2822955,1908415.84402517,27.0,25.0,23.0,41.904607716439216,-87.72514525710491,"(41.90460771643922, -87.72514525710491)",2011-07-06
Vacant/Abandoned Building,11-03313767,07/06/2011,Front,,Open,,Vacant,False,True,138,N,LOTUS,AVE,60644.0,1139928.98332888,1900492.53781251,28.0,15.0,25.0,41.883051702963094,-87.76163647869387,"(41.88305170296309, -87.76163647869387)",2011-07-06
Vacant/Abandoned Building,11-03313779,07/06/2011,Front,,Open,FRONT,Vacant,False,True,9318,S,CHAPPEL,AVE,60617.0,1191470.96049041,1843587.76222277,8.0,4.0,48.0,41.725803406595,-87.57421945840551,"(41.725803406595, -87.57421945840552)",2011-07-06
Vacant/Abandoned Building,11-03313780,07/06/2011,Front,,Open,,Vacant,False,True,39,N,LOREL,AVE,60644.0,1140717.2498802,1899786.78209539,28.0,15.0,25.0,41.88110057359021,-87.75875923409897,"(41.88110057359021, -87.75875923409897)",2011-07-06
Vacant/Abandoned Building,11-03313787,07/06/2011,Front,,Open,FRONT,Vacant,False,True,2025,E,93RD,ST,60617.0,1191403.06049041,1843705.56222277,8.0,4.0,48.0,41.72612830425707,-87.57446437185554,"(41.726128304257074, -87.57446437185554)",2011-07-06
Vacant/Abandoned Building,11-03313814,07/06/2011,Front,,Boarded,,Vacant,False,False,536,W,57TH,PL,60621.0,1173761.95921285,1866794.07328525,3.0,7.0,68.0,41.78989459779089,-87.6384014684774,"(41.78989459779089, -87.6384014684774)",2011-07-06
Vacant/Abandoned Building,11-03314030,07/06/2011,Front,,Open,,Vacant,False,False,4604,W,WAVELAND,AVE,60641.0,1144919.67996618,1924194.22997999,38.0,17.0,15.0,41.94799889132235,-87.74271079765049,"(41.94799889132235, -87.74271079765049)",2011-07-06
Vacant/Abandoned Building,11-03314040,07/06/2011,Garage,,Open,,Vacant,False,False,8040,S,MARYLAND,AVE,60619.0,1183298.81837748,1851872.93587954,8.0,6.0,44.0,41.74873270745905,-87.60389690617363,"(41.74873270745905, -87.60389690617363)",2011-07-06
Vacant/Abandoned Building,11-03314112,07/06/2011,Front,,Open,FRONT AND REAR,Vacant,False,True,7259,S,GREEN,ST,60621.0,1171893.02522811,1856715.57630105,17.0,7.0,68.0,41.762279268220965,-87.6455498431857,"(41.76227926822097, -87.64554984318572)",2011-07-06
Vacant/Abandoned Building,11-03314121,07/06/2011,,,,,,,,904,N,AVERS,AVE,60651.0,1150556.38528256,1905758.18268157,27.0,11.0,23.0,41.89730028082188,-87.72247410047369,"(41.89730028082188, -87.72247410047369)",2011-07-06
Vacant/Abandoned Building,11-03314171,07/06/2011,,,,,,,,1741,N,MILWAUKEE,AVE,60647.0,1161667.61737687,1911557.05758226,32.0,14.0,24.0,41.91298849196422,-87.68150211154068,"(41.91298849196422, -87.68150211154068)",2011-07-06
Vacant/Abandoned Building,11-03314283,07/06/2011,Front,,Open,REAR BACK DOOR BASEMENT,Vacant,False,True,2854,W,55TH,ST,60632.0,1158202.62981031,1868046.67577581,14.0,9.0,63.0,41.79366286533821,-87.69541919042204,"(41.79366286533821, -87.69541919042203)",2011-07-06
Vacant/Abandoned Building,11-03314331,07/06/2011,Front,,Open,,Vacant,False,True,2953,W,GEORGE,ST,60618.0,1156098.77732931,1919132.93177503,35.0,14.0,21.0,41.93389159595095,-87.70175578561769,"(41.933891595950946, -87.7017557856177)",2011-07-06
Vacant/Abandoned Building,11-03314339,07/06/2011,Rear,,Open,,Vacant,False,True,1520,N,ASHLAND,AVE,60622.0,1165444.81003262,1910326.00997654,1.0,14.0,24.0,41.90953080629801,-87.66766072400061,"(41.90953080629801, -87.66766072400061)",2011-07-06
Vacant/Abandoned Building,11-03314892,07/07/2011,Front,,Open,FRONT & REAR,Vacant,False,False,1052,W,105TH,ST,60643.0,1170991.1798801,1835182.17376797,34.0,22.0,73.0,41.70320832781085,-87.64948228846835,"(41.703208327810835, -87.64948228846835)",2011-07-07
Vacant/Abandoned Building,11-03314905,07/07/2011,Front,,Open,ON THE SIDE,Vacant,False,False,11942,S,MICHIGAN,AVE,60628.0,1178989.50971621,1825699.99811072,9.0,5.0,53.0,41.677009852698404,-87.62048166801813,"(41.67700985269841, -87.62048166801813)",2011-07-07
Vacant/Abandoned Building,11-03314965,07/07/2011,Rear,,Open,REAR,Vacant,False,False,12012,S,STEWART,AVE,60628.0,1175787.64978267,1825262.86140247,34.0,5.0,53.0,41.67588237508658,-87.63221437026242,"(41.67588237508658, -87.63221437026242)",2011-07-07
Vacant/Abandoned Building,11-03314967,07/07/2011,Rear,,Open,REAR,Vacant,True,False,12042,S,STEWART,AVE,60628.0,1175793.74978267,1825065.96140247,34.0,5.0,53.0,41.67534191417843,-87.63219790728719,"(41.67534191417843, -87.6321979072872)",2011-07-07
Vacant/Abandoned Building,11-03314979,07/07/2011,Front,,Open,,Vacant,False,False,1862,S,LAWNDALE,AVE,60623.0,1151994.82529321,1890658.24022249,24.0,10.0,29.0,41.85583617256242,-87.7175887422248,"(41.85583617256242, -87.71758874222482)",2011-07-07
Vacant/Abandoned Building,11-03315173,07/07/2011,Rear,,Boarded,,Vacant,False,False,2525,N,PARKSIDE,AVE,60639.0,1138286.54211589,1916222.88250153,30.0,25.0,19.0,41.926247521788895,-87.76728654016911,"(41.92624752178889, -87.76728654016911)",2011-07-07
Vacant/Abandoned Building,11-03315180,07/07/2011,Front,,Open,,Vacant,False,False,3630,W,LEXINGTON,ST,60624.0,1152296.31202142,1896457.33052625,24.0,11.0,27.0,41.87174360076217,-87.71632915148493,"(41.871743600762166, -87.71632915148494)",2011-07-07
Vacant/Abandoned Building,11-03315236,07/07/2011,Rear,,Open,DOOR WINDOWS,Vacant,False,True,10118,S,UNION,AVE,60628.0,1173424.18250287,1837773.1123835,34.0,22.0,73.0,41.71026488492458,-87.64049686105034,"(41.71026488492458, -87.64049686105035)",2011-07-07
Vacant/Abandoned Building,11-03315386,07/07/2011,Front,,Open,,Vacant,False,False,4741,S,KARLOV,AVE,60632.0,1149826.22072926,1872876.22899091,14.0,8.0,57.0,41.80708234032507,-87.72601008663412,"(41.807082340325074, -87.72601008663412)",2011-07-07
Vacant/Abandoned Building,11-03315395,07/07/2011,Front,,Open,,Vacant,False,True,4537,W,JACKSON,BLVD,60624.0,1146033.73012245,1898296.9977243,24.0,11.0,26.0,41.876913096535006,-87.73927508406416,"(41.87691309653501, -87.73927508406415)",2011-07-07
Vacant/Abandoned Building,11-03315450,07/07/2011,Front,,Open,,Vacant,False,False,1860,S,LAWNDALE,AVE,60623.0,1151994.32529321,1890673.34022249,24.0,10.0,29.0,41.85587761859347,-87.71759018002442,"(41.85587761859347, -87.71759018002442)",2011-07-07
Vacant/Abandoned Building,11-03315463,07/07/2011,Front,,Open,,Vacant,False,False,4741,S,KARLOV,AVE,60632.0,1149826.22072926,1872876.22899091,14.0,8.0,57.0,41.80708234032507,-87.72601008663412,"(41.807082340325074, -87.72601008663412)",2011-07-07
Vacant/Abandoned Building,11-03315672,07/07/2011,Front,,Open,ALL AROUND,Vacant,False,True,7144,S,CORNELL,AVE,60649.0,1188470.69826661,1857924.03280021,5.0,3.0,43.0,41.7652155845721,-87.58475257826163,"(41.765215584572104, -87.58475257826163)",2011-07-07
Vacant/Abandoned Building,11-03373509,07/14/2011,,,,,,,,4714,S,LANGLEY,AVE,60615.0,1181726.07656951,1873910.17309591,4.0,2.0,38.0,41.80924141736801,-87.60897973265475,"(41.80924141736801, -87.60897973265475)",2011-07-14
Vacant/Abandoned Building,11-03316568,07/07/2011,Front,,Open,FRONT DOOR,Vacant,False,True,10100,S,YALE,AVE,60628.0,1176396.79789488,1837968.92283384,9.0,5.0,49.0,41.71073606569513,-87.62960480100168,"(41.710736065695144, -87.62960480100169)",2011-07-07
Vacant/Abandoned Building,11-03316627,07/07/2011,Rear,,Open,REAR DOOR,Vacant,False,False,6714,S,THROOP,ST,60636.0,1168814.63807166,1860248.29222798,17.0,7.0,67.0,41.77204048256933,-87.65673069274082,"(41.77204048256933, -87.65673069274081)",2011-07-07
Vacant/Abandoned Building,11-03316646,07/07/2011,Front,,Boarded,,Vacant,False,False,7950,S,PEORIA,ST,60620.0,1171676.80471357,1852459.94191267,17.0,6.0,71.0,41.75060600631601,-87.64646684974787,"(41.75060600631601, -87.64646684974787)",2011-07-07
Vacant/Abandoned Building,11-03316654,07/07/2011,Front,,Open,FRONT AND REAR,Vacant,False,False,6812,S,ELIZABETH,ST,60636.0,1169163.89060759,1859608.17746978,17.0,7.0,67.0,41.77027638035237,-87.65546893466696,"(41.770276380352364, -87.65546893466696)",2011-07-07
Vacant/Abandoned Building,11-03316664,07/07/2011,Front,,Boarded,,Vacant,False,False,7000,S,WINCHESTER,AVE,60636.0,1164564.52231894,1858246.29287766,17.0,7.0,67.0,41.766637421021095,-87.67236674258085,"(41.76663742102109, -87.67236674258086)",2011-07-07
Vacant/Abandoned Building,11-03316670,07/07/2011,Rear,,Open,REAR,Vacant,True,True,9904,S,STATE,ST,60628.0,1178033.79318939,1839255.78072188,9.0,5.0,49.0,41.714230508235225,-87.62357097724336,"(41.71423050823523, -87.62357097724336)",2011-07-07
Vacant/Abandoned Building,11-03316676,07/07/2011,Front,,Boarded,,Vacant,False,False,7234,S,WINCHESTER,AVE,60636.0,1164607.59750027,1856692.98489662,17.0,7.0,67.0,41.76237402081518,-87.67225261221523,"(41.76237402081518, -87.67225261221523)",2011-07-07
Vacant/Abandoned Building,11-03316704,07/07/2011,Front,,Boarded,,Vacant,False,False,2046,W,70TH,PL,60636.0,1163934.49282177,1857901.65010723,17.0,7.0,67.0,41.765704935837896,-87.67468572450153,"(41.765704935837896, -87.67468572450153)",2011-07-07
Vacant/Abandoned Building,11-03316737,07/07/2011,Garage,,Open,HOLES IN STRUCTURE,Vacant,False,False,6752,S,ELIZABETH,ST,60636.0,1169152.99060759,1860003.17746978,17.0,7.0,67.0,41.77136054577562,-87.65549747825372,"(41.77136054577562, -87.65549747825372)",2011-07-07
Vacant/Abandoned Building,11-03316782,07/07/2011,Front,,Open,FRONT/BACK,Vacant,False,False,6804,S,MAY,ST,60621.0,1169824.37227113,1859679.35868081,17.0,7.0,68.0,41.7704574001446,-87.65304581617262,"(41.7704574001446, -87.65304581617262)",2011-07-07
Vacant/Abandoned Building,11-03317023,07/07/2011,Rear,,Open,YES,Vacant,False,True,6511,S,PEORIA,ST,60621.0,1171426.12851967,1861665.45397385,16.0,7.0,68.0,41.775872567210996,-87.64711633520416,"(41.775872567210996, -87.64711633520416)",2011-07-07
Vacant/Abandoned Building,11-03317049,07/07/2011,,,,,,,,4895,N,PAULINA,ST,60640.0,1164334.20291757,1932977.72938388,47.0,20.0,3.0,41.97171191092289,-87.67109775573105,"(41.971711910922885, -87.67109775573105)",2011-07-07
Vacant/Abandoned Building,11-03317065,07/07/2011,Front,,Open,WINDOWS AND REAR  DOORS,Vacant,False,True,12442,S,PARNELL,AVE,60628.0,1174895.0806834998,1822388.98350531,34.0,5.0,53.0,41.668015873212255,-87.63556654020296,"(41.66801587321226, -87.63556654020296)",2011-07-07
Vacant/Abandoned Building,11-03317368,07/07/2011,,,Open,FRONT/REAR,Vacant,,,8319,S,COLFAX,AVE,60617.0,1194949.92483165,1850314.35820045,7.0,4.0,46.0,41.74417686850689,-87.56125501420681,"(41.74417686850689, -87.56125501420681)",2011-07-07
Vacant/Abandoned Building,11-03317388,07/07/2011,Front,,Open,,Vacant,False,False,2559,W,36TH,ST,60632.0,1159822.73242446,1880708.51972332,12.0,9.0,58.0,41.828375407988034,-87.68913031180028,"(41.82837540798803, -87.6891303118003)",2011-07-07
Vacant/Abandoned Building,11-03317448,07/07/2011,,,,,,,,400,N,CICERO,AVE,60644.0,1144297.04596872,1902295.49991111,28.0,15.0,25.0,41.88791827464629,-87.7455511845016,"(41.88791827464629, -87.7455511845016)",2011-07-07
Vacant/Abandoned Building,11-03317453,07/07/2011,,,,,,,,10027,S,DR MARTIN LUTHER KING JR,DR,60628.0,1180679.03490438,1838494.44480439,9.0,5.0,49.0,41.7120810579564,-87.61390640895794,"(41.7120810579564, -87.61390640895794)",2011-07-07
Vacant/Abandoned Building,11-03317460,07/07/2011,,,,,,,,2819,S,HILLOCK,AVE,60608.0,1167695.58572532,1886283.14989018,11.0,9.0,60.0,41.84350710382558,-87.66008519280949,"(41.84350710382558, -87.66008519280949)",2011-07-07
Vacant/Abandoned Building,11-03317466,07/07/2011,Rear,,Open,"DOORS, WINDOWS, GARAGE.",Vacant,False,True,6956,S,ANTHONY,AVE,60637.0,1180992.19070349,1859009.42071034,6.0,3.0,69.0,41.76836932993411,-87.6121299160987,"(41.76836932993411, -87.61212991609868)",2011-07-07
Vacant/Abandoned Building,11-03317467,07/07/2011,,,,,,,,404,W,HARRISON,ST,60607.0,1173616.01877015,1897597.2173322,2.0,1.0,28.0,41.87442432834179,-87.63802238705166,"(41.87442432834179, -87.63802238705165)",2011-07-07
Vacant/Abandoned Building,11-03317470,07/07/2011,,,,,,,,4226,S,ST LAWRENCE,AVE,60653.0,1180963.78998218,1877019.12998506,4.0,2.0,38.0,41.81779023926511,-87.61167986972413,"(41.81779023926511, -87.61167986972413)",2011-07-07
Vacant/Abandoned Building,11-03317471,07/07/2011,,,,,,,,6516,S,HONORE,ST,60636.0,1165133.160275,1861465.96347732,15.0,7.0,67.0,41.77546061851288,-87.67019146603691,"(41.77546061851288, -87.6701914660369)",2011-07-07
Vacant/Abandoned Building,11-03317506,07/07/2011,,,,,,,,3317,S,MORGAN,ST,60608.0,1170186.60321985,1882845.08111461,11.0,9.0,60.0,41.83401878327556,-87.65104396459951,"(41.83401878327556, -87.65104396459951)",2011-07-07
Vacant/Abandoned Building,11-03317509,07/07/2011,,,,,,,,4215,W,ARTHINGTON,ST,60624.0,1148366.86247052,1895778.7977195,24.0,11.0,26.0,41.86995822813143,-87.73077335145847,"(41.86995822813143, -87.73077335145847)",2011-07-07
Vacant/Abandoned Building,11-03317512,07/07/2011,,,,,,,,4074,S,LAKE PARK,AVE,60653.0,1183809.50012144,1878085.45012332,4.0,21.0,36.0,41.82065024014007,-87.60120774036251,"(41.82065024014007, -87.60120774036251)",2011-07-07
Vacant/Abandoned Building,11-03317546,07/07/2011,Front,,Open,FRONT DOOR,Vacant,False,False,7660,S,HOYNE,AVE,60620.0,1163693.80840596,1853839.52990528,18.0,6.0,71.0,41.75456295461176,-87.67568174252472,"(41.754562954611764, -87.67568174252472)",2011-07-07
Vacant/Abandoned Building,11-03317763,07/07/2011,Front,,Open,ALL,Vacant,False,False,7131,S,DAMEN,AVE,60636.0,1164257.08723398,1857368.3560047,17.0,7.0,67.0,41.764234718130375,-87.67351829912016,"(41.764234718130375, -87.67351829912015)",2011-07-07
Vacant/Abandoned Building,11-03317859,07/07/2011,Front,,Open,FRONT,Vacant,False,False,6408,S,WOLCOTT,AVE,60636.0,1164785.26618864,1862176.43197044,15.0,7.0,67.0,41.77741759233118,-87.6714467642222,"(41.77741759233118, -87.67144676422221)",2011-07-07
Vacant/Abandoned Building,11-03318024,07/07/2011,Rear,,Open,ALL AROUND-ALSO GARAGE. KIDS BROKE INSIDE,Vacant,False,True,5138,S,LONG,AVE,60638.0,1141229.86393258,1870023.43338222,23.0,8.0,56.0,41.79941616810121,-87.75760949514763,"(41.79941616810121, -87.75760949514762)",2011-07-07
Vacant/Abandoned Building,11-03318222,07/07/2011,,,,,,,,8408,S,KINGSTON,AVE,60617.0,1194630.3674267,1849717.45872405,7.0,4.0,46.0,41.74254678904768,-87.56244547502575,"(41.74254678904768, -87.56244547502575)",2011-07-07
Vacant/Abandoned Building,11-03318664,07/07/2011,Front,,Open,BACK WINDOWS,Vacant,False,True,2050,E,83RD,ST,60617.0,1191390.42011028,1850347.3458125999,8.0,4.0,46.0,41.74435428876053,-87.5742961076466,"(41.74435428876053, -87.5742961076466)",2011-07-07
Vacant/Abandoned Building,11-03318729,07/07/2011,Front,,Open,FRONT DOOR,Vacant,False,True,1109,W,103RD,PL,60643.0,1170754.48043172,1836175.67268615,34.0,22.0,73.0,41.70593979695954,-87.65032017522087,"(41.70593979695954, -87.65032017522088)",2011-07-07
Vacant/Abandoned Building,11-03318836,07/07/2011,Front,,Open,,Vacant,False,False,3245,N,KENNETH,AVE,60641.0,1146143.20458246,1921205.14097696,31.0,17.0,16.0,41.93977334727512,-87.73828962180653,"(41.939773347275114, -87.73828962180653)",2011-07-07
Vacant/Abandoned Building,11-03319041,07/07/2011,Front,,Open,REAR,Vacant,False,False,7517,S,LUELLA,AVE,60649.0,1192511.69581099,1855561.90427084,7.0,4.0,43.0,41.75863625819611,-87.57001818928255,"(41.75863625819611, -87.57001818928255)",2011-07-07
Vacant/Abandoned Building,11-03319058,07/07/2011,Front,,Open,IN THE REAR OF THE BUILDING.,Vacant,False,False,4829,W,WASHINGTON,BLVD,60644.0,1144175.62927425,1900067.54028359,28.0,15.0,25.0,41.88180676946168,-87.74605306455057,"(41.881806769461676, -87.74605306455057)",2011-07-07
Vacant/Abandoned Building,11-03319218,07/07/2011,Front,,Open,,Vacant,False,False,2712,E,77TH,ST,60649.0,1195708.46657408,1854433.14317922,7.0,4.0,43.0,41.75546042087293,-87.55833976297826,"(41.75546042087293, -87.55833976297826)",2011-07-07
Vacant/Abandoned Building,11-03319315,07/07/2011,Front,,Boarded,THE REAR GATE IS NOT SECURE AND PEOPLE ARE COMING ONTO THE PROPERTY,Vacant,False,True,4627,S,ST LAWRENCE,AVE,60653.0,1181040.27118832,1874367.55989988,4.0,2.0,38.0,41.810512358046715,-87.61148102240381,"(41.81051235804672, -87.61148102240381)",2011-07-07
Vacant/Abandoned Building,11-03319627,07/07/2011,,,Open,ROOF CAVE IN,Vacant,,,4432,W,FIFTH,AVE,60624.0,1146864.8906981,1895773.98831793,24.0,11.0,26.0,41.86997382975608,-87.73628771840606,"(41.86997382975608, -87.73628771840606)",2011-07-07
Vacant/Abandoned Building,11-03319868,07/07/2011,Garage,,Open,,Vacant,False,True,7711,S,THROOP,ST,60620.0,1169220.06803172,1853644.3811749,17.0,6.0,71.0,41.75390973354096,-87.65543528875595,"(41.75390973354095, -87.65543528875595)",2011-07-07
Vacant/Abandoned Building,11-03319960,07/07/2011,Front,,Open,REAR DOOR,Vacant,False,True,1414,W,119TH,ST,60643.0,1168987.26949883,1825835.30402536,34.0,5.0,53.0,41.677602405742824,-87.65708885447968,"(41.67760240574283, -87.65708885447967)",2011-07-07
Vacant/Abandoned Building,11-03320285,07/07/2011,Garage,,Open,REAR: OPENED BACK DOOR AGAIN,Vacant,False,True,1745,N,CENTRAL PARK,AVE,60647.0,1152102.21389988,1911540.810091,26.0,14.0,23.0,41.91313801445908,-87.71664375208924,"(41.91313801445908, -87.71664375208923)",2011-07-07
Vacant/Abandoned Building,11-03320341,07/07/2011,Rear,,Boarded,,Vacant,False,False,7015,S,EMERALD,AVE,60621.0,1172518.76479285,1858353.12782641,6.0,7.0,68.0,41.766759156827604,-87.64320827452083,"(41.7667591568276, -87.64320827452083)",2011-07-07
Vacant/Abandoned Building,11-03320417,07/07/2011,Rear,,Boarded,,Vacant,False,False,7017,S,EMERALD,AVE,60621.0,1172519.16479285,1858339.72782641,6.0,7.0,68.0,41.766722376803216,-87.6432072024535,"(41.76672237680322, -87.6432072024535)",2011-07-07
Vacant/Abandoned Building,11-03320567,07/07/2011,Rear,,Open,REAR,Vacant,False,True,535,E,88TH,PL,60619.0,1181359.2936201,1846419.68962098,6.0,6.0,44.0,41.733813279062865,-87.61117165272245,"(41.733813279062865, -87.61117165272245)",2011-07-07
Vacant/Abandoned Building,11-03320596,07/07/2011,Rear,,Open,REAR WINDOW,Vacant,False,True,537,E,88TH,PL,60619.0,1181372.5936201,1846420.08962098,6.0,6.0,44.0,41.73381407046874,-87.61112291611148,"(41.733814070468746, -87.61112291611148)",2011-07-07
Vacant/Abandoned Building,11-03320650,07/07/2011,Front,,Open,2ND FL,Vacant,False,True,9244,S,ANTHONY,AVE,60617.0,1196336.50319331,1844500.19593346,7.0,4.0,48.0,41.728188079348705,-87.55636687742546,"(41.7281880793487, -87.55636687742546)",2011-07-07
Vacant/Abandoned Building,11-03320720,07/07/2011,Garage,,Open,,Vacant,False,False,3927,N,ST LOUIS,AVE,60618.0,1152357.89490547,1925886.48989223,35.0,17.0,16.0,41.952498668798405,-87.71532453140415,"(41.952498668798405, -87.71532453140416)",2011-07-07
Vacant/Abandoned Building,11-03320777,07/07/2011,Rear,,Open,REAR DOOR -REAR GATE-,Vacant,False,False,6771,W,TALCOTT,AVE,60656.0,1130125.46689957,1936090.26568212,41.0,16.0,10.0,41.98090972953247,-87.7968181721473,"(41.98090972953247, -87.7968181721473)",2011-07-07
Vacant/Abandoned Building,11-03320823,07/07/2011,Front,,Open,FRONT,Vacant,False,True,11929,S,WENTWORTH,AVE,60628.0,1177085.57671875,1825840.4599832,9.0,5.0,53.0,41.677438315505796,-87.62744636620667,"(41.677438315505796, -87.62744636620667)",2011-07-07
Vacant/Abandoned Building,11-03320924,07/07/2011,Front,,Open,FRONT,Vacant,False,False,6951,S,ABERDEEN,ST,60621.0,1170182.71107688,1858711.63226925,17.0,7.0,68.0,41.76779405308147,-87.651760400347,"(41.767794053081474, -87.651760400347)",2011-07-07
Vacant/Abandoned Building,11-03320931,07/07/2011,Front,,Open,FRONT,Vacant,False,False,6952,S,ABERDEEN,ST,60621.0,1170182.91107688,1858704.93226925,17.0,7.0,68.0,41.7677756630942,-87.65175986186554,"(41.7677756630942, -87.65175986186554)",2011-07-07
Vacant/Abandoned Building,11-03320951,07/07/2011,Front,,Open,FRONT,Vacant,False,False,6945,S,ABERDEEN,ST,60621.0,1170181.55846884,1858751.75802352,17.0,7.0,68.0,41.76790418823376,-87.65176345968433,"(41.767904188233764, -87.65176345968433)",2011-07-07
Vacant/Abandoned Building,11-03320953,07/07/2011,Front,,Open,FRONT,Vacant,False,False,6932,S,ABERDEEN,ST,60621.0,1170179.15846884,1858838.75802352,17.0,7.0,68.0,41.7681429792969,-87.6517697297942,"(41.768142979296904, -87.6517697297942)",2011-07-07
Vacant/Abandoned Building,11-03320960,07/07/2011,Front,,Open,FRONT,Vacant,False,False,6927,S,ABERDEEN,ST,60621.0,1170178.25846884,1858872.25802352,17.0,7.0,68.0,41.768234927052326,-87.65177205567923,"(41.76823492705233, -87.65177205567922)",2011-07-07
Vacant/Abandoned Building,11-03320970,07/07/2011,Front,,Open,FRONT,Vacant,True,True,6943,S,ABERDEEN,ST,60621.0,1170181.25846884,1858765.15802352,17.0,7.0,68.0,41.76794096603293,-87.65176417010522,"(41.767940966032924, -87.65176417010524)",2011-07-07
Vacant/Abandoned Building,11-03321225,07/07/2011,Front,,Open,FRONT AND REAR OF THE BUILDING.,Vacant,False,True,7024,S,LAFLIN,ST,60636.0,1167548.92353265,1858155.00097617,17.0,7.0,67.0,41.76632345047509,-87.66143036056614,"(41.766323450475085, -87.66143036056614)",2011-07-07
Vacant/Abandoned Building,11-03321272,07/07/2011,Front,,Open,ALL,Vacant,False,False,217,W,112TH,ST,60628.0,1176820.74488351,1830673.78079931,34.0,5.0,49.0,41.690707630373396,-87.62827094374052,"(41.690707630373396, -87.62827094374052)",2011-07-07
Vacant/Abandoned Building,11-03321312,07/07/2011,Rear,,Open,,Vacant,False,True,73,E,101ST,ST,60628.0,1178779.30769597,1838029.49406566,9.0,5.0,49.0,41.710848517192886,-87.62087778228748,"(41.71084851719288, -87.62087778228748)",2011-07-07
Vacant/Abandoned Building,11-03321378,07/07/2011,Front,,Open,FRONT,Vacant,False,False,11930,S,LAFAYETTE,AVE,60628.0,1178061.90110765,1825855.42982239,9.0,5.0,53.0,41.67745739033808,-87.62387228027254,"(41.67745739033808, -87.62387228027254)",2011-07-07
Vacant/Abandoned Building,11-03321415,07/07/2011,Garage,,Open,,Vacant,False,True,11558,S,ADA,ST,60643.0,1169405.55632459,1828110.71520876,34.0,5.0,53.0,41.68383749949935,-87.65549226160503,"(41.68383749949935, -87.65549226160503)",2011-07-07
Vacant/Abandoned Building,11-03321623,07/07/2011,,,,,,,,7151,S,MAPLEWOOD,AVE,60629.0,1160611.12526676,1857145.21662925,18.0,8.0,66.0,41.763698359792,-87.68688787174135,"(41.763698359792, -87.68688787174136)",2011-07-07
Vacant/Abandoned Building,11-03321950,07/07/2011,Front,,Boarded,SECURED,Vacant,False,False,8100,S,MANISTEE,AVE,60617.0,1195911.02952348,1851792.62908157,7.0,4.0,46.0,41.74820964166295,-87.55768467477921,"(41.74820964166295, -87.55768467477921)",2011-07-07
Vacant/Abandoned Building,11-03322008,07/07/2011,Front,,Open,ALL THROUGHOUT THE HOME,Vacant,False,True,7706,S,MAY,ST,60620.0,1169988.027584,1853700.63479285,17.0,6.0,71.0,41.75404746155171,-87.652619348576,"(41.754047461551714, -87.652619348576)",2011-07-07
Vacant/Abandoned Building,11-03322013,07/07/2011,Front,,Open,REAR AND SIDE,Vacant,False,True,1141,W,77TH,ST,60620.0,1169942.527584,1853739.43479285,17.0,6.0,71.0,41.75415492165645,-87.65278496609993,"(41.75415492165645, -87.65278496609994)",2011-07-07
Vacant/Abandoned Building,11-03322041,07/07/2011,,,,,,,,10828,S,WABASH,AVE,60628.0,1178496.77782786,1833181.8906926997,9.0,5.0,49.0,41.697552433826594,-87.622059085827,"(41.697552433826594, -87.622059085827)",2011-07-07
Vacant/Abandoned Building,11-03322070,07/07/2011,,,,,,,,6932,S,WINCHESTER,AVE,60636.0,1164552.32593183,1858710.31563094,17.0,7.0,67.0,41.767911020190475,-87.67239837766105,"(41.76791102019048, -87.67239837766107)",2011-07-07
Vacant/Abandoned Building,11-03322292,07/07/2011,Front,,Open,"WINDOWS, DOORS",Vacant,False,True,4139,W,WEST END,AVE,60624.0,1148770.51672492,1900651.85290973,28.0,11.0,26.0,41.88332266534107,-87.72916546716354,"(41.88332266534107, -87.72916546716355)",2011-07-07
Vacant/Abandoned Building,11-03322303,07/07/2011,Front,,Open,REAR & GANGWAY DOORS AND WINDOWS OPEN UNSECURED,Vacant,True,True,1425,S,KEDVALE,AVE,60623.0,1148947.19419031,1892886.01998898,24.0,10.0,29.0,41.86200890207217,-87.72871755876942,"(41.862008902072176, -87.72871755876942)",2011-07-07
Vacant/Abandoned Building,11-03322335,07/07/2011,Front,,Open,,Vacant,False,True,8155,S,MARSHFIELD,AVE,60620.0,1166760.9032001998,1850628.50767474,21.0,6.0,71.0,41.74568657055425,-87.66453321129227,"(41.74568657055425, -87.66453321129227)",2011-07-07
Vacant/Abandoned Building,11-03322369,07/07/2011,Front,,Open,BACK & GARAGE,Vacant,False,True,11360,S,ELIZABETH,ST,60643.0,1170030.87990725,1829343.58420662,34.0,22.0,75.0,41.687207171786476,-87.65316752035204,"(41.687207171786476, -87.65316752035203)",2011-07-07
Vacant/Abandoned Building,11-03322389,07/07/2011,Front,,Open,,Vacant,False,False,6000,S,RACINE,AVE,60636.0,1169347.08077109,1864998.45721151,16.0,7.0,67.0,41.7850640019257,-87.6546414945364,"(41.785064001925704, -87.65464149453639)",2011-07-07
Vacant/Abandoned Building,11-03322400,07/07/2011,Front,,Open,,Vacant,False,False,671,W,66TH,ST,60621.0,1172847.94951918,1861116.46891825,6.0,7.0,68.0,41.774334837109286,-87.64192026158025,"(41.774334837109286, -87.64192026158025)",2011-07-07
Vacant/Abandoned Building,11-03322407,07/07/2011,,,,,,,,3753,W,DICKENS,AVE,60647.0,1151014.44121945,1913693.38739383,26.0,25.0,22.0,41.91906627591712,-87.72058351022119,"(41.91906627591712, -87.72058351022119)",2011-07-07
Vacant/Abandoned Building,11-03322446,07/07/2011,Front,,Open,,Vacant,False,False,7420,S,NORMAL,AVE,60621.0,1174245.05986773,1855718.55999877,17.0,7.0,68.0,41.75949140675512,-87.63695892773924,"(41.75949140675512, -87.63695892773924)",2011-07-07
Vacant/Abandoned Building,11-03322496,07/07/2011,Front,,Open,,Vacant,False,False,1256,W,72ND,ST,60636.0,1169066.67199278,1857032.20701603,17.0,7.0,67.0,41.76320968992399,-87.65589966678915,"(41.76320968992399, -87.65589966678915)",2011-07-07
Vacant/Abandoned Building,11-03322700,07/07/2011,Front,,Open,ENTIRE BLD IS OPEN DUE TO FIRE ROOF HAS COLLAPSED -,Vacant,True,True,3342,S,CALUMET,AVE,60616.0,1179143.35962412,1882891.45568222,2.0,21.0,35.0,41.83394611682958,-87.61817838393044,"(41.83394611682958, -87.61817838393044)",2011-07-07
Vacant/Abandoned Building,11-03322980,07/07/2011,Front,,Open,,Vacant,False,False,7955,S,SOUTH SHORE,DR,60617.0,1198523.83922636,1852821.044428,7.0,4.0,46.0,41.750966653591156,-87.54807629480942,"(41.75096665359116, -87.54807629480942)",2011-07-07
Vacant/Abandoned Building,11-03322981,07/07/2011,Front,,Open,,Vacant,False,False,8300,S,CONSTANCE,AVE,60617.0,1189973.93078882,1850307.97696585,8.0,4.0,45.0,41.74428042656465,-87.57948746483942,"(41.74428042656465, -87.57948746483942)",2011-07-07
Vacant/Abandoned Building,11-03322995,07/07/2011,Front,,Open,BASEMENT & WINDOWS,Vacant,False,False,7831,S,WOODLAWN,AVE,60619.0,1185577.70998824,1853311.33002946,8.0,4.0,45.0,41.752626486210396,-87.59550111966865,"(41.752626486210396, -87.59550111966865)",2011-07-07
Vacant/Abandoned Building,11-03323045,07/07/2011,Front,,Open,"FRONT/REAR DOORS, WINDOWS -[GARBAGE AND HIGH WEEDS AROUND PROPERTY]",Vacant,False,False,2942,N,MELVINA,AVE,60634.0,1134560.44980889,1918905.19846806,29.0,25.0,19.0,41.93367478419197,-87.78091489649859,"(41.93367478419197, -87.7809148964986)",2011-07-07
Vacant/Abandoned Building,11-03323092,07/07/2011,Front,,Open,BACK,Vacant,False,False,11573,S,SANGAMON,ST,60643.0,1171896.62271283,1827927.21880273,34.0,5.0,53.0,41.683279809459144,-87.64637863115921,"(41.68327980945914, -87.6463786311592)",2011-07-07
Vacant/Abandoned Building,11-03323134,07/07/2011,Front,,Open,,Vacant,False,True,725,E,92ND,ST,60619.0,1182676.90773355,1844130.98050655,9.0,6.0,44.0,41.72750235617279,-87.60641541176079,"(41.72750235617279, -87.60641541176079)",2011-07-07
Vacant/Abandoned Building,11-03323202,07/07/2011,Front,,Boarded,FRONT DOOR IS OPEN,Vacant,False,True,5229,S,PEORIA,ST,60609.0,1171194.09988108,1870156.2736709,3.0,9.0,61.0,41.799177416886046,-87.64771871681977,"(41.79917741688605, -87.64771871681977)",2011-07-07
Vacant/Abandoned Building,11-03323258,07/07/2011,Front,,Open,,Vacant,False,False,1522,W,NORWOOD,ST,60660.0,1165074.27990726,1940276.58308602,48.0,24.0,77.0,41.991724467554604,-87.66816797479694,"(41.9917244675546, -87.66816797479693)",2011-07-07
Vacant/Abandoned Building,11-03323297,07/07/2011,Front,,Boarded,,Vacant,False,True,1403,E,73RD,ST,60619.0,1186835.76450381,1856874.1742701,5.0,3.0,43.0,41.76237356632858,-87.59077823769405,"(41.762373566328584, -87.59077823769404)",2011-07-07
Vacant/Abandoned Building,11-03323471,07/07/2011,Front,,Open,,Vacant,False,False,7645,S,PHILLIPS,AVE,60649.0,1193858.17772169,1854745.7896175,7.0,4.0,43.0,41.756363885475174,-87.56511023542465,"(41.75636388547517, -87.56511023542465)",2011-07-07
Vacant/Abandoned Building,11-03323705,07/07/2011,Front,,Open,FRONT & REAR,Vacant,False,True,737,W,50TH,PL,60609.0,1172240.8900081,1871382.16000471,3.0,9.0,61.0,41.80251840175004,-87.64384383595804,"(41.802518401750035, -87.64384383595805)",2011-07-07
Vacant/Abandoned Building,11-03323915,07/08/2011,Front,,Open,,Vacant,False,False,1399,W,31ST,PL,60608.0,1167518.18850481,1883888.31991042,11.0,9.0,60.0,41.836939275813705,-87.66080501517412,"(41.8369392758137, -87.66080501517412)",2011-07-08
Vacant/Abandoned Building,11-03324059,07/08/2011,Front,,Open,,Vacant,False,False,4456,W,AUGUSTA,BLVD,60651.0,1146479.18999792,1906287.99271844,37.0,11.0,23.0,41.8988328209224,-87.73743572043385,"(41.898832820922394, -87.73743572043384)",2011-07-08
Vacant/Abandoned Building,11-03324069,07/08/2011,Front,,Open,UNKNONW,Vacant,False,False,8142,S,ESCANABA,AVE,60617.0,1196911.26478094,1851538.65061968,7.0,4.0,46.0,41.747487904467185,-87.55402798810971,"(41.74748790446719, -87.5540279881097)",2011-07-08
Vacant/Abandoned Building,11-03324133,07/08/2011,Rear,,Open,,Vacant,False,False,4438,W,GLADYS,AVE,60624.0,1146857.69478981,1897986.27572022,24.0,11.0,26.0,41.87604474905911,-87.73625763967812,"(41.87604474905911, -87.73625763967813)",2011-07-08
Vacant/Abandoned Building,11-03324506,07/08/2011,Rear,,Open,ALL,Vacant,False,True,712,N,LATROBE,AVE,60644.0,1141231.13801156,1904208.21877659,28.0,15.0,25.0,41.89322408423965,-87.75676315658336,"(41.89322408423965, -87.75676315658338)",2011-07-08
Vacant/Abandoned Building,11-03324680,07/08/2011,Front,,Open,FRONT DOORS,Vacant,False,True,5156,W,BLOOMINGDALE,AVE,60639.0,1141801.74407629,1911481.91016849,37.0,25.0,25.0,41.913173385018865,-87.75448724652345,"(41.91317338501887, -87.75448724652345)",2011-07-08
Vacant/Abandoned Building,11-03324720,07/08/2011,Front,,Open,USED AS A DUMPING GROUND....,Vacant,False,True,2414,N,MARMORA,AVE,60639.0,1136656.70419027,1915438.5614255,29.0,25.0,19.0,41.92412462433719,-87.77329434314785,"(41.92412462433719, -87.77329434314784)",2011-07-08
