,Creation Date,Status,Completion Date,Service Request Number,Type of Service Request,License Plate,Vehicle Make/Model,Vehicle Color,Current Activity,Most Recent Action,How Many Days Has the Vehicle Been Reported as Parked?,Street Address,ZIP Code,X Coordinate,Y Coordinate,Ward,Police District,Community Area,SSA,Latitude,Longitude,Location,date
21950,07/21/2011,Completed,08/08/2011,11-03427142,Abandoned Vehicle Complaint,H737655,Honda,Black,FVI - Outcome,Need Vehicle Tow Report,30.0,501 N MAY ST,60642.0,,,27.0,13.0,24.0,,41.891154139774905,-87.65564440722024,"(41.89115413977491, -87.65564440722024)",2011-07-21
22202,07/28/2011,Completed - Dup,09/22/2011,11-03478314,Abandoned Vehicle Complaint,,,,,,,70 W 125TH ST,60628.0,1178062.92018656,1822079.98510181,9.0,5.0,53.0,,41.6672006454615,-87.62458357759036,"(41.6672006454615, -87.62458357759034)",2011-07-28
22496,07/28/2011,Completed - Dup,09/22/2011,11-03478333,Abandoned Vehicle Complaint,,,,,,,70 W 125TH ST,60628.0,1178062.92018656,1822079.98510181,9.0,5.0,53.0,,41.6672006454615,-87.62458357759036,"(41.6672006454615, -87.62458357759034)",2011-07-28
22642,07/28/2011,Completed - Dup,09/22/2011,11-03478343,Abandoned Vehicle Complaint,,,,,,,70 W 125TH ST,60628.0,1178062.92018656,1822079.98510181,9.0,5.0,53.0,,41.6672006454615,-87.62458357759036,"(41.6672006454615, -87.62458357759034)",2011-07-28
22663,07/28/2011,Completed - Dup,09/22/2011,11-03478360,Abandoned Vehicle Complaint,,,,,,,70 W 125TH ST,60628.0,1178062.92018656,1822079.98510181,9.0,5.0,53.0,,41.6672006454615,-87.62458357759036,"(41.6672006454615, -87.62458357759034)",2011-07-28
22874,07/28/2011,Completed - Dup,09/22/2011,11-03478385,Abandoned Vehicle Complaint,,,,,,,70 W 125TH ST,60628.0,1178062.92018656,1822079.98510181,9.0,5.0,53.0,,41.6672006454615,-87.62458357759036,"(41.6672006454615, -87.62458357759034)",2011-07-28
22895,07/28/2011,Completed - Dup,09/22/2011,11-03478426,Abandoned Vehicle Complaint,,,,,,,70 W 125TH ST,60628.0,1178062.92018656,1822079.98510181,9.0,5.0,53.0,,41.6672006454615,-87.62458357759036,"(41.6672006454615, -87.62458357759034)",2011-07-28
23130,07/28/2011,Completed - Dup,09/22/2011,11-03478459,Abandoned Vehicle Complaint,,,,,,,70 W 125TH ST,60628.0,1178062.92018656,1822079.98510181,9.0,5.0,53.0,,41.6672006454615,-87.62458357759036,"(41.6672006454615, -87.62458357759034)",2011-07-28
23215,07/28/2011,Completed - Dup,09/22/2011,11-03478491,Abandoned Vehicle Complaint,,,,,,,70 W 125TH ST,60628.0,1178062.92018656,1822079.98510181,9.0,5.0,53.0,,41.6672006454615,-87.62458357759036,"(41.6672006454615, -87.62458357759034)",2011-07-28
23426,07/28/2011,Completed - Dup,09/22/2011,11-03478808,Abandoned Vehicle Complaint,,,,,,,70 W 125TH ST,60628.0,1178062.92018656,1822079.98510181,9.0,5.0,53.0,,41.6672006454615,-87.62458357759036,"(41.6672006454615, -87.62458357759034)",2011-07-28
23573,07/28/2011,Completed - Dup,09/22/2011,11-03478891,Abandoned Vehicle Complaint,,,,,,,70 W 125TH ST,60628.0,1178062.92018656,1822079.98510181,9.0,5.0,53.0,,41.6672006454615,-87.62458357759036,"(41.6672006454615, -87.62458357759034)",2011-07-28
23845,07/28/2011,Completed - Dup,09/22/2011,11-03478933,Abandoned Vehicle Complaint,,,,,,,70 W 125TH ST,60628.0,1178062.92018656,1822079.98510181,9.0,5.0,53.0,,41.6672006454615,-87.62458357759036,"(41.6672006454615, -87.62458357759034)",2011-07-28
23866,07/28/2011,Completed - Dup,09/22/2011,11-03478934,Abandoned Vehicle Complaint,,,,,,,70 W 125TH ST,60628.0,1178062.92018656,1822079.98510181,9.0,5.0,53.0,,41.6672006454615,-87.62458357759036,"(41.6672006454615, -87.62458357759034)",2011-07-28
28444,07/01/2011,Completed - Dup,02/16/2012,11-03283776,Abandoned Vehicle Complaint,,,,,,,400 E LOWER WACKER DR,60601.0,1179182.06297533,1902386.82172984,42.0,1.0,32.0,,41.88755113170046,-87.61735600828747,"(41.88755113170046, -87.61735600828747)",2011-07-01
28445,07/01/2011,Completed - Dup,07/05/2011,11-03285071,Abandoned Vehicle Complaint,NO PLATES,Chevrolet,Red,FVI - Outcome,Create Work Order,180.0,3849 W MAYPOLE AVE,60624.0,1150711.29067235,1900938.98057872,28.0,11.0,26.0,,41.88395656846024,-87.72260957313887,"(41.88395656846024, -87.72260957313888)",2011-07-01
28446,07/01/2011,Completed - Dup,07/06/2011,11-03283259,Abandoned Vehicle Complaint,K395420,,Purple,FVI - Outcome,Create Work Order,,1318 W 32ND PL,60608.0,1167832.1070917,1883206.09711771,11.0,9.0,60.0,,41.83504420684217,-87.65989420331442,"(41.83504420684217, -87.65989420331442)",2011-07-01
28447,07/01/2011,Completed - Dup,07/06/2011,11-03283260,Abandoned Vehicle Complaint,T133940,,Blue,FVI - Outcome,Create Work Order,,1318 W 32ND PL,60608.0,1167832.1070917,1883206.09711771,11.0,9.0,60.0,,41.83504420684217,-87.65989420331442,"(41.83504420684217, -87.65989420331442)",2011-07-01
28448,07/01/2011,Completed - Dup,07/07/2011,11-03286121,Abandoned Vehicle Complaint,3168914,Honda,Black,FVI - Outcome,Create Work Order,30.0,447 W ROSLYN PL,60614.0,1172836.14292277,1917020.61130603,43.0,23.0,7.0,23.0,41.9274380366322,-87.64086617522787,"(41.927438036632196, -87.64086617522788)",2011-07-01
28449,07/01/2011,Completed - Dup,07/08/2011,11-03284007,Abandoned Vehicle Complaint,,,,,,,1145 W GARFIELD BLVD,60621.0,1169540.90010835,1868188.09612699,16.0,7.0,68.0,,41.793697572749885,-87.65416240310391,"(41.79369757274988, -87.65416240310391)",2011-07-01
28450,07/01/2011,Completed - Dup,07/19/2011,11-03290136,Abandoned Vehicle Complaint,677M139  TEMPORARY,Ford,Maroon,FVI - Outcome,Create Work Order,14.0,3701 N MONTICELLO AVE,60618.0,1151399.23439421,1924359.51398814,35.0,17.0,16.0,,41.94840243521556,-87.71874376709049,"(41.94840243521556, -87.71874376709049)",2011-07-01
28451,07/01/2011,Completed - Dup,07/20/2011,11-03284147,Abandoned Vehicle Complaint,L471523,Jaguar,Bronze,FVI - Outcome,Create Work Order,,2924 N WHIPPLE ST,60618.0,1155537.68839898,1919285.71562123,35.0,14.0,21.0,,41.93464851392461,-87.70397146521887,"(41.93464851392461, -87.70397146521886)",2011-07-01
28452,07/01/2011,Completed - Dup,07/22/2011,11-03285114,Abandoned Vehicle Complaint,F501196,Lincoln,Black,,,21.0,4316 N SPRINGFIELD AVE,60618.0,1149616.35419531,1928400.38401811,39.0,17.0,16.0,,41.95969749916865,-87.72549035808306,"(41.95969749916865, -87.72549035808306)",2011-07-01
28453,07/01/2011,Completed - Dup,07/26/2011,11-03288347,Abandoned Vehicle Complaint,8462862,Chevrolet,Tan,FVI - Outcome,Create Work Order,7.0,3624 N OSCEOLA AVE,60634.0,1125768.89027949,1923163.54521017,36.0,16.0,17.0,,41.94589618361781,-87.81329234904223,"(41.94589618361781, -87.81329234904223)",2011-07-01
28454,07/01/2011,Completed - Dup,08/16/2011,11-03288983,Abandoned Vehicle Complaint,K970673,Ford,White,FVI - Outcome,Need Vehicle Tow Report,20.0,5858 W HENDERSON ST,60634.0,,,38.0,16.0,15.0,,41.94133650416745,-87.77376885181464,"(41.94133650416745, -87.77376885181464)",2011-07-01
28455,07/01/2011,Completed,07/01/2011,11-03285085,Abandoned Vehicle Complaint,H32,Chevrolet,Blue,FVI - Outcome,Return to Owner - Vehicle,90.0,3850 W WEST END AVE,60624.0,,,28.0,11.0,26.0,,41.88308438136431,-87.72264926808413,"(41.88308438136431, -87.72264926808413)",2011-07-01
28456,07/01/2011,Completed,07/05/2011,11-03286846,Abandoned Vehicle Complaint,714M852,Mercury,Blue,FVI - Outcome,Vehicle was moved from original address requested,14.0,1709 N LECLAIRE AVE,60639.0,,,37.0,25.0,25.0,,41.911657211385226,-87.75257716030546,"(41.91165721138523, -87.75257716030546)",2011-07-01
28457,07/01/2011,Completed,07/05/2011,11-03287829,Abandoned Vehicle Complaint,8450752,Toyota,Blue,FVI - Outcome,Vehicle was moved from original address requested,7.0,1262 W EARLY AVE,60660.0,,,48.0,20.0,77.0,,41.98624963489155,-87.66220000086525,"(41.98624963489155, -87.66220000086525)",2011-07-01
28458,07/01/2011,Completed,07/05/2011,11-03290119,Abandoned Vehicle Complaint,G634565,Dodge,Gray,FVI - Outcome,Vehicle was moved from original address requested,15.0,7358 S YATES BLVD,60649.0,,,7.0,3.0,43.0,,41.76089184199532,-87.56656032886559,"(41.76089184199532, -87.5665603288656)",2011-07-01
28459,07/01/2011,Completed,07/06/2011,11-03283258,Abandoned Vehicle Complaint,4850461,Toyota,Gray,FVI - Outcome,Vehicle was moved from original address requested,,1318 W 32ND PL,60608.0,,,11.0,9.0,60.0,,41.83504420684217,-87.65989420331442,"(41.83504420684217, -87.65989420331442)",2011-07-01
28460,07/01/2011,Completed,07/06/2011,11-03284422,Abandoned Vehicle Complaint,1302272,Ford,Silver,FVI - Outcome,Vehicle was moved from original address requested,200.0,2820 E 77TH PL,60649.0,,,7.0,4.0,43.0,49.0,41.75496513081729,-87.5544975888671,"(41.75496513081729, -87.5544975888671)",2011-07-01
28461,07/01/2011,Completed,07/06/2011,11-03287501,Abandoned Vehicle Complaint,NO PLATES,Chevrolet,White,FVI - Outcome,Return to Owner - Vehicle,60.0,3353 W FULTON BLVD,60624.0,,,28.0,11.0,27.0,,41.88624856918354,-87.71083064392597,"(41.88624856918354, -87.71083064392597)",2011-07-01
28462,07/01/2011,Completed,07/06/2011,11-03288425,Abandoned Vehicle Complaint,EVY 5705,Ford,Black,FVI - Outcome,Vehicle was moved from original address requested,16.0,6555 N MAPLEWOOD AVE,60645.0,,,50.0,24.0,2.0,,42.00110138326605,-87.69348501893107,"(42.001101383266054, -87.69348501893106)",2011-07-01
28463,07/01/2011,Completed,07/06/2011,11-03290447,Abandoned Vehicle Complaint,L820606,Mercury,Burgundy,FVI - Outcome,Vehicle was moved from original address requested,7.0,6800 N SACRAMENTO AVE,60645.0,,,50.0,24.0,2.0,,42.00479982749999,-87.70474944724444,"(42.00479982749999, -87.70474944724444)",2011-07-01
28464,07/01/2011,Completed,07/06/2011,11-03290932,Abandoned Vehicle Complaint,78752X,Chevrolet,Green,FVI - Outcome,Vehicle was moved from original address requested,10.0,262 W 26TH ST,60616.0,,,11.0,21.0,34.0,,41.845601286354665,-87.6342287947557,"(41.845601286354665, -87.6342287947557)",2011-07-01
28465,07/01/2011,Completed,07/07/2011,11-03287185,Abandoned Vehicle Complaint,X956554,Cadillac,White,FVI - Outcome,Vehicle was moved from original address requested,30.0,4444 W ROOSEVELT RD,60624.0,,,24.0,11.0,29.0,,41.86611636653787,-87.73675491448068,"(41.866116366537874, -87.73675491448068)",2011-07-01
28466,07/01/2011,Completed,07/08/2011,11-03283815,Abandoned Vehicle Complaint,K154863,Dodge,Black,FVI - Outcome,Need Vehicle Tow Report,7.0,1145 W GARFIELD BLVD,60621.0,,,16.0,7.0,68.0,,41.793697572749885,-87.65416240310391,"(41.79369757274988, -87.65416240310391)",2011-07-01
28467,07/01/2011,Completed,07/08/2011,11-03288410,Abandoned Vehicle Complaint,W-166141,Buick,Brown,FVI - Outcome,Return to Owner - Vehicle,14.0,7756 S CLYDE AVE,60649.0,,,8.0,4.0,43.0,,41.753600513017396,-87.57373118071008,"(41.7536005130174, -87.57373118071008)",2011-07-01
28468,07/01/2011,Completed,07/11/2011,11-03283437,Abandoned Vehicle Complaint,3A02M20,Mazda,Silver,FVI - Outcome,Return to Owner - Vehicle,14.0,10860 S BEVERLY AVE,60643.0,,,34.0,22.0,75.0,,41.69605581548397,-87.65023035159241,"(41.69605581548397, -87.6502303515924)",2011-07-01
28469,07/01/2011,Completed,07/12/2011,11-03286939,Abandoned Vehicle Complaint,X390540,Chevrolet,Blue,FVI - Outcome,Return to Owner - Vehicle,30.0,2932 S BONFIELD ST,60608.0,,,11.0,9.0,60.0,,41.84153940450353,-87.6557189422151,"(41.84153940450353, -87.65571894221509)",2011-07-01
28470,07/01/2011,Completed,07/13/2011,11-03284332,Abandoned Vehicle Complaint,9427527,Bmw,Black,FVI - Outcome,Return to Owner - Vehicle,180.0,1634 W WINONA ST,60640.0,,,47.0,20.0,3.0,,41.97533925001843,-87.67089138340859,"(41.97533925001843, -87.6708913834086)",2011-07-01
28471,07/01/2011,Completed,07/13/2011,11-03285113,Abandoned Vehicle Complaint,H764735,Bmw,White,FVI - Outcome,Vehicle was moved from original address requested,21.0,4310 N SPRINGFIELD AVE,60618.0,,,39.0,17.0,16.0,,41.959528108836224,-87.72548574455412,"(41.959528108836224, -87.72548574455413)",2011-07-01
28472,07/01/2011,Completed,07/13/2011,11-03289372,Abandoned Vehicle Complaint,N245325,Ford,Blue,FVI - Outcome,Vehicle was moved from original address requested,30.0,5219 W PENSACOLA AVE,60641.0,,,38.0,16.0,15.0,,41.95957059158269,-87.75816524764905,"(41.95957059158269, -87.75816524764903)",2011-07-01
28473,07/01/2011,Completed,07/13/2011,11-03290152,Abandoned Vehicle Complaint,171528,Ford,White,FVI - Outcome,Vehicle was moved from original address requested,7.0,4923 N KEYSTONE AVE,60630.0,,,39.0,17.0,14.0,,41.97076273553356,-87.72918790665605,"(41.970762735533555, -87.72918790665605)",2011-07-01
28474,07/01/2011,Completed,07/14/2011,11-03283514,Abandoned Vehicle Complaint,CF5951,Legacy Unknown,Black,FVI - Outcome,Vehicle was moved from original address requested,60.0,1500 W DIVERSEY PKWY,60614.0,,,32.0,19.0,6.0,27.0,41.93255021067082,-87.66604833001381,"(41.93255021067082, -87.66604833001381)",2011-07-01
28475,07/01/2011,Completed,07/14/2011,11-03284404,Abandoned Vehicle Complaint,NONE,Ford,Blue,FVI - Outcome,Vehicle was moved from original address requested,14.0,8645 W CATHERINE AVE,60656.0,,,41.0,16.0,76.0,,41.97673146415462,-87.8430528310662,"(41.97673146415462, -87.8430528310662)",2011-07-01
28476,07/01/2011,Completed,07/14/2011,11-03286930,Abandoned Vehicle Complaint,K381797,Chevrolet,Black,FVI - Outcome,Return to Owner - Vehicle,14.0,8007 S INDIANA AVE,60619.0,,,6.0,6.0,44.0,,41.748948533039375,-87.6195638985422,"(41.748948533039375, -87.61956389854218)",2011-07-01
28477,07/01/2011,Completed,07/14/2011,11-03290238,Abandoned Vehicle Complaint,6JTS075,(Unlisted Make),Black,FVI - Outcome,Vehicle was moved from original address requested,75.0,1220 W DRAPER ST,60614.0,,,32.0,19.0,7.0,,41.92834114014018,-87.65938202037405,"(41.92834114014019, -87.65938202037404)",2011-07-01
28478,07/01/2011,Completed,07/15/2011,11-03286292,Abandoned Vehicle Complaint,H824499,Hyundai,Tan,FVI - Outcome,Vehicle was moved from original address requested,21.0,8124 W ADDISON ST,60634.0,,,36.0,16.0,17.0,,41.94504265719095,-87.83015411172299,"(41.945042657190946, -87.83015411172299)",2011-07-01
28479,07/01/2011,Completed,07/15/2011,11-03290578,Abandoned Vehicle Complaint,85998477,Chevrolet,White,FVI - Outcome,Vehicle was moved from original address requested,,619 E BOWEN AVE,60653.0,,,4.0,2.0,38.0,,41.81931541204307,-87.6110199540601,"(41.81931541204307, -87.6110199540601)",2011-07-01
28480,07/01/2011,Completed,07/18/2011,11-03283798,Abandoned Vehicle Complaint,PA8E8C,Toyota,Gold,FVI - Outcome,Need Vehicle Tow Report,3.0,404 E LOWER WACKER DR,60601.0,,,42.0,1.0,32.0,,41.88755053387945,-87.61720640229397,"(41.88755053387945, -87.61720640229397)",2011-07-01
28481,07/01/2011,Completed,07/18/2011,11-03283857,Abandoned Vehicle Complaint,K747799,Honda,White,FVI - Outcome,Need Vehicle Tow Report,2.0,406 E LOWER WACKER DR,60601.0,,,42.0,1.0,32.0,,41.88755023489586,-87.61713159929928,"(41.88755023489586, -87.61713159929928)",2011-07-01
28482,07/01/2011,Completed,07/19/2011,11-03287362,Abandoned Vehicle Complaint,L59394,Mitsubishi,Gray,FVI - Outcome,Vehicle was moved from original address requested,60.0,3310 W BARRY AVE,60618.0,,,35.0,14.0,21.0,,41.93759677254915,-87.71052300874192,"(41.93759677254915, -87.7105230087419)",2011-07-01
28483,07/01/2011,Completed,07/19/2011,11-03287905,Abandoned Vehicle Complaint,X601330,Mercedes,Gold,FVI - Outcome,Vehicle was moved from original address requested,22.0,2540 N RIDGEWAY AVE,60647.0,,,35.0,25.0,22.0,,41.927569144083954,-87.72088536295341,"(41.927569144083954, -87.72088536295341)",2011-07-01
28484,07/01/2011,Completed,07/22/2011,11-03285149,Abandoned Vehicle Complaint,L349430,Lincoln,Gray,FVI - Outcome,Need Vehicle Tow Report,7.0,7440 S DREXEL AVE,60619.0,,,6.0,3.0,69.0,51.0,41.7592084174654,-87.60309802391635,"(41.759208417465395, -87.60309802391635)",2011-07-01
28485,07/01/2011,Completed,07/22/2011,11-03286955,Abandoned Vehicle Complaint,78110X,Chevrolet,White,FVI - Outcome,Vehicle was moved from original address requested,60.0,3514 W 73RD PL,60629.0,,,18.0,8.0,66.0,,41.759814926967785,-87.71065001223293,"(41.75981492696778, -87.71065001223293)",2011-07-01
28486,07/01/2011,Completed,07/26/2011,11-03286329,Abandoned Vehicle Complaint,8462862,Oldsmobile,Tan,FVI - Outcome,Vehicle was moved from original address requested,7.0,3624 N OSCEOLA AVE,60634.0,,,36.0,16.0,17.0,,41.94589618361781,-87.81329234904223,"(41.94589618361781, -87.81329234904223)",2011-07-01
28487,07/01/2011,Completed,07/27/2011,11-03284168,Abandoned Vehicle Complaint,H87 2961 / ON WHIPPLE AROUND THE CORNER FROM 3024 W ADDISON,Jeep - Year Greater 1988,Blue,FVI - Outcome,Vehicle was moved from original address requested,,3024 W ADDISON ST,60618.0,,,33.0,17.0,16.0,,41.9467616752507,-87.70400522361736,"(41.9467616752507, -87.70400522361736)",2011-07-01
28488,07/01/2011,Completed,08/03/2011,11-03286847,Abandoned Vehicle Complaint,24218N,General Motors Corp.,Blue,FVI - Outcome,Need Vehicle Tow Report,90.0,1122 W BALMORAL AVE,60640.0,,,48.0,20.0,77.0,26.0,41.98009783859036,-87.65890423846916,"(41.98009783859036, -87.65890423846916)",2011-07-01
28489,07/01/2011,Completed,08/08/2011,11-03283763,Abandoned Vehicle Complaint,H269820,Pontiac,Tan,FVI - Outcome,Need Vehicle Tow Report,15.0,4520 W FULTON ST,60624.0,,,28.0,11.0,26.0,,41.885446189657344,-87.73897138097927,"(41.885446189657344, -87.73897138097927)",2011-07-01
28490,07/01/2011,Completed,08/08/2011,11-03285422,Abandoned Vehicle Complaint,H749102,Pontiac,Gray,FVI - Outcome,Need Vehicle Tow Report,30.0,5918 W EASTWOOD AVE,60630.0,,,45.0,16.0,15.0,,41.96504688778879,-87.77553185572793,"(41.96504688778879, -87.77553185572793)",2011-07-01
28491,07/01/2011,Completed,08/08/2011,11-03288085,Abandoned Vehicle Complaint,YFD217,Toyota,White,FVI - Outcome,Need Vehicle Tow Report,20.0,2506 N RICHMOND ST,60647.0,,,35.0,14.0,22.0,,41.92684100876826,-87.70129284064703,"(41.926841008768264, -87.70129284064703)",2011-07-01
28492,07/01/2011,Completed,08/16/2011,11-03288984,Abandoned Vehicle Complaint,K970673,Ford,White,FVI - Outcome,Need Vehicle Tow Report,21.0,5858 W HENDERSON ST,60634.0,,,38.0,16.0,15.0,,41.94133650416745,-87.77376885181464,"(41.94133650416745, -87.77376885181464)",2011-07-01
28493,07/01/2011,Completed,08/18/2011,11-03284357,Abandoned Vehicle Complaint,712L468,Cadillac,White,FVI - Outcome,Need Vehicle Tow Report,7.0,1145 W GARFIELD BLVD,60621.0,1169540.90010835,1868188.09612699,16.0,7.0,68.0,,41.793697572749885,-87.65416240310391,"(41.79369757274988, -87.65416240310391)",2011-07-01
28494,07/01/2011,Completed,08/18/2011,11-03289337,Abandoned Vehicle Complaint,8064754,Dodge,Red,FVI - Outcome,Need Vehicle Tow Report,21.0,4535 S JUSTINE ST,60609.0,,,3.0,9.0,61.0,,41.811193324437006,-87.6636770313588,"(41.811193324437006, -87.66367703135879)",2011-07-01
28495,07/01/2011,Completed,08/24/2011,11-03284245,Abandoned Vehicle Complaint,NO PLATES,Hyundai,Red,FVI - Outcome,Need Vehicle Tow Report,7.0,1145 W GARFIELD BLVD,60621.0,1169540.90010835,1868188.09612699,16.0,7.0,68.0,,41.793697572749885,-87.65416240310391,"(41.79369757274988, -87.65416240310391)",2011-07-01
28496,07/01/2011,Completed,10/29/2012,11-03286366,Abandoned Vehicle Complaint,50435G,Ford,Red,FVI - Outcome,Need Vehicle Tow Report,14.0,1651 S WOLCOTT AVE,60608.0,,,25.0,12.0,31.0,,41.85865433577886,-87.67342441811311,"(41.85865433577886, -87.67342441811311)",2011-07-01
28520,07/02/2011,Completed - Dup,07/18/2011,11-03291440,Abandoned Vehicle Complaint,7137157,Chevrolet,Gray,FVI - Outcome,Create Work Order,45.0,2863 W 22ND PL,60623.0,1157496.59003413,1888922.04002622,12.0,10.0,30.0,,41.85084555422542,-87.69773767214285,"(41.85084555422542, -87.69773767214284)",2011-07-02
28521,07/02/2011,Completed - Dup,07/19/2011,11-03293065,Abandoned Vehicle Complaint,8039497,Dodge,White,FVI - Outcome,Create Work Order,21.0,3120 N BERNARD ST,60618.0,1152848.31996707,1920537.69948905,35.0,14.0,21.0,,41.9380962719447,-87.71382010691183,"(41.9380962719447, -87.71382010691183)",2011-07-02
28522,07/02/2011,Completed - Dup,08/08/2011,11-03291471,Abandoned Vehicle Complaint,H786456,Toyota,Green,FVI - Outcome,Create Work Order,60.0,2028 W SHAKESPEARE AVE,60647.0,1162482.18158116,1914404.86002004,32.0,14.0,22.0,33.0,41.920888779067,-87.67889509625022,"(41.920888779067, -87.67889509625022)",2011-07-02
28523,07/02/2011,Completed,07/05/2011,11-03291526,Abandoned Vehicle Complaint,K529180,Cadillac,Blue,FVI - Outcome,Return to Owner - Vehicle,10.0,6225 N HERMITAGE AVE,60660.0,,,40.0,24.0,77.0,,41.99517061265793,-87.67327659822546,"(41.99517061265793, -87.67327659822547)",2011-07-02
28524,07/02/2011,Completed,07/05/2011,11-03291754,Abandoned Vehicle Complaint,K410644,Cadillac,White,FVI - Outcome,Return to Owner - Vehicle,14.0,1736 N MEADE AVE,60639.0,,,29.0,25.0,25.0,,41.91215982585826,-87.77789457705299,"(41.91215982585826, -87.77789457705298)",2011-07-02
28525,07/02/2011,Completed,07/05/2011,11-03291917,Abandoned Vehicle Complaint,K127867,,Tan,FVI - Outcome,Vehicle was moved from original address requested,,2637 W SUMMERDALE AVE,60625.0,,,40.0,20.0,4.0,,41.97847014658578,-87.6956224753638,"(41.97847014658578, -87.69562247536382)",2011-07-02
28526,07/02/2011,Completed,07/06/2011,11-03291513,Abandoned Vehicle Complaint,0000000,Mitsubishi,Beige,FVI - Outcome,Vehicle was moved from original address requested,10.0,3049 S FARRELL ST,60608.0,,,11.0,9.0,60.0,,41.83847360830686,-87.65088743287441,"(41.83847360830687, -87.6508874328744)",2011-07-02
28527,07/02/2011,Completed,07/08/2011,11-03291282,Abandoned Vehicle Complaint,00000000,Ford,Red,FVI - Outcome,Vehicle was moved from original address requested,30.0,835 W 87TH ST,60620.0,,,21.0,22.0,71.0,,41.73594201396596,-87.64515417480308,"(41.73594201396596, -87.6451541748031)",2011-07-02
28528,07/02/2011,Completed,07/08/2011,11-03291915,Abandoned Vehicle Complaint,9102958,Chevrolet,Red,FVI - Outcome,Vehicle was moved from original address requested,34.0,901 N MONTICELLO AVE,60651.0,,,27.0,11.0,23.0,,41.89736623417001,-87.71745007160865,"(41.89736623417001, -87.71745007160865)",2011-07-02
28529,07/02/2011,Completed,07/11/2011,11-03292673,Abandoned Vehicle Complaint,K149041,Pontiac,Gold,FVI - Outcome,Vehicle was moved from original address requested,7.0,12205 S MORGAN ST,60643.0,,,34.0,5.0,53.0,,41.67208570674047,-87.64644682291163,"(41.67208570674047, -87.64644682291163)",2011-07-02
28530,07/02/2011,Completed,07/13/2011,11-03292102,Abandoned Vehicle Complaint,1663597,Volvo,Blue,FVI - Outcome,Vehicle was moved from original address requested,10.0,4050 N KILDARE AVE,60641.0,,,38.0,17.0,16.0,,41.95506167807981,-87.73562963363828,"(41.955061678079815, -87.73562963363828)",2011-07-02
28531,07/02/2011,Completed,07/14/2011,11-03291506,Abandoned Vehicle Complaint,66045,Legacy Unknown,White,FVI - Outcome,Vehicle was moved from original address requested,30.0,6218 W CORNELIA AVE,60634.0,,,36.0,16.0,17.0,,41.94398766889893,-87.78210262223158,"(41.943987668898934, -87.78210262223158)",2011-07-02
28532,07/02/2011,Completed,07/14/2011,11-03292902,Abandoned Vehicle Complaint,NO LICENSE PLATES ON CAR,Chevrolet,Red,FVI - Outcome,Vehicle was moved from original address requested,,3026 W 42ND ST,60632.0,,,14.0,9.0,58.0,39.0,41.81736463516793,-87.70052352543694,"(41.81736463516793, -87.70052352543694)",2011-07-02
28533,07/02/2011,Completed,07/18/2011,11-03292236,Abandoned Vehicle Complaint,L593202,Chrysler,Silver,FVI - Outcome,Vehicle was moved from original address requested,30.0,6836 S CREGIER AVE,60649.0,,,5.0,3.0,43.0,,41.770462115525156,-87.58148404298124,"(41.77046211552516, -87.58148404298124)",2011-07-02
28534,07/02/2011,Completed,07/22/2011,11-03293092,Abandoned Vehicle Complaint,886CHC,Volkswagen,Maroon,FVI - Outcome,Need Vehicle Tow Report,7.0,1650 W BELLE PLAINE AVE,60613.0,,,47.0,19.0,6.0,,41.9562239573192,-87.6705995983938,"(41.9562239573192, -87.67059959839379)",2011-07-02
28535,07/02/2011,Completed,07/27/2011,11-03291644,Abandoned Vehicle Complaint,UNKNOWN,Legacy Unknown,Black,FVI - Outcome,Vehicle was moved from original address requested,14.0,5617 S KEELER AVE,60629.0,,,13.0,8.0,62.0,,41.79075881351876,-87.72784864470621,"(41.79075881351876, -87.72784864470621)",2011-07-02
28536,07/02/2011,Completed,08/08/2011,11-03291494,Abandoned Vehicle Complaint,L291451,Mitsubishi,Gray,FVI - Outcome,Need Vehicle Tow Report,30.0,2733 W LAWRENCE AVE,60625.0,,,47.0,19.0,4.0,21.0,41.96843058653144,-87.69759092752909,"(41.96843058653144, -87.69759092752909)",2011-07-02
28537,07/02/2011,Completed,08/08/2011,11-03293162,Abandoned Vehicle Complaint,L349741,Ford,Beige,FVI - Outcome,Need Vehicle Tow Report,8.0,8001 S SACRAMENTO AVE,60652.0,,,18.0,8.0,70.0,,41.74796667313936,-87.69731306485012,"(41.74796667313936, -87.69731306485012)",2011-07-02
28601,07/03/2011,Completed - Dup,07/07/2011,11-03293841,Abandoned Vehicle Complaint,H417578,Ford,Burgundy,FVI - Outcome,Create Work Order,30.0,8519 S CREGIER AVE,60617.0,1189673.79788932,1848770.3398686,8.0,4.0,45.0,,41.740090944972316,-87.58049034573776,"(41.74009094497231, -87.58049034573777)",2011-07-03
28602,07/03/2011,Completed - Dup,07/07/2011,11-03293984,Abandoned Vehicle Complaint,H417578,General Motors Corp.,Burgundy,FVI - Outcome,Create Work Order,35.0,8519 S CREGIER AVE,60617.0,1189673.79788932,1848770.3398686,8.0,4.0,45.0,,41.740090944972316,-87.58049034573776,"(41.74009094497231, -87.58049034573777)",2011-07-03
28603,07/03/2011,Completed - Dup,07/12/2011,11-03294611,Abandoned Vehicle Complaint,K563427,Dodge,Red,FVI - Outcome,Create Work Order,,2848 S SPRINGFIELD AVE,60623.0,1150839.0518977,1884774.00138248,22.0,10.0,30.0,,41.839138850670686,-87.72211619013584,"(41.83913885067069, -87.72211619013585)",2011-07-03
28604,07/03/2011,Completed - Dup,07/12/2011,11-03294612,Abandoned Vehicle Complaint,23761H,Caterpillar Tractor Co.,White,FVI - Outcome,Create Work Order,,2848 S SPRINGFIELD AVE,60623.0,1150839.0518977,1884774.00138248,22.0,10.0,30.0,,41.839138850670686,-87.72211619013584,"(41.83913885067069, -87.72211619013585)",2011-07-03
28605,07/03/2011,Completed - Dup,07/14/2011,11-03293942,Abandoned Vehicle Complaint,66045FF,Ford,White,FVI - Outcome,Create Work Order,,6218 W CORNELIA AVE,60634.0,1134311.78479523,1922623.09081038,36.0,16.0,17.0,,41.94398766889893,-87.78210262223158,"(41.943987668898934, -87.78210262223158)",2011-07-03
28606,07/03/2011,Completed - Dup,07/19/2011,11-03293996,Abandoned Vehicle Complaint,8039497,Dodge,White,FVI - Outcome,Create Work Order,21.0,3120 N BERNARD ST,60618.0,1152848.31996707,1920537.69948905,35.0,14.0,21.0,,41.9380962719447,-87.71382010691183,"(41.9380962719447, -87.71382010691183)",2011-07-03
28607,07/03/2011,Completed - Dup,08/08/2011,11-03294490,Abandoned Vehicle Complaint,A173595,Cadillac,White,FVI - Outcome,Create Work Order,20.0,3609 N OLEANDER AVE,60634.0,1125108.12811676,1923058.88278985,36.0,16.0,17.0,,41.9454019531976,-87.81542240767719,"(41.945401953197596, -87.81542240767719)",2011-07-03
28608,07/03/2011,Completed,07/05/2011,11-03294012,Abandoned Vehicle Complaint,5LPM235,Honda,Black,FVI - Outcome,Vehicle was moved from original address requested,7.0,2222 E 93RD ST,60617.0,,,7.0,4.0,48.0,,41.726300545587726,-87.56951397246868,"(41.726300545587726, -87.56951397246868)",2011-07-03
28609,07/03/2011,Completed,07/05/2011,11-03294970,Abandoned Vehicle Complaint,L306595,Oldsmobile,Gray,FVI - Outcome,Vehicle was moved from original address requested,150.0,5600 W THOMAS ST,60651.0,,,29.0,15.0,25.0,,41.90042814524797,-87.76565317829409,"(41.90042814524798, -87.76565317829409)",2011-07-03
28610,07/03/2011,Completed,07/07/2011,11-03294236,Abandoned Vehicle Complaint,CH8031,Honda,Black,FVI - Outcome,Return to Owner - Vehicle,,5140 S SPRINGFIELD AVE,60632.0,,,23.0,8.0,62.0,,41.799351901122776,-87.72102777866233,"(41.799351901122776, -87.72102777866235)",2011-07-03
28611,07/03/2011,Completed,07/07/2011,11-03294782,Abandoned Vehicle Complaint,K134630,Ford,Black,FVI - Outcome,Vehicle was moved from original address requested,25.0,2257 S SACRAMENTO AVE,60623.0,,,12.0,10.0,30.0,,41.85016613241442,-87.70015894095894,"(41.85016613241442, -87.70015894095894)",2011-07-03
28612,07/03/2011,Completed,07/08/2011,11-03294111,Abandoned Vehicle Complaint,825-2W(?),Infiniti/Q45,Gray,FVI - Outcome,Vehicle was moved from original address requested,,165 N CLINTON ST,60661.0,,,42.0,1.0,28.0,,41.8850707817732,-87.64114342884268,"(41.8850707817732, -87.64114342884267)",2011-07-03
28613,07/03/2011,Completed,07/08/2011,11-03294410,Abandoned Vehicle Complaint,UNKNOWN PLATE INFORMATION,Cadillac,Green,FVI - Outcome,Vehicle was moved from original address requested,60.0,8735 S BEVERLY AVE,60620.0,,,21.0,22.0,71.0,,41.73478422515785,-87.67182037301487,"(41.734784225157846, -87.67182037301487)",2011-07-03
28614,07/03/2011,Completed,07/08/2011,11-03294653,Abandoned Vehicle Complaint,UNKNOWN,Dodge,Gray,FVI - Outcome,Return to Owner - Vehicle,60.0,1248 S WASHTENAW AVE,60608.0,,,28.0,10.0,29.0,,41.86505539249636,-87.69351465602597,"(41.86505539249636, -87.69351465602597)",2011-07-03
28615,07/03/2011,Completed,07/11/2011,11-03294088,Abandoned Vehicle Complaint,9210879,Chevrolet,Gray,FVI - Outcome,Return to Owner - Vehicle,7.0,12552 S UNION AVE,60628.0,,,34.0,5.0,53.0,,41.665360441943726,-87.6392293058774,"(41.66536044194373, -87.63922930587741)",2011-07-03
28616,07/03/2011,Completed,07/12/2011,11-03294582,Abandoned Vehicle Complaint,J452310,Dodge,Green,FVI - Outcome,Vehicle was moved from original address requested,,2848 S SPRINGFIELD AVE,60623.0,,,22.0,10.0,30.0,,41.839138850670686,-87.72211619013584,"(41.83913885067069, -87.72211619013585)",2011-07-03
28617,07/03/2011,Completed,07/13/2011,11-03294750,Abandoned Vehicle Complaint,1224929,Chevrolet,Red,FVI - Outcome,Vehicle was moved from original address requested,7.0,7030 W GRACE ST,60634.0,,,38.0,16.0,17.0,,41.94910325805281,-87.8022860503054,"(41.94910325805281, -87.8022860503054)",2011-07-03
28618,07/03/2011,Completed,07/14/2011,11-03293725,Abandoned Vehicle Complaint,4992508,Chrysler,Gray,FVI - Outcome,Vehicle was moved from original address requested,15.0,4700 S KEDZIE AVE,60632.0,,,14.0,8.0,58.0,39.0,41.80804727165029,-87.7041188222987,"(41.80804727165029, -87.70411882229871)",2011-07-03
28619,07/03/2011,Completed,07/14/2011,11-03294103,Abandoned Vehicle Complaint,140738,Kia Motors Corp,White,FVI - Outcome,Vehicle was moved from original address requested,8.0,7525 W IRVING PARK RD,60634.0,,,36.0,16.0,17.0,,41.95245716722491,-87.81569918378307,"(41.952457167224914, -87.81569918378308)",2011-07-03
28620,07/03/2011,Completed,07/14/2011,11-03294441,Abandoned Vehicle Complaint,8546200,Chevrolet,Green,FVI - Outcome,Vehicle was moved from original address requested,21.0,1413 W 76TH ST,60620.0,,,17.0,6.0,71.0,,41.75576584319179,-87.65926510713213,"(41.75576584319179, -87.65926510713213)",2011-07-03
28621,07/03/2011,Completed,07/14/2011,11-03294566,Abandoned Vehicle Complaint,H786362,Acura,Brown,FVI - Outcome,Vehicle was moved from original address requested,7.0,6430 W GEORGE ST,60634.0,,,36.0,25.0,19.0,,41.93292387194006,-87.78703640485621,"(41.93292387194006, -87.78703640485621)",2011-07-03
28622,07/03/2011,Completed,07/14/2011,11-03294624,Abandoned Vehicle Complaint,H70 9388,Jeep - Year Greater 1988,Brown,FVI - Outcome,Vehicle was moved from original address requested,,7234 S EBERHART AVE,60619.0,,,6.0,3.0,69.0,,41.76287164885596,-87.61292223395954,"(41.76287164885596, -87.61292223395955)",2011-07-03
28623,07/03/2011,Completed,07/15/2011,11-03294825,Abandoned Vehicle Complaint,225522,Buick,Gold,FVI - Outcome,Vehicle was moved from original address requested,21.0,3539 S DR MARTIN LUTHER KING JR DR,60653.0,,,4.0,2.0,35.0,,41.829902706881015,-87.61695008565852,"(41.829902706881015, -87.61695008565852)",2011-07-03
28624,07/03/2011,Completed,07/22/2011,11-03294344,Abandoned Vehicle Complaint,174118,General Motors Corp.,Green,FVI - Outcome,Need Vehicle Tow Report,20.0,4225 W 25TH PL,60623.0,,,22.0,10.0,30.0,25.0,41.844974274308,-87.73055263089087,"(41.844974274308, -87.73055263089086)",2011-07-03
28625,07/03/2011,Completed,07/26/2011,11-03294296,Abandoned Vehicle Complaint,AP.......,,White,FVI - Outcome,Vehicle was moved from original address requested,21.0,2837 N NEWLAND AVE,60634.0,,,36.0,25.0,18.0,,41.93197124487767,-87.7990326446536,"(41.93197124487767, -87.79903264465358)",2011-07-03
28626,07/03/2011,Completed,08/03/2011,11-03294107,Abandoned Vehicle Complaint,A981548,Chrysler,Blue,FVI - Outcome,Return to Owner - Vehicle,21.0,7421 W BARRY AVE,60707.0,,,36.0,25.0,17.0,,41.93611352881543,-87.81247320299612,"(41.93611352881544, -87.81247320299612)",2011-07-03
28689,07/04/2011,Completed - Dup,07/05/2011,11-03295444,Abandoned Vehicle Complaint,K701239,Pontiac,Green,FVI - Outcome,Create Work Order,60.0,2601 E 92ND ST,60617.0,1195117.28678714,1844467.49022666,7.0,4.0,48.0,,41.72801901692631,-87.56080221648128,"(41.72801901692631, -87.56080221648128)",2011-07-04
28690,07/04/2011,Completed - Dup,07/11/2011,11-03295280,Abandoned Vehicle Complaint,9210879,Chevrolet,Gray,FVI - Outcome,Create Work Order,8.0,12552 S UNION AVE,60628.0,1173934.47669254,1821634.56131852,34.0,5.0,53.0,,41.665360441943726,-87.6392293058774,"(41.66536044194373, -87.63922930587741)",2011-07-04
28691,07/04/2011,Completed - Dup,07/12/2011,11-03295805,Abandoned Vehicle Complaint,L,Chevrolet,Black,FVI - Outcome,Create Work Order,120.0,924 N HARDING AVE,60651.0,1149887.03198806,1905880.7663718003,27.0,11.0,23.0,,41.8979767247106,-87.72508514154406,"(41.897976724710595, -87.72508514154407)",2011-07-04
28692,07/04/2011,Completed - Dup,07/12/2011,11-03295812,Abandoned Vehicle Complaint,K,Chevrolet,Tan,FVI - Outcome,Create Work Order,120.0,924 N HARDING AVE,60651.0,1149887.03198806,1905880.7663718003,27.0,11.0,23.0,,41.8979767247106,-87.72508514154406,"(41.897976724710595, -87.72508514154407)",2011-07-04
28693,07/04/2011,Completed - Dup,07/14/2011,11-03295370,Abandoned Vehicle Complaint,66045FF,Ford,Multi-Color,FVI - Outcome,Create Work Order,,6218 W CORNELIA AVE,60634.0,1134311.78479523,1922623.09081038,36.0,16.0,17.0,,41.94398766889893,-87.78210262223158,"(41.943987668898934, -87.78210262223158)",2011-07-04
28694,07/04/2011,Completed,07/05/2011,11-03296485,Abandoned Vehicle Complaint,?,Ford,Black,FVI - Outcome,Vehicle was moved from original address requested,222.0,7044 N RIDGE BLVD,60645.0,,,50.0,24.0,2.0,,42.010035386775016,-87.68243244718191,"(42.010035386775016, -87.68243244718191)",2011-07-04
28695,07/04/2011,Completed,07/06/2011,11-03296041,Abandoned Vehicle Complaint,J392627,Bmw,White,FVI - Outcome,Vehicle was moved from original address requested,14.0,5030 N MANGO AVE,60630.0,,,45.0,16.0,11.0,,41.97290962989906,-87.77232086019748,"(41.972909629899064, -87.77232086019748)",2011-07-04
28696,07/04/2011,Completed,07/12/2011,11-03295331,Abandoned Vehicle Complaint,STAYFLY,Pontiac,Maroon,FVI - Outcome,Vehicle was moved from original address requested,21.0,9710 S GENOA AVE,60643.0,,,21.0,22.0,73.0,,41.71719446091117,-87.65100851776725,"(41.717194460911166, -87.65100851776727)",2011-07-04
28697,07/04/2011,Completed,07/12/2011,11-03295799,Abandoned Vehicle Complaint,UNK,Dodge,Burgundy,FVI - Outcome,Return to Owner - Vehicle,180.0,924 N HARDING AVE,60651.0,,,27.0,11.0,23.0,,41.8979767247106,-87.72508514154406,"(41.897976724710595, -87.72508514154407)",2011-07-04
28698,07/04/2011,Completed,07/12/2011,11-03295837,Abandoned Vehicle Complaint,A918266,Chevrolet,White,FVI - Outcome,Vehicle was moved from original address requested,12.0,2258 S DRAKE AVE,60623.0,,,22.0,10.0,30.0,,41.849926508936356,-87.71387294174843,"(41.849926508936356, -87.71387294174843)",2011-07-04
28699,07/04/2011,Completed,07/14/2011,11-03295479,Abandoned Vehicle Complaint,L218332,Oldsmobile,Silver,FVI - Outcome,Vehicle was moved from original address requested,,8120 W ROSCOE ST,60634.0,,,36.0,16.0,17.0,,41.94119728801989,-87.82982784411739,"(41.941197288019886, -87.82982784411739)",2011-07-04
28700,07/04/2011,Completed,07/14/2011,11-03295548,Abandoned Vehicle Complaint,NONE,Chevrolet,Red,FVI - Outcome,Vehicle was moved from original address requested,10.0,2557 W LITHUANIAN PLAZA CT,60629.0,,,18.0,8.0,66.0,14.0,41.768149990660866,-87.68808744911009,"(41.76814999066087, -87.68808744911009)",2011-07-04
28701,07/04/2011,Completed,07/14/2011,11-03296184,Abandoned Vehicle Complaint,L308651,Chevrolet,Blue,FVI - Outcome,Vehicle was moved from original address requested,8.0,6656 W HAYES AVE,60631.0,,,41.0,16.0,10.0,,42.000156753410145,-87.79456486614728,"(42.000156753410145, -87.7945648661473)",2011-07-04
28702,07/04/2011,Completed,07/18/2011,11-03295414,Abandoned Vehicle Complaint,L204096,Ford,Tan,FVI - Outcome,Vehicle was moved from original address requested,9.0,6806 S CRANDON AVE,60649.0,,,5.0,3.0,43.0,,41.77143398206719,-87.57006880411762,"(41.77143398206719, -87.57006880411762)",2011-07-04
28703,07/04/2011,Completed,07/26/2011,11-03295619,Abandoned Vehicle Complaint,L226608,Saab,White,FVI - Outcome,Vehicle was moved from original address requested,14.0,6324 S KENNETH AVE,60629.0,,,13.0,8.0,65.0,3.0,41.77771036153796,-87.73387003735311,"(41.77771036153796, -87.73387003735311)",2011-07-04
28704,07/04/2011,Completed,08/08/2011,11-03295242,Abandoned Vehicle Complaint,L592931,Dodge,Blue,FVI - Outcome,Need Vehicle Tow Report,15.0,4136 N PAULINA ST,60613.0,,,47.0,19.0,6.0,,41.95721329876139,-87.67085164704002,"(41.95721329876139, -87.67085164704002)",2011-07-04
28705,07/04/2011,Completed,08/08/2011,11-03295524,Abandoned Vehicle Complaint,H768764,Lincoln,Copper,FVI - Outcome,Need Vehicle Tow Report,30.0,6209 W GRACE ST,60634.0,,,38.0,16.0,17.0,,41.949239254251935,-87.7819455691448,"(41.94923925425194, -87.7819455691448)",2011-07-04
28706,07/04/2011,Completed,08/08/2011,11-03296023,Abandoned Vehicle Complaint,L639942,Chrysler,Green,FVI - Outcome,Need Vehicle Tow Report,33.0,2810 E 96TH ST,60617.0,,,10.0,4.0,51.0,,41.720991037474256,-87.55606415166967,"(41.72099103747426, -87.55606415166967)",2011-07-04
28707,07/04/2011,Completed,08/08/2011,11-03296197,Abandoned Vehicle Complaint,G57 6032,Ford,Maroon,FVI - Outcome,Need Vehicle Tow Report,7.0,7131 N BELL AVE,60645.0,,,50.0,24.0,2.0,,42.01206432188505,-87.68593395716324,"(42.01206432188505, -87.68593395716324)",2011-07-04
28708,07/04/2011,Completed,08/08/2011,11-03296259,Abandoned Vehicle Complaint,L613977,Lincoln,Silver,FVI - Outcome,Need Vehicle Tow Report,40.0,2225 W CULLERTON ST,60608.0,,,25.0,12.0,31.0,,41.854732491888505,-87.68188227939591,"(41.854732491888505, -87.6818822793959)",2011-07-04
28730,07/05/2011,Completed - Dup,07/07/2011,11-03303784,Abandoned Vehicle Complaint,2452887,Toyota,Burgundy,FVI - Outcome,Create Work Order,7.0,8827 S CORNELL AVE,60617.0,1188779.05191497,1846783.8811206,8.0,4.0,48.0,,41.734299216927575,-87.58382396489088,"(41.73429921692757, -87.58382396489087)",2011-07-05
28731,07/05/2011,Completed - Dup,07/13/2011,11-03300166,Abandoned Vehicle Complaint,1868864,Chevrolet,Black,FVI - Outcome,Create Work Order,30.0,3809 W WABANSIA AVE,60647.0,1150679.57008415,1911026.80707552,30.0,25.0,23.0,,41.91164687765244,-87.72190220496712,"(41.91164687765244, -87.72190220496711)",2011-07-05
28732,07/05/2011,Completed - Dup,07/13/2011,11-03305472,Abandoned Vehicle Complaint,K753793,Nissan,White,FVI - Outcome,Create Work Order,30.0,4004 W WABANSIA AVE,60639.0,1149407.07517591,1910999.11273262,30.0,25.0,23.0,,41.911811566811686,-87.72663685169222,"(41.911811566811686, -87.72663685169222)",2011-07-05
28733,07/05/2011,Completed - Dup,07/15/2011,11-03303533,Abandoned Vehicle Complaint,8598477,Chevrolet,White,FVI - Outcome,Create Work Order,14.0,619 E BOWEN AVE,60653.0,1181051.86400988,1877614.01221948,4.0,2.0,38.0,,41.81931541204307,-87.6110199540601,"(41.81931541204307, -87.6110199540601)",2011-07-05
28734,07/05/2011,Completed - Dup,07/20/2011,11-03305595,Abandoned Vehicle Complaint,L471523,Jaguar,Tan,FVI - Outcome,Create Work Order,90.0,2924 N WHIPPLE ST,60618.0,1155537.68839898,1919285.71562123,35.0,14.0,21.0,,41.93464851392461,-87.70397146521887,"(41.93464851392461, -87.70397146521886)",2011-07-05
28735,07/05/2011,Completed - Dup,08/08/2011,11-03300440,Abandoned Vehicle Complaint,H786456,Toyota,Green,FVI - Outcome,Create Work Order,60.0,2028 W SHAKESPEARE AVE,60647.0,1162482.18158116,1914404.86002004,32.0,14.0,22.0,33.0,41.920888779067,-87.67889509625022,"(41.920888779067, -87.67889509625022)",2011-07-05
28736,07/05/2011,Completed - Dup,08/08/2011,11-03301872,Abandoned Vehicle Complaint,X881852,Buick,Gold,FVI - Outcome,Create Work Order,30.0,1761 W MORSE AVE,60626.0,1163283.52288779,1946106.49790757,49.0,24.0,1.0,24.0,42.007648238912424,-87.67463772442166,"(42.00764823891242, -87.67463772442166)",2011-07-05
28737,07/05/2011,Completed,07/05/2011,11-03297278,Abandoned Vehicle Complaint,UNKNOWN,Ford,White,FVI - Outcome,Vehicle was moved from original address requested,10.0,8800 S EUCLID AVE,60617.0,,,8.0,4.0,48.0,,41.73512254810268,-87.57703418960811,"(41.73512254810268, -87.57703418960813)",2011-07-05
28738,07/05/2011,Completed,07/05/2011,11-03300087,Abandoned Vehicle Complaint,G57 6032,Ford,Maroon,FVI - Outcome,Vehicle was moved from original address requested,,7128 N BELL AVE,60645.0,,,50.0,24.0,2.0,,42.012000740089405,-87.68622690063593,"(42.01200074008941, -87.68622690063593)",2011-07-05
28739,07/05/2011,Completed,07/06/2011,11-03296962,Abandoned Vehicle Complaint,K701239,Pontiac,Green,FVI - Outcome,Vehicle was moved from original address requested,30.0,9211 S COLFAX AVE,60617.0,,,7.0,4.0,48.0,,41.72775529353525,-87.56071420675266,"(41.727755293535246, -87.56071420675265)",2011-07-05
28740,07/05/2011,Completed,07/06/2011,11-03298633,Abandoned Vehicle Complaint,H236841,General Motors Corp.,White,FVI - Outcome,Return to Owner - Vehicle,12.0,4843 W CRYSTAL ST,60651.0,,,37.0,25.0,25.0,,41.903133391439034,-87.74779871162869,"(41.90313339143903, -87.74779871162869)",2011-07-05
28741,07/05/2011,Completed,07/06/2011,11-03300077,Abandoned Vehicle Complaint,456 515 WISCONSIN 'B' PLATES,Ford,White,FVI - Outcome,Vehicle was moved from original address requested,14.0,3000 W ROSEMONT AVE,60659.0,1155204.75056748,1941650.18687955,50.0,24.0,2.0,43.0,41.99580728304646,-87.70449708622692,"(41.99580728304646, -87.70449708622692)",2011-07-05
28742,07/05/2011,Completed,07/06/2011,11-03301410,Abandoned Vehicle Complaint,7381,Mazda,Red,FVI - Outcome,Vehicle was moved from original address requested,,10927 S AVENUE M,60617.0,,,10.0,4.0,52.0,,41.696476420081225,-87.53755373800475,"(41.69647642008123, -87.53755373800473)",2011-07-05
28743,07/05/2011,Completed,07/06/2011,11-03302941,Abandoned Vehicle Complaint,79896X,Dodge,Blue,FVI - Outcome,Vehicle was moved from original address requested,14.0,2406 S OAKLEY AVE,60608.0,,,25.0,10.0,31.0,,41.848184604640295,-87.68323458299,"(41.8481846046403, -87.68323458299)",2011-07-05
28744,07/05/2011,Completed,07/06/2011,11-03303080,Abandoned Vehicle Complaint,932ASU,Dodge,Maroon,FVI - Outcome,Vehicle was moved from original address requested,14.0,9525 S ESCANABA AVE,60617.0,,,10.0,4.0,51.0,,41.7219635584061,-87.55368428482572,"(41.7219635584061, -87.55368428482572)",2011-07-05
28745,07/05/2011,Completed,07/07/2011,11-03298265,Abandoned Vehicle Complaint,699M691,Dodge,Red,FVI - Outcome,Vehicle was moved from original address requested,4.0,3826 S CALIFORNIA AVE,60632.0,,,12.0,9.0,58.0,,41.82374274512146,-87.69478074166555,"(41.823742745121464, -87.69478074166557)",2011-07-05
28746,07/05/2011,Completed,07/07/2011,11-03302880,Abandoned Vehicle Complaint,A140516,Mercedes,Beige,FVI - Outcome,Return to Owner - Vehicle,7.0,4426 N MOODY AVE,60630.0,,,38.0,16.0,15.0,,41.961137533334686,-87.78085697581696,"(41.96113753333469, -87.78085697581696)",2011-07-05
28747,07/05/2011,Completed,07/07/2011,11-03303342,Abandoned Vehicle Complaint,7135266,Lincoln,White,FVI - Outcome,Vehicle was moved from original address requested,14.0,9542 S CHAPPEL AVE,60617.0,,,7.0,4.0,51.0,,41.72112358455946,-87.57424364535936,"(41.721123584559464, -87.57424364535936)",2011-07-05
28748,07/05/2011,Completed,07/07/2011,11-03303552,Abandoned Vehicle Complaint,2452882,Toyota,Maroon,FVI - Outcome,Vehicle was moved from original address requested,3.0,8827 S CORNELL AVE,60617.0,,,8.0,4.0,48.0,,41.734299216927575,-87.58382396489088,"(41.73429921692757, -87.58382396489087)",2011-07-05
28749,07/05/2011,Completed,07/07/2011,11-03305144,Abandoned Vehicle Complaint,178CFZ,Toyota,Gray,FVI - Outcome,Vehicle was moved from original address requested,14.0,4524 N MASON AVE,60630.0,,,38.0,16.0,15.0,,41.962988193982014,-87.77603202673491,"(41.962988193982014, -87.77603202673491)",2011-07-05
28750,07/05/2011,Completed,07/08/2011,11-03296928,Abandoned Vehicle Complaint,L764593,Oldsmobile,Gray,FVI - Outcome,Vehicle was moved from original address requested,30.0,819 N TRUMBULL AVE,60651.0,,,27.0,11.0,23.0,63.0,41.89609753064737,-87.71252747797207,"(41.89609753064737, -87.71252747797206)",2011-07-05
28751,07/05/2011,Completed,07/08/2011,11-03301056,Abandoned Vehicle Complaint,656M793,Chevrolet,Blue,FVI - Outcome,Vehicle was moved from original address requested,21.0,10732 S HALE AVE,60643.0,,,19.0,22.0,75.0,,41.69830633937972,-87.66910174040716,"(41.69830633937972, -87.66910174040716)",2011-07-05
28752,07/05/2011,Completed,07/08/2011,11-03302959,Abandoned Vehicle Complaint,X461039,Buick,Brown,FVI - Outcome,Vehicle was moved from original address requested,90.0,1601 S AVERS AVE,60623.0,,,24.0,10.0,29.0,,41.85882849395837,-87.72105047025208,"(41.85882849395837, -87.72105047025208)",2011-07-05
28753,07/05/2011,Completed,07/08/2011,11-03305354,Abandoned Vehicle Complaint,9247148,Pontiac,Gray,FVI - Outcome,Vehicle was moved from original address requested,8.0,2646 W FULLERTON AVE,60647.0,,,1.0,14.0,22.0,,41.92494661154243,-87.69436297301544,"(41.92494661154243, -87.69436297301544)",2011-07-05
28754,07/05/2011,Completed,07/11/2011,11-03305766,Abandoned Vehicle Complaint,47834M,Ford,Brown,FVI - Outcome,Vehicle was moved from original address requested,1.0,11642 S WATKINS AVE,60643.0,,,34.0,22.0,75.0,,41.6819368110256,-87.66811068487249,"(41.6819368110256, -87.66811068487249)",2011-07-05
28755,07/05/2011,Completed,07/11/2011,11-03305896,Abandoned Vehicle Complaint,C869351,Honda,Green,FVI - Outcome,Vehicle was moved from original address requested,21.0,2161 W EASTWOOD AVE,60625.0,,,47.0,19.0,4.0,,41.965840666164226,-87.68311171172789,"(41.965840666164226, -87.68311171172789)",2011-07-05
28756,07/05/2011,Completed,07/13/2011,11-03298569,Abandoned Vehicle Complaint,D611958,Chevrolet,Tan,FVI - Outcome,Vehicle was moved from original address requested,21.0,5308 W EDDY ST,60641.0,,,38.0,16.0,15.0,,41.94516046000593,-87.75977869946827,"(41.94516046000593, -87.75977869946826)",2011-07-05
28757,07/05/2011,Completed,07/14/2011,11-03298446,Abandoned Vehicle Complaint,L218332,Oldsmobile,Silver,FVI - Outcome,Vehicle was moved from original address requested,21.0,8107 W ROSCOE ST,60634.0,,,36.0,16.0,17.0,,41.940988632599066,-87.82922221560179,"(41.94098863259906, -87.82922221560179)",2011-07-05
28758,07/05/2011,Completed,07/14/2011,11-03300143,Abandoned Vehicle Complaint,K438143,Chevrolet,White,FVI - Outcome,Vehicle was moved from original address requested,30.0,8246 S VERNON AVE,60619.0,,,6.0,6.0,44.0,,41.744261179363704,-87.61366869999551,"(41.7442611793637, -87.61366869999551)",2011-07-05
28759,07/05/2011,Completed,07/14/2011,11-03300173,Abandoned Vehicle Complaint,L463848,Ford,Green,FVI - Outcome,Vehicle was moved from original address requested,9.0,8258 S CALUMET AVE,60619.0,,,6.0,6.0,44.0,,41.74387415920878,-87.61649046799904,"(41.74387415920878, -87.61649046799904)",2011-07-05
28760,07/05/2011,Completed,07/14/2011,11-03303367,Abandoned Vehicle Complaint,QUARATA,Chrysler,Silver,FVI - Outcome,Vehicle was moved from original address requested,14.0,5359 N NOTTINGHAM AVE,60656.0,,,41.0,16.0,10.0,,41.97884582492476,-87.80338234848386,"(41.97884582492476, -87.80338234848386)",2011-07-05
28761,07/05/2011,Completed,07/14/2011,11-03304388,Abandoned Vehicle Complaint,K538418,Pontiac,Gray,FVI - Outcome,Return to Owner - Vehicle,90.0,7607 S LOWE AVE,60620.0,,,17.0,6.0,71.0,,41.755877241594746,-87.6403668228894,"(41.755877241594746, -87.6403668228894)",2011-07-05
28762,07/05/2011,Completed,07/14/2011,11-03304884,Abandoned Vehicle Complaint,L854211,Hyundai,Silver,FVI - Outcome,Vehicle was moved from original address requested,30.0,3107 N HONORE ST,60657.0,,,32.0,19.0,5.0,31.0,41.93802474263481,-87.67410447255365,"(41.938024742634816, -87.67410447255365)",2011-07-05
28763,07/05/2011,Completed,07/14/2011,11-03305451,Abandoned Vehicle Complaint,H818120,Ford,Green,FVI - Outcome,Vehicle was moved from original address requested,21.0,6788 N SAUGANASH AVE,60646.0,,,41.0,16.0,12.0,,42.004804494097534,-87.76449318838677,"(42.00480449409753, -87.76449318838677)",2011-07-05
28764,07/05/2011,Completed,07/14/2011,11-03305454,Abandoned Vehicle Complaint,K107914,Ford,Maroon,FVI - Outcome,Vehicle was moved from original address requested,21.0,6642 S CLAREMONT AVE,60636.0,,,15.0,8.0,66.0,,41.77251546768918,-87.68224879786011,"(41.77251546768918, -87.68224879786011)",2011-07-05
28765,07/05/2011,Completed,07/14/2011,11-03305904,Abandoned Vehicle Complaint,H193372,Pontiac,Silver,FVI - Outcome,Vehicle was moved from original address requested,,8634 W SUMMERDALE AVE,60656.0,,,41.0,16.0,76.0,,41.976132324217026,-87.84294864264383,"(41.97613232421702, -87.84294864264383)",2011-07-05
28766,07/05/2011,Completed,07/15/2011,11-03300008,Abandoned Vehicle Complaint,TEMP PLATE 825M292,Pontiac,White,FVI - Outcome,Vehicle was moved from original address requested,30.0,7441 S CHAPPEL AVE,60649.0,,,5.0,3.0,43.0,,41.75949041712281,-87.57476756003052,"(41.759490417122805, -87.57476756003051)",2011-07-05
28767,07/05/2011,Completed,07/15/2011,11-03301979,Abandoned Vehicle Complaint,L625763,Bmw,Red,FVI - Outcome,Vehicle was moved from original address requested,8.0,2437 N LONG AVE,60639.0,,,31.0,25.0,19.0,,41.92516174648719,-87.76095980668167,"(41.92516174648719, -87.76095980668167)",2011-07-05
28768,07/05/2011,Completed,07/15/2011,11-03304934,Abandoned Vehicle Complaint,NONE,(Unlisted Make),Unknown,FVI - Outcome,Vehicle was moved from original address requested,3.0,1227 W MONTANA ST,60614.0,,,32.0,19.0,7.0,,41.92613142844721,-87.65955069328864,"(41.926131428447206, -87.65955069328862)",2011-07-05
28769,07/05/2011,Completed,07/18/2011,11-03303706,Abandoned Vehicle Complaint,NO PLATES,Buick,Tan,FVI - Outcome,Vehicle was moved from original address requested,7.0,4401 W FULTON ST,60624.0,,,28.0,11.0,26.0,,41.88526386622015,-87.73574800817097,"(41.88526386622015, -87.73574800817097)",2011-07-05
28770,07/05/2011,Completed,07/19/2011,11-03298761,Abandoned Vehicle Complaint,A835880,Jeep/Cherokee,Red,FVI - Outcome,Vehicle was moved from original address requested,21.0,2749 N MONTICELLO AVE,60647.0,,,35.0,25.0,22.0,,41.931524211991615,-87.71826286341455,"(41.93152421199162, -87.71826286341455)",2011-07-05
28771,07/05/2011,Completed,07/19/2011,11-03300764,Abandoned Vehicle Complaint,5321486,Jeep/Cherokee,Red,FVI - Outcome,Vehicle was moved from original address requested,18.0,3436 N TROY ST,60618.0,,,33.0,17.0,21.0,,41.943798304644666,-87.70668284537905,"(41.943798304644666, -87.70668284537905)",2011-07-05
28772,07/05/2011,Completed,07/19/2011,11-03301681,Abandoned Vehicle Complaint,463WEP,Toyota,Tan,FVI - Outcome,Vehicle was moved from original address requested,21.0,2443 N HAMLIN AVE,60647.0,,,35.0,25.0,22.0,,41.925826191937254,-87.7217710906813,"(41.92582619193725, -87.72177109068129)",2011-07-05
28773,07/05/2011,Completed,07/22/2011,11-03306008,Abandoned Vehicle Complaint,NO PLATE,Ford,Blue,FVI - Outcome,Need Vehicle Tow Report,8.0,4804 N KENTUCKY AVE,60630.0,,,39.0,17.0,14.0,,41.96827092951531,-87.7439397796896,"(41.96827092951531, -87.7439397796896)",2011-07-05
28774,07/05/2011,Completed,07/27/2011,11-03299747,Abandoned Vehicle Complaint,X464807,Ford,Red,FVI - Outcome,Vehicle was moved from original address requested,20.0,4148 W 59TH ST,60629.0,,,13.0,8.0,62.0,,41.78600116307385,-87.72740149449278,"(41.786001163073855, -87.72740149449278)",2011-07-05
28775,07/05/2011,Completed,07/27/2011,11-03301276,Abandoned Vehicle Complaint,X351773,Ford,Black,FVI - Outcome,Vehicle was moved from original address requested,10.0,5555 S KEELER AVE,60629.0,,,13.0,8.0,62.0,,41.791552782036796,-87.72787171150362,"(41.791552782036796, -87.72787171150362)",2011-07-05
28776,07/05/2011,Completed,07/27/2011,11-03303969,Abandoned Vehicle Complaint,G20 3799,Mercury,Beige,FVI - Outcome,Vehicle was moved from original address requested,,6536 S KOLIN AVE,60629.0,,,13.0,8.0,65.0,,41.77380441518289,-87.73132092759228,"(41.77380441518289, -87.73132092759228)",2011-07-05
28777,07/05/2011,Completed,07/27/2011,11-03304163,Abandoned Vehicle Complaint,32837B,Volkswagen,Red,FVI - Outcome,Vehicle was moved from original address requested,7.0,4219 N ALBANY AVE,60618.0,,,33.0,17.0,16.0,,41.95816670032456,-87.70555950277334,"(41.958166700324554, -87.70555950277334)",2011-07-05
28778,07/05/2011,Completed,07/27/2011,11-03305194,Abandoned Vehicle Complaint,L295420,Jeep/Cherokee,Silver,FVI - Outcome,Vehicle was moved from original address requested,7.0,5810 S KILBOURN AVE,60629.0,,,13.0,8.0,62.0,,41.787256197550384,-87.73538083128841,"(41.78725619755038, -87.7353808312884)",2011-07-05
28779,07/05/2011,Completed,08/01/2011,11-03297522,Abandoned Vehicle Complaint,6818612,Hyundai,Silver,FVI - Outcome,Need Vehicle Tow Report,7.0,1929 N ST LOUIS AVE,60647.0,,,35.0,14.0,22.0,,41.916961013737506,-87.71337823107937,"(41.916961013737506, -87.71337823107937)",2011-07-05
28780,07/05/2011,Completed,08/01/2011,11-03298821,Abandoned Vehicle Complaint,XP9644,Chevrolet,White,FVI - Outcome,Need Vehicle Tow Report,14.0,936 N WESTERN AVE,60622.0,,,1.0,13.0,24.0,,41.89863907875365,-87.68706449173817,"(41.89863907875365, -87.68706449173817)",2011-07-05
28781,07/05/2011,Completed,08/08/2011,11-03296764,Abandoned Vehicle Complaint,K774545,Plymouth,Green,FVI - Outcome,Need Vehicle Tow Report,35.0,1458 W CUYLER AVE,60613.0,,,47.0,19.0,6.0,,41.95535386444871,-87.66652246075822,"(41.95535386444871, -87.66652246075822)",2011-07-05
28782,07/05/2011,Completed,08/08/2011,11-03297447,Abandoned Vehicle Complaint,K415326,Ford,Red,FVI - Outcome,Need Vehicle Tow Report,30.0,6618 S MARYLAND AVE,60637.0,,,5.0,3.0,42.0,,41.77437240801856,-87.6047236677074,"(41.77437240801856, -87.6047236677074)",2011-07-05
28783,07/05/2011,Completed,08/08/2011,11-03297545,Abandoned Vehicle Complaint,L469350,Toyota,Blue,FVI - Outcome,Need Vehicle Tow Report,30.0,5130 N BERNARD ST,60625.0,,,39.0,17.0,13.0,,41.97484045901699,-87.71491269124813,"(41.97484045901699, -87.71491269124813)",2011-07-05
28784,07/05/2011,Completed,08/08/2011,11-03299958,Abandoned Vehicle Complaint,L594725,Honda,Blue,FVI - Outcome,Need Vehicle Tow Report,21.0,1548 E 94TH ST,60619.0,,,8.0,4.0,48.0,50.0,41.72426934184266,-87.58574048946026,"(41.724269341842664, -87.58574048946025)",2011-07-05
28785,07/05/2011,Completed,08/08/2011,11-03300715,Abandoned Vehicle Complaint,7820455,Cadillac,Gray,FVI - Outcome,Need Vehicle Tow Report,120.0,3334 S WALLACE ST,60616.0,,,11.0,9.0,60.0,,41.8334506861694,-87.6414470483838,"(41.8334506861694, -87.6414470483838)",2011-07-05
28786,07/05/2011,Completed,08/08/2011,11-03301618,Abandoned Vehicle Complaint,654M425,Toyota,Maroon,FVI - Outcome,Need Vehicle Tow Report,8.0,9050 S RIDGELAND AVE,60617.0,,,8.0,4.0,48.0,,41.729946152296854,-87.58171075259621,"(41.729946152296854, -87.5817107525962)",2011-07-05
28787,07/05/2011,Completed,08/08/2011,11-03302401,Abandoned Vehicle Complaint,866M489,Saab,Cream,FVI - Outcome,Need Vehicle Tow Report,20.0,5829 W NEWPORT AVE,60634.0,,,38.0,16.0,15.0,,41.94295906036234,-87.7727044600111,"(41.94295906036234, -87.77270446001111)",2011-07-05
28788,07/05/2011,Completed,08/08/2011,11-03302972,Abandoned Vehicle Complaint,H941052,Volkswagen,Black,FVI - Outcome,Need Vehicle Tow Report,21.0,5362 S MAPLEWOOD AVE,60632.0,,,14.0,9.0,63.0,,41.79561647800737,-87.68789998049624,"(41.79561647800737, -87.68789998049624)",2011-07-05
28789,07/05/2011,Completed,08/08/2011,11-03304651,Abandoned Vehicle Complaint,H817286,Dodge,Black,FVI - Outcome,Need Vehicle Tow Report,33.0,6725 N NEWGARD AVE,60626.0,,,40.0,24.0,1.0,24.0,42.00437936827858,-87.66678492835001,"(42.00437936827858, -87.66678492835001)",2011-07-05
28790,07/05/2011,Completed,08/18/2011,11-03298791,Abandoned Vehicle Complaint,81976V,Ford,Green,FVI - Outcome,Need Vehicle Tow Report,180.0,7921 S PERRY AVE,60620.0,,,17.0,6.0,44.0,32.0,41.75025471627915,-87.6268700294273,"(41.75025471627915, -87.6268700294273)",2011-07-05
28791,07/05/2011,Completed,10/21/2011,11-03300512,Abandoned Vehicle Complaint,CB 9543,"(Homemade Motorcycle, Moped.Etc.)",Red,FVI - Outcome,Need Vehicle Tow Report,160.0,710 W BITTERSWEET PL,60613.0,,,46.0,23.0,3.0,,41.955796951430415,-87.64784340012905,"(41.955796951430415, -87.64784340012905)",2011-07-05
28792,07/05/2011,Completed,10/29/2012,11-03298308,Abandoned Vehicle Complaint,H938414,Ford,Maroon,FVI - Outcome,Need Vehicle Tow Report,14.0,4202 W 25TH ST,60623.0,,,22.0,10.0,30.0,,41.84612021452642,-87.72963934654304,"(41.84612021452642, -87.72963934654304)",2011-07-05
28864,07/06/2011,Completed - Dup,02/16/2012,11-03306531,Abandoned Vehicle Complaint,,,,,,,400 E LOWER WACKER DR,60601.0,1179182.06297533,1902386.82172984,42.0,1.0,32.0,,41.88755113170046,-87.61735600828747,"(41.88755113170046, -87.61735600828747)",2011-07-06
28865,07/06/2011,Completed - Dup,07/07/2011,11-03310988,Abandoned Vehicle Complaint,2691815,Chevrolet,White,FVI - Outcome,Create Work Order,,5107 N AUSTIN AVE,60630.0,1135200.25423114,1933623.43997575,45.0,16.0,11.0,,41.97417591495444,-87.77806404613926,"(41.97417591495444, -87.77806404613925)",2011-07-06
28866,07/06/2011,Completed - Dup,07/07/2011,11-03313248,Abandoned Vehicle Complaint,L607279,Cadillac,Black,FVI - Outcome,Create Work Order,90.0,1840 W 45TH ST,60609.0,1164731.25280794,1874845.99036688,12.0,9.0,61.0,,41.81229342250433,-87.67154097006849,"(41.81229342250433, -87.6715409700685)",2011-07-06
28867,07/06/2011,Completed - Dup,07/08/2011,11-03313031,Abandoned Vehicle Complaint,734-9581,Chevrolet,Black,FVI - Outcome,Create Work Order,,3211 W HOLLYWOOD AVE,60659.0,1153934.68063028,1937750.93430457,39.0,17.0,13.0,,41.98489991322223,-87.70914867615505,"(41.98489991322223, -87.70914867615505)",2011-07-06
28868,07/06/2011,Completed - Dup,07/08/2011,11-03313034,Abandoned Vehicle Complaint,NONE,Chevrolet,Brown,FVI - Outcome,Create Work Order,,3211 W HOLLYWOOD AVE,60659.0,1153934.68063028,1937750.93430457,39.0,17.0,13.0,,41.98489991322223,-87.70914867615505,"(41.98489991322223, -87.70914867615505)",2011-07-06
28869,07/06/2011,Completed - Dup,07/08/2011,11-03313414,Abandoned Vehicle Complaint,533M17C,Chevrolet,Beige,FVI - Outcome,Create Work Order,,3211 W HOLLYWOOD AVE,60659.0,1153934.68063028,1937750.93430457,39.0,17.0,13.0,,41.98489991322223,-87.70914867615505,"(41.98489991322223, -87.70914867615505)",2011-07-06
28870,07/06/2011,Completed - Dup,07/19/2011,11-03314133,Abandoned Vehicle Complaint,MARIO,Chevrolet,Gray,FVI - Outcome,Create Work Order,,3902 N CENTRAL PARK AVE,60618.0,1151691.89449108,1925854.10061269,33.0,17.0,16.0,,41.95205575337538,-87.71791025180565,"(41.95205575337538, -87.71791025180566)",2011-07-06
28871,07/06/2011,Completed - Dup,07/19/2011,11-03314134,Abandoned Vehicle Complaint,140 9816,Volvo,Burgundy,FVI - Outcome,Create Work Order,,3902 N CENTRAL PARK AVE,60618.0,1151691.89449108,1925854.10061269,33.0,17.0,16.0,,41.95205575337538,-87.71791025180565,"(41.95205575337538, -87.71791025180566)",2011-07-06
28872,07/06/2011,Completed - Dup,07/22/2011,11-03309582,Abandoned Vehicle Complaint,,,,,,,8917 S MARSHFIELD AVE,60620.0,1166906.20998034,1845470.41998992,21.0,22.0,73.0,69.0,41.73143627277939,-87.6640069351077,"(41.73143627277939, -87.66400693510768)",2011-07-06
28873,07/06/2011,Completed - Dup,07/22/2011,11-03309811,Abandoned Vehicle Complaint,,,,,,,8917 S MARSHFIELD AVE,60620.0,1166906.20998034,1845470.41998992,21.0,22.0,73.0,69.0,41.73143627277939,-87.6640069351077,"(41.73143627277939, -87.66400693510768)",2011-07-06
28874,07/06/2011,Completed - Dup,07/22/2011,11-03309908,Abandoned Vehicle Complaint,,,,,,,8917 S MARSHFIELD AVE,60620.0,1166906.20998034,1845470.41998992,21.0,22.0,73.0,69.0,41.73143627277939,-87.6640069351077,"(41.73143627277939, -87.66400693510768)",2011-07-06
28875,07/06/2011,Completed - Dup,07/27/2011,11-03311556,Abandoned Vehicle Complaint,X351773,Ford,Black,FVI - Outcome,Create Work Order,10.0,5555 S KEELER AVE,60629.0,1149312.31133087,1867432.35960745,13.0,8.0,62.0,,41.791552782036796,-87.72787171150362,"(41.791552782036796, -87.72787171150362)",2011-07-06
28876,07/06/2011,Completed - Dup,08/08/2011,11-03313748,Abandoned Vehicle Complaint,A39 2773,Chrysler,Gold,FVI - Outcome,Create Work Order,,5924 W EASTWOOD AVE,60630.0,1136009.35717465,1930308.11221041,45.0,16.0,15.0,,41.9650439192944,-87.77575896428614,"(41.96504391929441, -87.77575896428614)",2011-07-06
28877,07/06/2011,Completed - Dup,08/18/2011,11-03313854,Abandoned Vehicle Complaint,9745653,Cadillac,White,FVI - Outcome,Create Work Order,35.0,6559 S RHODES AVE,60637.0,1181028.89369864,1861640.07010717,20.0,3.0,42.0,,41.77494606540914,-87.61175459046758,"(41.77494606540914, -87.6117545904676)",2011-07-06
28878,07/06/2011,Completed,07/07/2011,11-03306322,Abandoned Vehicle Complaint,N/LP,Legacy Unknown,Blue,FVI - Outcome,Vehicle was moved from original address requested,7.0,8119 S HOUSTON AVE,60617.0,,,7.0,4.0,46.0,,41.747712229886496,-87.55024899327417,"(41.74771222988649, -87.55024899327417)",2011-07-06
28879,07/06/2011,Completed,07/07/2011,11-03307117,Abandoned Vehicle Complaint,834M178,Chevrolet,Tan,FVI - Outcome,Vehicle was moved from original address requested,7.0,3513 W MONROE ST,60624.0,,,28.0,11.0,27.0,,41.87944321694149,-87.71413177061483,"(41.87944321694149, -87.71413177061483)",2011-07-06
28880,07/06/2011,Completed,07/07/2011,11-03310835,Abandoned Vehicle Complaint,2691815,Chevrolet,White,FVI - Outcome,Vehicle was moved from original address requested,45.0,5107 N AUSTIN AVE,60630.0,,,45.0,16.0,11.0,,41.97417591495444,-87.77806404613926,"(41.97417591495444, -87.77806404613925)",2011-07-06
28881,07/06/2011,Completed,07/07/2011,11-03313204,Abandoned Vehicle Complaint,L607279,Cadillac,Black,FVI - Outcome,Return to Owner - Vehicle,7.0,1840 W 45TH ST,60609.0,,,12.0,9.0,61.0,,41.81229342250433,-87.67154097006849,"(41.81229342250433, -87.6715409700685)",2011-07-06
28882,07/06/2011,Completed,07/08/2011,11-03306449,Abandoned Vehicle Complaint,A784296,Oldsmobile,Green,FVI - Outcome,Vehicle was moved from original address requested,7.0,2799 N CAMPBELL AVE,60647.0,,,1.0,14.0,22.0,,41.93206338266288,-87.69019777884937,"(41.932063382662875, -87.69019777884937)",2011-07-06
28883,07/06/2011,Completed,07/08/2011,11-03306881,Abandoned Vehicle Complaint,L184357,Toyota,Red,FVI - Outcome,Need Vehicle Tow Report,2.0,405 E LOWER WACKER DR,60601.0,,,42.0,1.0,32.0,,41.88733100557311,-87.61720797360981,"(41.88733100557311, -87.61720797360981)",2011-07-06
28884,07/06/2011,Completed,07/08/2011,11-03306939,Abandoned Vehicle Complaint,K14 9625,Volkswagen,Silver,FVI - Outcome,Need Vehicle Tow Report,2.0,407 E LOWER WACKER DR,60601.0,,,42.0,1.0,32.0,,41.88733070659253,-87.6171331708712,"(41.887330706592536, -87.6171331708712)",2011-07-06
28885,07/06/2011,Completed,07/08/2011,11-03307545,Abandoned Vehicle Complaint,H11 0865,Ford,Gray,FVI - Outcome,Vehicle was moved from original address requested,,2127 W GLADYS AVE,60612.0,,,2.0,12.0,28.0,,41.876801011260746,-87.68004553575535,"(41.876801011260746, -87.68004553575534)",2011-07-06
28886,07/06/2011,Completed,07/08/2011,11-03308773,Abandoned Vehicle Complaint,UNKNOWN,General Motors Corp.,White,FVI - Outcome,Vehicle was moved from original address requested,14.0,5616 S SACRAMENTO AVE,60629.0,,,14.0,8.0,63.0,,41.7912393510768,-87.6987594042552,"(41.791239351076804, -87.69875940425521)",2011-07-06
28887,07/06/2011,Completed,07/08/2011,11-03309646,Abandoned Vehicle Complaint,126 257,Chevrolet,Green,FVI - Outcome,Vehicle was moved from original address requested,,5963 W IOWA ST,60651.0,,,29.0,15.0,25.0,,41.896427796071904,-87.774822281736,"(41.89642779607191, -87.774822281736)",2011-07-06
28888,07/06/2011,Completed,07/08/2011,11-03313526,Abandoned Vehicle Complaint,GOD,Ford,Black,FVI - Outcome,Vehicle was moved from original address requested,7.0,3346 S CARPENTER ST,60608.0,,,11.0,9.0,60.0,,41.83301968814782,-87.65238612962453,"(41.83301968814782, -87.65238612962455)",2011-07-06
28889,07/06/2011,Completed,07/11/2011,11-03311086,Abandoned Vehicle Complaint,K529180,Buick,Blue,FVI - Outcome,Vehicle was moved from original address requested,10.0,6225 N HERMITAGE AVE,60660.0,,,40.0,24.0,77.0,,41.99517061265793,-87.67327659822546,"(41.99517061265793, -87.67327659822547)",2011-07-06
28890,07/06/2011,Completed,07/11/2011,11-03312521,Abandoned Vehicle Complaint,NONE,Chevrolet,Gold,FVI - Outcome,Vehicle was moved from original address requested,14.0,10020 S PEORIA ST,60643.0,,,34.0,22.0,73.0,,41.7116674897329,-87.6455342925012,"(41.71166748973291, -87.64553429250121)",2011-07-06
28891,07/06/2011,Completed,07/12/2011,11-03308822,Abandoned Vehicle Complaint,S490379,Lexus,Gray,FVI - Outcome,Vehicle was moved from original address requested,8.0,729 N MORGAN ST,60642.0,,,27.0,13.0,24.0,,41.895452016039656,-87.65246362547447,"(41.89545201603966, -87.65246362547447)",2011-07-06
28892,07/06/2011,Completed,07/12/2011,11-03309030,Abandoned Vehicle Complaint,L213882,Nissan,Gray,FVI - Outcome,Vehicle was moved from original address requested,14.0,5434 N MONITOR AVE,60630.0,,,45.0,16.0,11.0,,41.97960200233337,-87.7746084839134,"(41.97960200233337, -87.7746084839134)",2011-07-06
28893,07/06/2011,Completed,07/12/2011,11-03309802,Abandoned Vehicle Complaint,NO PLATES,Dodge,Green,FVI - Outcome,Vehicle was moved from original address requested,7.0,2124 W WARREN BLVD,60612.0,,,2.0,13.0,28.0,,41.88228810505816,-87.68013697221365,"(41.88228810505816, -87.68013697221366)",2011-07-06
28894,07/06/2011,Completed,07/12/2011,11-03311794,Abandoned Vehicle Complaint,,,,FVI - Outcome,Vehicle was moved from original address requested,,2540 W MOFFAT ST,60647.0,1159140.29352508,1912207.66019268,1.0,14.0,22.0,,41.91492895658941,-87.69142105905605,"(41.91492895658941, -87.69142105905604)",2011-07-06
28895,07/06/2011,Completed,07/12/2011,11-03313812,Abandoned Vehicle Complaint,734M310,Nissan,Black,FVI - Outcome,Vehicle was moved from original address requested,30.0,2331 W BELLE PLAINE AVE,60618.0,,,47.0,19.0,5.0,38.0,41.955751050366004,-87.68736664896602,"(41.955751050366, -87.68736664896603)",2011-07-06
28896,07/06/2011,Completed,07/12/2011,11-03314235,Abandoned Vehicle Complaint,88807K,Ford,Blue,FVI - Outcome,Vehicle was moved from original address requested,21.0,11269 S CHAMPLAIN AVE,60628.0,,,9.0,5.0,50.0,,41.6893090324253,-87.60698889970061,"(41.6893090324253, -87.60698889970061)",2011-07-06
28897,07/06/2011,Completed,07/12/2011,11-03314350,Abandoned Vehicle Complaint,NLP,(Unlisted Make),White,FVI - Outcome,Return to Owner - Vehicle,14.0,1237 S SPRINGFIELD AVE,60623.0,,,24.0,10.0,29.0,,41.86505733157141,-87.72255371244086,"(41.86505733157141, -87.72255371244086)",2011-07-06
28898,07/06/2011,Completed,07/13/2011,11-03306312,Abandoned Vehicle Complaint,47394FF,General Motors Corp.,Yellow,FVI - Outcome,Return to Owner - Vehicle,14.0,5924 N LINCOLN AVE,60659.0,,,40.0,20.0,2.0,,41.98871481472643,-87.70480293121693,"(41.98871481472643, -87.70480293121692)",2011-07-06
28899,07/06/2011,Completed,07/13/2011,11-03306496,Abandoned Vehicle Complaint,D611958,Chevrolet,Beige,FVI - Outcome,Vehicle was moved from original address requested,30.0,5310 W EDDY ST,60641.0,,,38.0,16.0,15.0,,41.9451596050909,-87.75985496533481,"(41.9451596050909, -87.75985496533481)",2011-07-06
28900,07/06/2011,Completed,07/13/2011,11-03308991,Abandoned Vehicle Complaint,E159392,Ford,Burgundy,FVI - Outcome,Return to Owner - Vehicle,7.0,1634 W ARTHUR AVE,60626.0,,,40.0,24.0,1.0,,42.000692262631844,-87.67175628818049,"(42.00069226263184, -87.67175628818049)",2011-07-06
28901,07/06/2011,Completed,07/13/2011,11-03312981,Abandoned Vehicle Complaint,L820150,Ford,Black,FVI - Outcome,Vehicle was moved from original address requested,40.0,1208 N CAMPBELL AVE,60622.0,,,26.0,14.0,24.0,,41.90330894499749,-87.68964356690367,"(41.90330894499749, -87.68964356690367)",2011-07-06
28902,07/06/2011,Completed,07/13/2011,11-03314291,Abandoned Vehicle Complaint,K518240,Ford,White,FVI - Outcome,Return to Owner - Vehicle,14.0,8226 S FRANCISCO AVE,60652.0,,,18.0,8.0,70.0,,41.74361449828852,-87.69504681589125,"(41.743614498288515, -87.69504681589125)",2011-07-06
28903,07/06/2011,Completed,07/14/2011,11-03306503,Abandoned Vehicle Complaint,TEMP PLATES UNKNOWN,Cadillac,Green,FVI - Outcome,Vehicle was moved from original address requested,30.0,6950 S CAMPBELL AVE,60629.0,,,15.0,8.0,66.0,14.0,41.76679296339967,-87.6858922909441,"(41.76679296339967, -87.6858922909441)",2011-07-06
28904,07/06/2011,Completed,07/14/2011,11-03307168,Abandoned Vehicle Complaint,582KS3,Mazda,Blue,FVI - Outcome,Vehicle was moved from original address requested,30.0,2122 W MCLEAN AVE,60647.0,,,32.0,14.0,22.0,,41.918566615311214,-87.68107009481838,"(41.91856661531121, -87.68107009481838)",2011-07-06
28905,07/06/2011,Completed,07/14/2011,11-03311878,Abandoned Vehicle Complaint,NE8835,Ford,White,FVI - Outcome,Vehicle was moved from original address requested,4.0,13304 S AVENUE L,60633.0,,,10.0,4.0,55.0,,41.653459611105355,-87.53640006761829,"(41.65345961110535, -87.5364000676183)",2011-07-06
28906,07/06/2011,Completed,07/14/2011,11-03313848,Abandoned Vehicle Complaint,K523208,,Red,FVI - Outcome,Vehicle was moved from original address requested,21.0,7601 S WABASH AVE,60619.0,,,6.0,6.0,69.0,,41.75635432324663,-87.62296296622713,"(41.756354323246626, -87.62296296622712)",2011-07-06
28907,07/06/2011,Completed,07/14/2011,11-03313968,Abandoned Vehicle Complaint,L496121,Jeep/Cherokee,Purple,FVI - Outcome,Vehicle was moved from original address requested,60.0,7046 S EBERHART AVE,60637.0,,,6.0,3.0,69.0,,41.766179026876685,-87.61300199178483,"(41.76617902687669, -87.61300199178483)",2011-07-06
28908,07/06/2011,Completed,07/15/2011,11-03308408,Abandoned Vehicle Complaint,654L295,Chevrolet,Red,FVI - Outcome,Vehicle was moved from original address requested,7.0,3345 N OLEANDER AVE,60634.0,,,36.0,16.0,17.0,,41.94091569620456,-87.81525692547274,"(41.94091569620456, -87.81525692547274)",2011-07-06
28909,07/06/2011,Completed,07/18/2011,11-03306542,Abandoned Vehicle Complaint,X73 8575,Chevrolet,Gold,FVI - Outcome,Need Vehicle Tow Report,3.0,401 E LOWER WACKER DR,60601.0,,,42.0,1.0,32.0,,41.88733160338811,-87.61735757909119,"(41.88733160338811, -87.61735757909118)",2011-07-06
28910,07/06/2011,Completed,07/18/2011,11-03314313,Abandoned Vehicle Complaint,"FOOD TRUCK ON LEONAS PARKING LOT HAS NOT MOVED OVER 7 DAYS, HAZARDOUS ABANDONED",(Homemade Trailer),Multi-Color,FVI - Outcome,Vehicle was moved from original address requested,,1236 E 53RD ST,60615.0,,,4.0,21.0,41.0,61.0,41.7995820117793,-87.59510894342812,"(41.7995820117793, -87.59510894342813)",2011-07-06
28911,07/06/2011,Completed,07/18/2011,11-03314723,Abandoned Vehicle Complaint,0000000,"Monon Trailer, Div. Of Evans Products Co.",Burgundy,FVI - Outcome,Vehicle was moved from original address requested,7.0,6746 S CREGIER AVE,60649.0,,,5.0,3.0,43.0,,41.77199991145696,-87.5815272186501,"(41.77199991145696, -87.5815272186501)",2011-07-06
28912,07/06/2011,Completed,07/19/2011,11-03310454,Abandoned Vehicle Complaint,9449838,Toyota,Blue,FVI - Outcome,Vehicle was moved from original address requested,21.0,2957 N RIDGEWAY AVE,60618.0,,,35.0,25.0,21.0,,41.93494591152975,-87.7197575327399,"(41.934945911529745, -87.7197575327399)",2011-07-06
28913,07/06/2011,Completed,07/19/2011,11-03310901,Abandoned Vehicle Complaint,DONT KNOW,,White,FVI - Outcome,Vehicle was moved from original address requested,10.0,3722 N ST LOUIS AVE,60618.0,,,35.0,17.0,16.0,,41.949069276284106,-87.71538218537617,"(41.94906927628411, -87.71538218537617)",2011-07-06
28914,07/06/2011,Completed,07/20/2011,11-03308974,Abandoned Vehicle Complaint,L542103,Volvo,White,FVI - Outcome,Vehicle was moved from original address requested,21.0,3331 N KOLMAR AVE,60641.0,,,30.0,17.0,16.0,,41.94168979804689,-87.74065948570284,"(41.94168979804689, -87.74065948570285)",2011-07-06
28915,07/06/2011,Completed,07/21/2011,11-03312096,Abandoned Vehicle Complaint,X155672,Buick,White,FVI - Outcome,Vehicle was moved from original address requested,30.0,3708 W 80TH PL,60652.0,,,18.0,8.0,70.0,,41.74697367409532,-87.71493607664931,"(41.746973674095315, -87.71493607664931)",2011-07-06
28916,07/06/2011,Completed,07/21/2011,11-03313826,Abandoned Vehicle Complaint,K395373,Buick,Red,FVI - Outcome,Vehicle was moved from original address requested,7.0,3437 W 84TH ST,60652.0,,,18.0,8.0,70.0,,41.740454435809475,-87.7084935571799,"(41.74045443580948, -87.7084935571799)",2011-07-06
28917,07/06/2011,Completed,07/22/2011,11-03307662,Abandoned Vehicle Complaint,5796828,Ford,Gray,FVI - Outcome,Need Vehicle Tow Report,12.0,3017 S HAYNES CT,60608.0,,,11.0,9.0,60.0,,41.83889794194739,-87.6563387382987,"(41.83889794194739, -87.6563387382987)",2011-07-06
28918,07/06/2011,Completed,07/22/2011,11-03309266,Abandoned Vehicle Complaint,4AGD520,Cadillac,Blue,FVI - Outcome,Need Vehicle Tow Report,50.0,8917 S MARSHFIELD AVE,60620.0,,,21.0,22.0,73.0,69.0,41.73143627277939,-87.6640069351077,"(41.73143627277939, -87.66400693510768)",2011-07-06
28919,07/06/2011,Completed,07/22/2011,11-03314332,Abandoned Vehicle Complaint,NLP,Dodge,Silver,FVI - Outcome,Need Vehicle Tow Report,7.0,5936 N CALDWELL AVE,60646.0,,,39.0,17.0,12.0,,41.98859819182992,-87.74825370359186,"(41.98859819182992, -87.74825370359186)",2011-07-06
28920,07/06/2011,Completed,07/26/2011,11-03314142,Abandoned Vehicle Complaint,T487868,Toyota,Tan,FVI - Outcome,Vehicle was moved from original address requested,30.0,3310 N OSAGE AVE,60634.0,,,36.0,16.0,17.0,,41.93979967436805,-87.82530359613588,"(41.93979967436805, -87.82530359613588)",2011-07-06
28921,07/06/2011,Completed,07/27/2011,11-03308143,Abandoned Vehicle Complaint,3967375,Ford,Green,FVI - Outcome,Return to Owner - Vehicle,21.0,1407 W HURON ST,60642.0,,,27.0,13.0,24.0,,41.894213628640955,-87.66267715719091,"(41.89421362864095, -87.66267715719091)",2011-07-06
28922,07/06/2011,Completed,07/27/2011,11-03309454,Abandoned Vehicle Complaint,H878019,Nissan,Gold,FVI - Outcome,Vehicle was moved from original address requested,5.0,10855 S ST LOUIS AVE,60655.0,,,19.0,22.0,74.0,,41.69531029787617,-87.70816841567158,"(41.695310297876176, -87.70816841567158)",2011-07-06
28923,07/06/2011,Completed,07/27/2011,11-03309829,Abandoned Vehicle Complaint,G571089,Chevrolet,Black,FVI - Outcome,Vehicle was moved from original address requested,14.0,3718 W EDDY ST,60618.0,,,30.0,17.0,21.0,,41.94566080624981,-87.7208425857743,"(41.94566080624981, -87.72084258577432)",2011-07-06
28924,07/06/2011,Completed,07/29/2011,11-03311629,Abandoned Vehicle Complaint,L311338,Cadillac,Beige,FVI - Outcome,Return to Owner - Vehicle,8.0,2653 N LINDER AVE,60639.0,,,30.0,25.0,19.0,,41.92926642308724,-87.76356929620844,"(41.929266423087235, -87.76356929620843)",2011-07-06
28925,07/06/2011,Completed,08/01/2011,11-03306569,Abandoned Vehicle Complaint,949M975,Pontiac,Red,FVI - Outcome,Vehicle was moved from original address requested,10.0,6206 S KOMENSKY AVE,60629.0,,,13.0,8.0,65.0,3.0,41.780192266754774,-87.72417163529562,"(41.780192266754774, -87.72417163529562)",2011-07-06
28926,07/06/2011,Completed,08/01/2011,11-03306588,Abandoned Vehicle Complaint,NOT AVAILABLE,Honda,White,FVI - Outcome,Need Vehicle Tow Report,6.0,403 E LOWER WACKER DR,60601.0,,,42.0,1.0,32.0,,41.88733130450497,-87.61728277634981,"(41.88733130450497, -87.61728277634981)",2011-07-06
28927,07/06/2011,Completed,08/03/2011,11-03307066,Abandoned Vehicle Complaint,L451365,Mitsubishi,Silver,FVI - Outcome,Need Vehicle Tow Report,6.0,399 E LOWER RANDOLPH ST,60601.0,1179247.62662322,1901267.84988957,42.0,1.0,32.0,,41.884261786502755,-87.6172956669855,"(41.88426178650276, -87.6172956669855)",2011-07-06
28928,07/06/2011,Completed,08/08/2011,11-03306478,Abandoned Vehicle Complaint,L216274,Daewoo,Green,FVI - Outcome,Need Vehicle Tow Report,7.0,4929 W SUNNYSIDE AVE,60630.0,,,45.0,16.0,15.0,,41.962393874539316,-87.75120037523261,"(41.96239387453932, -87.75120037523263)",2011-07-06
28929,07/06/2011,Completed,08/08/2011,11-03307133,Abandoned Vehicle Complaint,H87 4971,Volkswagen,Silver,FVI - Outcome,Need Vehicle Tow Report,6.0,399 E LOWER RANDOLPH ST,60601.0,1179247.62662322,1901267.84988957,42.0,1.0,32.0,,41.884261786502755,-87.6172956669855,"(41.88426178650276, -87.6172956669855)",2011-07-06
28930,07/06/2011,Completed,08/08/2011,11-03307940,Abandoned Vehicle Complaint,A392773,Chrysler,Gold,FVI - Outcome,Need Vehicle Tow Report,7.0,5924 W EASTWOOD AVE,60630.0,,,45.0,16.0,15.0,,41.9650439192944,-87.77575896428614,"(41.96504391929441, -87.77575896428614)",2011-07-06
28931,07/06/2011,Completed,08/08/2011,11-03308192,Abandoned Vehicle Complaint,199244,(Unlisted Manufacturer),White,FVI - Outcome,Need Vehicle Tow Report,21.0,3130 S RIDGEWAY AVE,60623.0,,,22.0,10.0,30.0,,41.83604866585921,-87.71837063362591,"(41.83604866585921, -87.7183706336259)",2011-07-06
28932,07/06/2011,Completed,08/08/2011,11-03309329,Abandoned Vehicle Complaint,7320888,Volvo,Black,FVI - Outcome,Need Vehicle Tow Report,30.0,2755 W 38TH ST,60632.0,,,12.0,9.0,58.0,,41.82450996750068,-87.69438282781637,"(41.82450996750068, -87.69438282781638)",2011-07-06
28933,07/06/2011,Completed,08/08/2011,11-03309760,Abandoned Vehicle Complaint,L451767,Kia Motors Corp,Gray,FVI - Outcome,Need Vehicle Tow Report,30.0,8823 S DORCHESTER AVE,60619.0,,,8.0,4.0,48.0,,41.734314436051896,-87.59036608550791,"(41.7343144360519, -87.5903660855079)",2011-07-06
28934,07/06/2011,Completed,08/08/2011,11-03311034,Abandoned Vehicle Complaint,3525333,Ford,Blue,FVI - Outcome,Need Vehicle Tow Report,365.0,4036 N KENMORE AVE,60613.0,,,46.0,23.0,3.0,34.0,41.955545479407576,-87.65631011595642,"(41.95554547940758, -87.65631011595642)",2011-07-06
28935,07/06/2011,Completed,08/08/2011,11-03311816,Abandoned Vehicle Complaint,X872008,Toyota,Black,FVI - Outcome,Need Vehicle Tow Report,10.0,1940 W 34TH PL,60608.0,,,11.0,9.0,59.0,,41.83142195565257,-87.67449900393646,"(41.831421955652566, -87.67449900393646)",2011-07-06
28936,07/06/2011,Completed,08/08/2011,11-03311905,Abandoned Vehicle Complaint,K401160,Chevrolet,White,FVI - Outcome,Need Vehicle Tow Report,12.0,5330 S PRAIRIE AVE,60615.0,,,3.0,2.0,40.0,,41.7974643174332,-87.6194409017766,"(41.7974643174332, -87.61944090177661)",2011-07-06
28937,07/06/2011,Completed,08/08/2011,11-03314315,Abandoned Vehicle Complaint,233735X,Dodge,Gray,FVI - Outcome,Need Vehicle Tow Report,7.0,2201 N ROCKWELL ST,60647.0,,,1.0,14.0,22.0,,41.92184542036816,-87.6926139784557,"(41.92184542036816, -87.69261397845571)",2011-07-06
28938,07/06/2011,Completed,08/10/2011,11-03307730,Abandoned Vehicle Complaint,9134858,Chevrolet,Green,FVI - Outcome,Need Vehicle Tow Report,21.0,8134 S PAULINA ST,60620.0,,,18.0,6.0,71.0,,41.74562988741231,-87.66589396603685,"(41.74562988741231, -87.66589396603686)",2011-07-06
28939,07/06/2011,Completed,10/21/2011,11-03309414,Abandoned Vehicle Complaint,9572252,Chevrolet,Black,FVI - Outcome,Need Vehicle Tow Report,60.0,2841 S KEELEY ST,60608.0,,,11.0,9.0,60.0,,41.841875984542654,-87.65447905786837,"(41.841875984542654, -87.65447905786837)",2011-07-06
29003,07/07/2011,Completed - Dup,07/08/2011,11-03323078,Abandoned Vehicle Complaint,UNKNOWN,Dodge,Gray,FVI - Outcome,Create Work Order,60.0,1248 S WASHTENAW AVE,60608.0,1158564.91431224,1894175.65397564,28.0,10.0,29.0,,41.86505539249636,-87.69351465602597,"(41.86505539249636, -87.69351465602597)",2011-07-07
29004,07/07/2011,Completed - Dup,07/11/2011,11-03322365,Abandoned Vehicle Complaint,K149041,,White,FVI - Outcome,Create Work Order,15.0,12205 S MORGAN ST,60643.0,1171869.66008393,1823887.5355827,34.0,5.0,53.0,,41.67208570674047,-87.64644682291163,"(41.67208570674047, -87.64644682291163)",2011-07-07
29005,07/07/2011,Completed - Dup,07/13/2011,11-03322387,Abandoned Vehicle Complaint,1224929,Chevrolet,Red,FVI - Outcome,Create Work Order,21.0,7030 W GRACE ST,60634.0,1128728.83999558,1924451.27939229,38.0,16.0,17.0,,41.94910325805281,-87.8022860503054,"(41.94910325805281, -87.8022860503054)",2011-07-07
29006,07/07/2011,Completed - Dup,07/15/2011,11-03320972,Abandoned Vehicle Complaint,H824499,Honda,Tan,FVI - Outcome,Create Work Order,30.0,8124 W ADDISON ST,60634.0,1121175.86289716,1922926.61740231,36.0,16.0,17.0,,41.94504265719095,-87.83015411172299,"(41.945042657190946, -87.83015411172299)",2011-07-07
29007,07/07/2011,Completed - Dup,07/15/2011,11-03321558,Abandoned Vehicle Complaint,A151163,Toyota,Blue,FVI - Outcome,Create Work Order,20.0,4930 N LAVERGNE AVE,60630.0,1142142.71227235,1932449.34157974,45.0,16.0,11.0,,41.97074725029101,-87.75286118308048,"(41.97074725029101, -87.75286118308048)",2011-07-07
29008,07/07/2011,Completed - Dup,07/19/2011,11-03321768,Abandoned Vehicle Complaint,140 9816,Volvo,Burgundy,FVI - Outcome,Create Work Order,,3908 N CENTRAL PARK AVE,60618.0,1151691.09449108,1925880.20061269,33.0,17.0,16.0,,41.952235412490076,-87.71791523871565,"(41.95223541249008, -87.71791523871566)",2011-07-07
29009,07/07/2011,Completed - Dup,07/19/2011,11-03321771,Abandoned Vehicle Complaint,MARIO,Chevrolet,Gray,FVI - Outcome,Create Work Order,,3908 N CENTRAL PARK AVE,60618.0,1151691.09449108,1925880.20061269,33.0,17.0,16.0,,41.952235412490076,-87.71791523871565,"(41.95223541249008, -87.71791523871566)",2011-07-07
29010,07/07/2011,Completed - Dup,07/20/2011,11-03321772,Abandoned Vehicle Complaint,1409816,Volvo,Burgundy,FVI - Outcome,Create Work Order,,3910 N CENTRAL PARK AVE,60618.0,1151690.89449108,1925888.90061269,33.0,17.0,16.0,,41.95229518863994,-87.71791695264379,"(41.95229518863994, -87.7179169526438)",2011-07-07
29011,07/07/2011,Completed - Dup,07/20/2011,11-03321774,Abandoned Vehicle Complaint,MARIO,Chevrolet,Gray,FVI - Outcome,Create Work Order,,3910 N CENTRAL PARK AVE,60618.0,1151690.89449108,1925888.90061269,33.0,17.0,16.0,,41.95229518863994,-87.71791695264379,"(41.95229518863994, -87.7179169526438)",2011-07-07
29012,07/07/2011,Completed - Dup,07/25/2011,11-03320641,Abandoned Vehicle Complaint,7020111,Acura,Gray,FVI - Outcome,Create Work Order,30.0,6970 W MELROSE ST,60634.0,1129113.45180813,1920806.32160422,36.0,16.0,17.0,,41.93909210667368,-87.8009529145546,"(41.939092106673684, -87.8009529145546)",2011-07-07
29013,07/07/2011,Completed,07/07/2011,11-03314907,Abandoned Vehicle Complaint,UNKNOW,Freightliner Corp.,Blue,FVI - Outcome,Vehicle was moved from original address requested,,6444 W 63RD ST,60638.0,,,23.0,8.0,64.0,,41.777759962045934,-87.78305810078828,"(41.77775996204594, -87.78305810078828)",2011-07-07
29014,07/07/2011,Completed,07/07/2011,11-03315055,Abandoned Vehicle Complaint,NONE,Ford,Maroon,FVI - Outcome,Vehicle was moved from original address requested,,4457 S KEATING AVE,60632.0,,,23.0,8.0,56.0,,41.811444535354426,-87.74189420238791,"(41.811444535354426, -87.7418942023879)",2011-07-07
29015,07/07/2011,Completed,07/07/2011,11-03315568,Abandoned Vehicle Complaint,UNKNOW,Ford,Black,FVI - Outcome,Return to Owner - Vehicle,,6245 S NATCHEZ AVE,60638.0,,,23.0,8.0,64.0,,41.77813289647322,-87.7835810981793,"(41.778132896473224, -87.7835810981793)",2011-07-07
29016,07/07/2011,Completed,07/08/2011,11-03317863,Abandoned Vehicle Complaint,CALLER DOESNT KNOW,Ford,White,FVI - Outcome,Vehicle was moved from original address requested,21.0,8149 S PRINCETON AVE,60620.0,,,21.0,6.0,44.0,,41.745810377535975,-87.63160085565704,"(41.745810377535975, -87.63160085565704)",2011-07-07
29017,07/07/2011,Completed,07/08/2011,11-03319225,Abandoned Vehicle Complaint,DONT KNOW,Dodge,Red,FVI - Outcome,Vehicle was moved from original address requested,120.0,3718 S WOOD ST,60609.0,,,11.0,9.0,59.0,,41.826191947495154,-87.67043803655338,"(41.82619194749515, -87.67043803655338)",2011-07-07
29018,07/07/2011,Completed,07/08/2011,11-03319338,Abandoned Vehicle Complaint,????,,White,FVI - Outcome,Return to Owner - Vehicle,14.0,3040 W PRATT BLVD,60645.0,,,50.0,24.0,2.0,,42.00482999107013,-87.70622561104669,"(42.00482999107013, -87.70622561104669)",2011-07-07
29019,07/07/2011,Completed,07/08/2011,11-03319597,Abandoned Vehicle Complaint,34916RV,(Unlisted Make),Gray,FVI - Outcome,Return to Owner - Vehicle,180.0,3227 W 109TH ST,60655.0,,,19.0,22.0,74.0,55.0,41.695094064501326,-87.70197620120688,"(41.69509406450133, -87.70197620120688)",2011-07-07
29020,07/07/2011,Completed,07/08/2011,11-03320722,Abandoned Vehicle Complaint,G90 6929,Lincoln,White,FVI - Outcome,Vehicle was moved from original address requested,,2958 W HOLLYWOOD AVE,60659.0,,,40.0,20.0,2.0,,41.98502472845773,-87.70401079634729,"(41.98502472845773, -87.7040107963473)",2011-07-07
29021,07/07/2011,Completed,07/08/2011,11-03321087,Abandoned Vehicle Complaint,NO PLATES,General Motors Corp.,Red,FVI - Outcome,Vehicle was moved from original address requested,7.0,5250 S TRUMBULL AVE,60632.0,,,14.0,8.0,63.0,,41.79739516142365,-87.70994033823,"(41.79739516142366, -87.70994033823)",2011-07-07
29022,07/07/2011,Completed,07/08/2011,11-03321207,Abandoned Vehicle Complaint,972ZP,Ford,Red,FVI - Outcome,Return to Owner - Vehicle,40.0,10938 S HARDING AVE,60655.0,,,19.0,22.0,74.0,,41.69371910825455,-87.71937270508244,"(41.69371910825455, -87.71937270508244)",2011-07-07
29023,07/07/2011,Completed,07/08/2011,11-03322394,Abandoned Vehicle Complaint,UNKNOWN,Chevrolet,White,FVI - Outcome,Vehicle was moved from original address requested,270.0,3658 N SACRAMENTO AVE,60618.0,,,33.0,17.0,16.0,,41.94838655063098,-87.7031207076595,"(41.94838655063098, -87.70312070765948)",2011-07-07
29024,07/07/2011,Completed,07/08/2011,11-03323048,Abandoned Vehicle Complaint,US121599,Nissan,Black,FVI - Outcome,Return to Owner - Vehicle,35.0,2036 W MORSE AVE,60645.0,,,50.0,24.0,2.0,,42.007421960229784,-87.68267698801603,"(42.00742196022979, -87.68267698801603)",2011-07-07
29025,07/07/2011,Completed,07/11/2011,11-03319199,Abandoned Vehicle Complaint,00000,Ford,Burgundy,FVI - Outcome,Vehicle was moved from original address requested,12.0,5055 S KENNETH AVE,60632.0,,,23.0,8.0,57.0,,41.8006311623865,-87.73425091631269,"(41.8006311623865, -87.73425091631269)",2011-07-07
29026,07/07/2011,Completed,07/12/2011,11-03317265,Abandoned Vehicle Complaint,8793852,Honda,Red,FVI - Outcome,Vehicle was moved from original address requested,14.0,1044 W HURON ST,60642.0,,,27.0,13.0,24.0,29.0,41.894496404186896,-87.65403160840204,"(41.89449640418689, -87.65403160840205)",2011-07-07
29027,07/07/2011,Completed,07/12/2011,11-03318811,Abandoned Vehicle Complaint,L617338,Chevrolet,White,FVI - Outcome,Return to Owner - Vehicle,20.0,1137 W 101ST ST,60643.0,,,34.0,22.0,73.0,,41.71035600654728,-87.65167865702624,"(41.71035600654728, -87.65167865702624)",2011-07-07
29028,07/07/2011,Completed,07/12/2011,11-03320647,Abandoned Vehicle Complaint,5304188,Dodge,Black,FVI - Outcome,Vehicle was moved from original address requested,60.0,5930 W WASHINGTON BLVD,60644.0,,,29.0,15.0,25.0,,41.88223612563605,-87.77322012819937,"(41.88223612563605, -87.77322012819936)",2011-07-07
29029,07/07/2011,Completed,07/12/2011,11-03322949,Abandoned Vehicle Complaint,88807K,Ford,Blue,FVI - Outcome,Vehicle was moved from original address requested,21.0,11271 S CHAMPLAIN AVE,60628.0,,,9.0,5.0,50.0,,41.68926557108365,-87.60698803130549,"(41.689265571083645, -87.60698803130548)",2011-07-07
29030,07/07/2011,Completed,07/13/2011,11-03317223,Abandoned Vehicle Complaint,A140516,Mercedes,Beige,FVI - Outcome,Vehicle was moved from original address requested,14.0,4426 N MOODY AVE,60630.0,,,38.0,16.0,15.0,,41.961137533334686,-87.78085697581696,"(41.96113753333469, -87.78085697581696)",2011-07-07
29031,07/07/2011,Completed,07/13/2011,11-03318237,Abandoned Vehicle Complaint,NONE,Ford,Black,FVI - Outcome,Vehicle was moved from original address requested,7.0,1040 N HALSTED ST,60642.0,,,32.0,18.0,8.0,,41.901347591324814,-87.6481212603667,"(41.90134759132481, -87.64812126036668)",2011-07-07
29032,07/07/2011,Completed,07/13/2011,11-03320107,Abandoned Vehicle Complaint,3026709,Ford,Red,FVI - Outcome,Vehicle was moved from original address requested,30.0,4340 N LOCKWOOD AVE,60641.0,,,38.0,16.0,15.0,,41.95999502042567,-87.75997982239834,"(41.95999502042567, -87.75997982239835)",2011-07-07
29033,07/07/2011,Completed,07/13/2011,11-03322378,Abandoned Vehicle Complaint,535381,Chrysler,Red,FVI - Outcome,Return to Owner - Vehicle,,5931 W SCHOOL ST,60634.0,,,38.0,16.0,15.0,2.0,41.94018628806364,-87.77510358810612,"(41.94018628806364, -87.77510358810612)",2011-07-07
29034,07/07/2011,Completed,07/14/2011,11-03315397,Abandoned Vehicle Complaint,UNKNOWN,Cadillac,Red,FVI - Outcome,Vehicle was moved from original address requested,7.0,3416 N NARRAGANSETT AVE,60634.0,,,36.0,16.0,17.0,,41.94251001375459,-87.7863798624563,"(41.94251001375459, -87.78637986245629)",2011-07-07
29035,07/07/2011,Completed,07/14/2011,11-03318949,Abandoned Vehicle Complaint,UNK,Kia Motors Corp,Black,FVI - Outcome,Vehicle was moved from original address requested,,5600 N NAGLE AVE,60646.0,,,41.0,16.0,10.0,,41.98300434401306,-87.7878799714067,"(41.98300434401306, -87.78787997140668)",2011-07-07
29036,07/07/2011,Completed,07/14/2011,11-03318960,Abandoned Vehicle Complaint,4N89D7,Chrysler,Green,FVI - Outcome,Vehicle was moved from original address requested,,1646 W FLETCHER ST,60657.0,,,32.0,19.0,6.0,27.0,41.938870365125425,-87.67050538336575,"(41.93887036512542, -87.67050538336575)",2011-07-07
29037,07/07/2011,Completed,07/14/2011,11-03319628,Abandoned Vehicle Complaint,A937340,Ford,Yellow,FVI - Outcome,Vehicle was moved from original address requested,14.0,8724 S BALTIMORE AVE,60617.0,,,10.0,4.0,46.0,,41.73664233024732,-87.54881167800869,"(41.73664233024732, -87.54881167800869)",2011-07-07
29038,07/07/2011,Completed,07/14/2011,11-03319643,Abandoned Vehicle Complaint,H709294,Volkswagen,Black,FVI - Outcome,Vehicle was moved from original address requested,15.0,8734 S BALTIMORE AVE,60617.0,,,10.0,4.0,46.0,,41.73635883535732,-87.54880459057169,"(41.736358835357315, -87.54880459057169)",2011-07-07
29039,07/07/2011,Completed,07/14/2011,11-03320049,Abandoned Vehicle Complaint,K727561  THIS VECHILE IS TAKING UP PARKING SPACE FOR PEOPLE THAT LIVE IN THE ARE AND IS PARK WITH TIRES FLAT FOR OVER TWO MONTHS PLUS IS NEAR THE FIRE HYDRANT IN THE CORNER OF FLETCHER AND AUSTIN YOU CAN'T MISS IT PLEASE PICK UP AS SOON AS POSSIBLE THANKS!!,Chevrolet,Gray,FVI - Outcome,Vehicle was moved from original address requested,,6014 W FLETCHER ST,60634.0,,,36.0,25.0,19.0,,41.93763587553665,-87.77683528206181,"(41.93763587553665, -87.77683528206182)",2011-07-07
29040,07/07/2011,Completed,07/14/2011,11-03320114,Abandoned Vehicle Complaint,992479,General Motors Corp.,Blue,FVI - Outcome,Vehicle was moved from original address requested,22.0,10957 S GREEN BAY AVE,60617.0,,,10.0,4.0,52.0,,41.69564811354356,-87.54120693112209,"(41.69564811354356, -87.54120693112209)",2011-07-07
29041,07/07/2011,Completed,07/14/2011,11-03320889,Abandoned Vehicle Complaint,A898720,Chevrolet,White,FVI - Outcome,Return to Owner - Vehicle,15.0,10657 S AVENUE F,60617.0,,,10.0,4.0,52.0,,41.7010423713748,-87.5303046330929,"(41.701042371374804, -87.53030463309291)",2011-07-07
29042,07/07/2011,Completed,07/14/2011,11-03323570,Abandoned Vehicle Complaint,H55 4371,Mazda,Blue,FVI - Outcome,Vehicle was moved from original address requested,,533 W BELMONT AVE,60657.0,,,44.0,23.0,6.0,8.0,41.93995502121064,-87.64324973262747,"(41.93995502121065, -87.64324973262747)",2011-07-07
29043,07/07/2011,Completed,07/15/2011,11-03318679,Abandoned Vehicle Complaint,000000,,Multi-Color,FVI - Outcome,Return to Owner - Vehicle,500.0,816 E 46TH ST,60653.0,,,4.0,21.0,39.0,47.0,41.8114730146488,-87.60586638550161,"(41.8114730146488, -87.60586638550161)",2011-07-07
29044,07/07/2011,Completed,07/15/2011,11-03319120,Abandoned Vehicle Complaint,IL 306 7965,Honda,Black,FVI - Outcome,Vehicle was moved from original address requested,,1648 W FLETCHER ST,60657.0,,,32.0,19.0,6.0,27.0,41.93886887992692,-87.67059313802126,"(41.938868879926915, -87.67059313802126)",2011-07-07
29045,07/07/2011,Completed,07/15/2011,11-03320231,Abandoned Vehicle Complaint,AFRO6,Honda,Red,FVI - Outcome,Vehicle was moved from original address requested,30.0,366 E 58TH ST,60637.0,,,20.0,2.0,40.0,,41.78945459806497,-87.61636013463352,"(41.78945459806497, -87.61636013463351)",2011-07-07
29046,07/07/2011,Completed,07/15/2011,11-03321040,Abandoned Vehicle Complaint,A151163,Toyota,Blue,FVI - Outcome,Vehicle was moved from original address requested,45.0,4930 N LAVERGNE AVE,60630.0,,,45.0,16.0,11.0,,41.97074725029101,-87.75286118308048,"(41.97074725029101, -87.75286118308048)",2011-07-07
29047,07/07/2011,Completed,07/15/2011,11-03321303,Abandoned Vehicle Complaint,K534959,Pontiac,Red,FVI - Outcome,Vehicle was moved from original address requested,,4300 W WABANSIA AVE,60639.0,,,31.0,25.0,23.0,,41.911719723915844,-87.73377357227281,"(41.91171972391584, -87.73377357227282)",2011-07-07
29048,07/07/2011,Completed,07/18/2011,11-03317499,Abandoned Vehicle Complaint,0000000,Cadillac,Cream,FVI - Outcome,Vehicle was moved from original address requested,90.0,2440 N KEDZIE BLVD,60647.0,,,35.0,14.0,22.0,,41.92614723362964,-87.70740554224544,"(41.92614723362964, -87.70740554224545)",2011-07-07
29049,07/07/2011,Completed,07/18/2011,11-03323654,Abandoned Vehicle Complaint,0000000,Subaru,Tan,FVI - Outcome,Vehicle was moved from original address requested,9.0,5067 N KIMBERLY AVE,60630.0,,,39.0,17.0,14.0,,41.972768435334956,-87.74368441141401,"(41.97276843533495, -87.74368441141401)",2011-07-07
29050,07/07/2011,Completed,07/19/2011,11-03314941,Abandoned Vehicle Complaint,569BWP,Chevrolet,Blue,FVI - Outcome,Vehicle was moved from original address requested,30.0,3120 W GEORGE ST,60618.0,,,35.0,14.0,21.0,,41.933976138572966,-87.70593614843773,"(41.933976138572966, -87.70593614843774)",2011-07-07
29051,07/07/2011,Completed,07/19/2011,11-03321258,Abandoned Vehicle Complaint,8092240,Chevrolet,White,FVI - Outcome,Vehicle was moved from original address requested,21.0,2900 N TROY ST,60618.0,,,35.0,14.0,21.0,,41.93395386027187,-87.70639954185074,"(41.93395386027187, -87.70639954185073)",2011-07-07
29052,07/07/2011,Completed,07/20/2011,11-03316257,Abandoned Vehicle Complaint,60082C,Ford,White,FVI - Outcome,Vehicle was moved from original address requested,30.0,4510 N FRANCISCO AVE,60625.0,,,33.0,17.0,14.0,,41.96342575428297,-87.70112562072515,"(41.963425754282966, -87.70112562072516)",2011-07-07
29053,07/07/2011,Completed,07/20/2011,11-03319270,Abandoned Vehicle Complaint,1184482,Chevrolet,Burgundy,FVI - Outcome,Vehicle was moved from original address requested,21.0,3531 N KILPATRICK AVE,60641.0,,,30.0,17.0,15.0,,41.94563773339118,-87.74381570103803,"(41.94563773339118, -87.74381570103803)",2011-07-07
29054,07/07/2011,Completed,07/21/2011,11-03319547,Abandoned Vehicle Complaint,A489897,Nissan,Burgundy,FVI - Outcome,Return to Owner - Vehicle,21.0,7939 S KENWOOD AVE,60619.0,,,8.0,4.0,45.0,50.0,41.750260833200116,-87.59166484104195,"(41.75026083320012, -87.59166484104193)",2011-07-07
29055,07/07/2011,Completed,07/22/2011,11-03315595,Abandoned Vehicle Complaint,NO PLATES,Suzuki,Black,FVI - Outcome,Need Vehicle Tow Report,7.0,4022 N MEADE AVE,60634.0,,,38.0,16.0,15.0,,41.953695829081795,-87.77939197291059,"(41.953695829081795, -87.77939197291059)",2011-07-07
29056,07/07/2011,Completed,07/22/2011,11-03317315,Abandoned Vehicle Complaint,834M178,Chevrolet,Gold,FVI - Outcome,Need Vehicle Tow Report,7.0,3513 W MONROE ST,60624.0,,,28.0,11.0,27.0,,41.87944321694149,-87.71413177061483,"(41.87944321694149, -87.71413177061483)",2011-07-07
29057,07/07/2011,Completed,07/22/2011,11-03319556,Abandoned Vehicle Complaint,L600453,Oldsmobile,Red,FVI - Outcome,Need Vehicle Tow Report,30.0,7952 S CARPENTER ST,60620.0,,,17.0,6.0,71.0,32.0,41.74898716627085,-87.65020515679409,"(41.748987166270844, -87.6502051567941)",2011-07-07
29058,07/07/2011,Completed,07/22/2011,11-03320545,Abandoned Vehicle Complaint,L205522,Buick,Gray,FVI - Outcome,Vehicle was moved from original address requested,30.0,6153 S WASHTENAW AVE,60629.0,,,15.0,8.0,66.0,3.0,41.781239098557954,-87.69086888161556,"(41.781239098557954, -87.69086888161556)",2011-07-07
29059,07/07/2011,Completed,07/25/2011,11-03315252,Abandoned Vehicle Complaint,73456H,Ford,White,FVI - Outcome,Vehicle was moved from original address requested,21.0,5543 S HONORE ST,60636.0,,,15.0,7.0,67.0,,41.79227347754665,-87.67045967344373,"(41.79227347754665, -87.67045967344373)",2011-07-07
29060,07/07/2011,Completed,07/25/2011,11-03323076,Abandoned Vehicle Complaint,UNKNOWN,(Unlisted Make),Unknown,FVI - Outcome,Return to Owner - Vehicle,8.0,6141 S CAMPBELL AVE,60629.0,,,15.0,8.0,66.0,,41.78165398318753,-87.68600763633872,"(41.78165398318753, -87.6860076363387)",2011-07-07
29061,07/07/2011,Completed,07/26/2011,11-03316347,Abandoned Vehicle Complaint,A981548,Legacy Unknown,Blue,FVI - Outcome,Vehicle was moved from original address requested,18.0,7347 W BARRY AVE,60707.0,,,36.0,25.0,17.0,,41.936145021832274,-87.81099710850145,"(41.93614502183227, -87.81099710850145)",2011-07-07
29062,07/07/2011,Completed,07/27/2011,11-03321942,Abandoned Vehicle Complaint,',Honda,Gray,FVI - Outcome,Vehicle was moved from original address requested,14.0,3135 N DAVLIN CT,60618.0,,,30.0,25.0,21.0,,41.937905757222275,-87.7233716172953,"(41.93790575722227, -87.72337161729529)",2011-07-07
29063,07/07/2011,Completed,08/01/2011,11-03320570,Abandoned Vehicle Complaint,0678,Dodge,White,FVI - Outcome,Vehicle was moved from original address requested,30.0,3800 W 62ND ST,60629.0,,,13.0,8.0,65.0,,41.7806628636548,-87.71803072842964,"(41.780662863654804, -87.71803072842964)",2011-07-07
29064,07/07/2011,Completed,08/04/2011,11-03315432,Abandoned Vehicle Complaint,91116 PV,Chevrolet,White,FVI - Outcome,Vehicle was moved from original address requested,7.0,5247 N BERNARD ST,60625.0,,,39.0,17.0,13.0,,41.977080858831656,-87.71464561415152,"(41.97708085883166, -87.71464561415152)",2011-07-07
29065,07/07/2011,Completed,08/08/2011,11-03315208,Abandoned Vehicle Complaint,CN8091,Chevrolet,Maroon,FVI - Outcome,Need Vehicle Tow Report,21.0,8039 S HARVARD AVE,60620.0,,,17.0,6.0,44.0,,41.74782313534164,-87.63286597967817,"(41.74782313534164, -87.63286597967817)",2011-07-07
29066,07/07/2011,Completed,08/08/2011,11-03316333,Abandoned Vehicle Complaint,E164796,Ford,White,FVI - Outcome,Need Vehicle Tow Report,7.0,5108 W STRONG ST,60630.0,,,45.0,16.0,11.0,,41.970782295790464,-87.75555589757563,"(41.97078229579047, -87.75555589757562)",2011-07-07
29067,07/07/2011,Completed,08/08/2011,11-03316673,Abandoned Vehicle Complaint,2691815,Chevrolet,White,FVI - Outcome,Need Vehicle Tow Report,7.0,5105 N AUSTIN AVE,60630.0,,,45.0,16.0,11.0,,41.97412189960064,-87.77806520448743,"(41.97412189960064, -87.77806520448743)",2011-07-07
29068,07/07/2011,Completed,08/08/2011,11-03318832,Abandoned Vehicle Complaint,A490807,Ford,White,FVI - Outcome,Need Vehicle Tow Report,45.0,5461 N MONITOR AVE,60630.0,,,45.0,16.0,11.0,,41.980288195495255,-87.77429948551857,"(41.980288195495255, -87.77429948551858)",2011-07-07
29069,07/07/2011,Completed,08/08/2011,11-03319019,Abandoned Vehicle Complaint,3471714,Hyundai,Burgundy,FVI - Outcome,Need Vehicle Tow Report,30.0,602 E 100TH PL,60628.0,,,9.0,5.0,49.0,,41.71206030841844,-87.60882140236768,"(41.71206030841844, -87.60882140236768)",2011-07-07
29070,07/07/2011,Completed,08/08/2011,11-03319246,Abandoned Vehicle Complaint,3817SF,Chevrolet,Blue,FVI - Outcome,Need Vehicle Tow Report,14.0,4148 N MAPLEWOOD AVE,60618.0,,,47.0,19.0,5.0,,41.95727110516452,-87.6923093364465,"(41.95727110516452, -87.6923093364465)",2011-07-07
