,Creation Date,Status,Completion Date,Service Request Number,Type of Service Request,License Plate,Vehicle Make/Model,Vehicle Color,Current Activity,Most Recent Action,How Many Days Has the Vehicle Been Reported as Parked?,Street Address,ZIP Code,X Coordinate,Y Coordinate,Ward,Police District,Community Area,SSA,Latitude,Longitude,Location,date
89646,10/08/2015,Completed - Dup,10/15/2015,15-05330881,Abandoned Vehicle Complaint,G32V4015,Honda,Silver,,,30.0,2202 W HOMER ST,60647.0,1161371.35152812,1912978.09158475,32.0,14.0,22.0,,41.916998685279076,-87.6827024618047,"(41.916998685279076, -87.6827024618047)",2015-10-08
90091,10/20/2015,Completed,10/30/2015,15-05510993,Abandoned Vehicle Complaint,NONE,Toyota,White,FVI - Outcome,Need Vehicle Tow Report,18.0,2404 W 53RD ST,60609.0,,,,,,,41.797617250510534,-87.6843395190018,"(41.797617250510534, -87.6843395190018)",2015-10-20
90174,10/16/2015,Completed,11/09/2015,15-05403191,Abandoned Vehicle Complaint,,Oldsmobile,Black,FVI - Outcome,Need Vehicle Tow Report,7.0,4327 W 17TH ST,60623.0,,,24.0,10.0,29.0,,41.8577226464729,-87.7333669141419,"(41.857722646472894, -87.7333669141419)",2015-10-16
90448,10/16/2015,Completed,11/09/2015,15-05409394,Abandoned Vehicle Complaint,,Buick,Green,FVI - Outcome,Need Vehicle Tow Report,2.0,314 E WACKER DR,60601.0,,,42.0,1.0,32.0,,41.88797680295103,-87.61996405601982,"(41.88797680295103, -87.61996405601981)",2015-10-16
90509,10/14/2015,Completed,11/10/2015,15-05371437,Abandoned Vehicle Complaint,,Mercedes,Gray,FVI - Outcome,Need Vehicle Tow Report,45.0,6602 S PEORIA ST,60621.0,,,6.0,7.0,68.0,,41.77410688000372,-87.6472165025676,"(41.77410688000372, -87.64721650256759)",2015-10-14
91130,10/27/2015,Completed,11/20/2015,15-05684494,Abandoned Vehicle Complaint,V885492,Buick,White,,,24.0,3846 W MAYPOLE AVE,60624.0,,,28.0,11.0,26.0,,41.884176980909096,-87.72254796457474,"(41.88417698090909, -87.72254796457474)",2015-10-27
91277,10/27/2015,Completed,11/20/2015,15-05687870,Abandoned Vehicle Complaint,,Pontiac,Green,,,10.0,4717 W ARTHINGTON ST,60644.0,,,24.0,11.0,25.0,,41.86945764903029,-87.74315759903341,"(41.86945764903029, -87.74315759903341)",2015-10-27
91298,10/27/2015,Completed,11/20/2015,15-05689221,Abandoned Vehicle Complaint,184774,Nissan,Brown,FVI - Outcome,Need Vehicle Tow Report,21.0,1744 E 85TH PL,60617.0,,,8.0,4.0,45.0,,41.739819342953,-87.58104276788309,"(41.739819342953, -87.58104276788309)",2015-10-27
108907,10/07/2015,Completed,10/07/2015,15-05307095,Abandoned Vehicle Complaint,,,,FVI - Outcome,Return to Owner - Vehicle,,4344 W ADAMS ST,60624.0,,,28.0,11.0,26.0,,41.87797714799052,-87.73472778116405,"(41.87797714799052, -87.73472778116404)",2015-10-07
109362,10/01/2015,Completed - Dup,10/01/2015,15-05185924,Abandoned Vehicle Complaint,Y728790,Bmw,Blue,FVI - Outcome,Create Work Order,10.0,3219 N OAK PARK AVE,60634.0,1130523.49379819,1920640.81912362,36.0,16.0,17.0,,41.93876144375419,-87.79557304019606,"(41.93876144375419, -87.79557304019605)",2015-10-01
109363,10/01/2015,Completed - Dup,10/01/2015,15-05190643,Abandoned Vehicle Complaint,C????,Suzuki,Black,FVI - Outcome,Create Work Order,152.0,3939 N LAMON AVE,60641.0,1142968.73751124,1925844.98147894,45.0,16.0,15.0,28.0,41.95273409349578,-87.74969772707645,"(41.952734093495785, -87.74969772707645)",2015-10-01
109364,10/01/2015,Completed - Dup,10/01/2015,15-05191116,Abandoned Vehicle Complaint,249S069,Ford,White,FVI - Outcome,Create Work Order,8.0,3906 W MONTROSE AVE,60618.0,1149531.67267262,1928955.09428493,35.0,17.0,14.0,,41.96108405336381,-87.72569797195543,"(41.96108405336381, -87.72569797195544)",2015-10-01
109365,10/01/2015,Completed,10/01/2015,15-05186977,Abandoned Vehicle Complaint,Y917192,Pontiac,White,FVI - Outcome,Vehicle was moved from original address requested,30.0,8104 S DORCHESTER AVE,60619.0,,,8.0,4.0,45.0,,41.74758435514875,-87.59067810594183,"(41.74758435514875, -87.59067810594183)",2015-10-01
109449,10/02/2015,Completed - Dup,10/02/2015,15-05211267,Abandoned Vehicle Complaint,UKNOWN,Chevrolet,Green,FVI - Outcome,Create Work Order,21.0,9536 S COLFAX AVE,60617.0,1195176.59629313,1842092.98990781,10.0,4.0,51.0,,41.721870644032414,-87.5609739698222,"(41.721870644032414, -87.5609739698222)",2015-10-02
109450,10/02/2015,Completed - Dup,10/02/2015,15-05215103,Abandoned Vehicle Complaint,G848560,Jeep/Cherokee,White,FVI - Outcome,Create Work Order,21.0,4126 W WELLINGTON AVE,60641.0,1148314.7542295,1919625.57792602,31.0,25.0,21.0,,41.935506473467996,-87.73062114045298,"(41.935506473467996, -87.73062114045298)",2015-10-02
109451,10/02/2015,Completed - Dup,10/02/2015,15-05216574,Abandoned Vehicle Complaint,DDA747,Pontiac,Red,FVI - Outcome,Create Work Order,21.0,4353 S VINCENNES AVE,60653.0,1180322.08909354,1876256.55033258,3.0,2.0,38.0,,41.81513080945978,-87.61389774535927,"(41.81513080945978, -87.61389774535927)",2015-10-02
109452,10/02/2015,Completed,10/02/2015,15-05208351,Abandoned Vehicle Complaint,S227452,Ford,Gray,FVI - Outcome,Vehicle was moved from original address requested,21.0,8300 S LUELLA AVE,60617.0,,,7.0,4.0,46.0,,41.744321225482544,-87.56991945116789,"(41.74432122548255, -87.56991945116789)",2015-10-02
109453,10/02/2015,Completed,10/02/2015,15-05214091,Abandoned Vehicle Complaint,E651998,Lincoln,White,FVI - Outcome,Vehicle was moved from original address requested,30.0,6227 W 63RD PL,60638.0,,,13.0,8.0,64.0,,41.77674204999394,-87.77745036089014,"(41.776742049993935, -87.77745036089014)",2015-10-02
109454,10/01/2015,Completed - Dup,10/02/2015,15-05196301,Abandoned Vehicle Complaint,E80 9136,Bmw,Bronze,FVI - Outcome,Create Work Order,4.0,8648 S INGLESIDE AVE,60619.0,1184065.89903287,1847837.36460135,8.0,6.0,44.0,51.0,41.73707145474743,-87.60133876209322,"(41.73707145474743, -87.60133876209322)",2015-10-01
109455,10/01/2015,Completed - Dup,10/02/2015,15-05198446,Abandoned Vehicle Complaint,K739915,Cadillac,Brown,FVI - Outcome,Create Work Order,40.0,3002 W 21ST PL,60623.0,1156670.05001683,1889566.12002318,24.0,10.0,30.0,,41.852852874332726,-87.70060748713013,"(41.85285287433273, -87.70060748713013)",2015-10-01
109456,10/01/2015,Completed - Dup,10/02/2015,15-05200681,Abandoned Vehicle Complaint,S65 9410,Bmw,Silver,FVI - Outcome,Create Work Order,50.0,1936 W RACE AVE,60622.0,1163395.44359913,1903765.5332107,1.0,12.0,24.0,29.0,41.891673360767996,-87.67597558943791,"(41.89167336076799, -87.6759755894379)",2015-10-01
109457,10/01/2015,Completed - Dup,10/02/2015,15-05204909,Abandoned Vehicle Complaint,NONE,Chevrolet,White,FVI - Outcome,Create Work Order,14.0,2311 S HOMAN AVE,60623.0,1154060.85351715,1888433.03068403,22.0,10.0,30.0,,41.84952047546295,-87.70991215659595,"(41.849520475462946, -87.70991215659595)",2015-10-01
109458,10/01/2015,Completed,10/02/2015,15-05190594,Abandoned Vehicle Complaint,V143752,Acura,Black,FVI - Outcome,Vehicle was moved from original address requested,200.0,4109 W 24TH ST,60623.0,,,22.0,10.0,30.0,,41.847768526756184,-87.72668802697825,"(41.84776852675618, -87.72668802697825)",2015-10-01
109459,10/01/2015,Completed,10/02/2015,15-05191237,Abandoned Vehicle Complaint,E684292,Chevrolet,Pink,FVI - Outcome,Vehicle was moved from original address requested,21.0,4904 N MCCUTCHEON TER,60640.0,,,48.0,20.0,3.0,34.0,41.97178967406835,-87.65421200752908,"(41.97178967406834, -87.6542120075291)",2015-10-01
109460,10/01/2015,Completed,10/02/2015,15-05192670,Abandoned Vehicle Complaint,74569T,Ford,Blue,FVI - Outcome,Vehicle was moved from original address requested,90.0,3400 E 106TH ST,60617.0,,,10.0,4.0,52.0,,41.70286699658431,-87.54127940785857,"(41.70286699658431, -87.54127940785857)",2015-10-01
109461,10/01/2015,Completed,10/02/2015,15-05199896,Abandoned Vehicle Complaint,0,Chevrolet,White,FVI - Outcome,Vehicle was moved from original address requested,14.0,2311 S HOMAN AVE,60623.0,,,22.0,10.0,30.0,,41.84952047546295,-87.70991215659595,"(41.849520475462946, -87.70991215659595)",2015-10-01
109653,10/05/2015,Completed - Dup,10/05/2015,15-05252114,Abandoned Vehicle Complaint,1382494,Chevrolet,Black,FVI - Outcome,Create Work Order,21.0,2423 N KILDARE AVE,60639.0,1147312.68279313,1915764.10771203,31.0,25.0,20.0,,41.92511294223245,-87.73399297577872,"(41.92511294223245, -87.73399297577872)",2015-10-05
109654,10/05/2015,Completed - Dup,10/05/2015,15-05252861,Abandoned Vehicle Complaint,S947159,Mitsubishi,Silver,FVI - Outcome,Create Work Order,30.0,5636 W LELAND AVE,60630.0,1137912.9019225,1930687.60008944,45.0,16.0,15.0,,41.966047995144365,-87.76891136716647,"(41.96604799514437, -87.76891136716647)",2015-10-05
109655,10/05/2015,Completed - Dup,10/05/2015,15-05254213,Abandoned Vehicle Complaint,NONE,Chevrolet,Black,FVI - Outcome,Create Work Order,4.0,749 S FRANCISCO AVE,60612.0,1157153.22557276,1896474.9733333,28.0,11.0,27.0,,41.87128837995871,-87.69833447712531,"(41.871288379958706, -87.69833447712533)",2015-10-05
109656,10/05/2015,Completed - Dup,10/05/2015,15-05254340,Abandoned Vehicle Complaint,NONE,Chevrolet,Black,FVI - Outcome,Create Work Order,120.0,749 S FRANCISCO AVE,60612.0,1157153.22557276,1896474.9733333,28.0,11.0,27.0,,41.87128837995871,-87.69833447712531,"(41.871288379958706, -87.69833447712533)",2015-10-05
109657,10/05/2015,Completed - Dup,10/05/2015,15-05254561,Abandoned Vehicle Complaint,193083AV,Chevrolet,Brown,FVI - Outcome,Create Work Order,30.0,4010 S OAKENWALD AVE,60653.0,1183862.97997145,1878810.79997863,4.0,2.0,36.0,,41.8225504145496,-87.60109223928944,"(41.8225504145496, -87.60109223928944)",2015-10-05
109658,10/05/2015,Completed,10/05/2015,15-05251582,Abandoned Vehicle Complaint,CANNOT SEE DUE TO UNLICENSED TRAILER,Jeep/Cherokee,Black,FVI - Outcome,Vehicle was moved from original address requested,2.0,121 N LA SALLE ST,60602.0,1175113.30259427,1901023.04281984,42.0,1.0,32.0,,41.8837645981034,-87.63227535353653,"(41.8837645981034, -87.63227535353653)",2015-10-05
109659,10/05/2015,Completed,10/05/2015,15-05251583,Abandoned Vehicle Complaint,7226269,Hyundai,Red,FVI - Outcome,Vehicle was moved from original address requested,30.0,121 N LA SALLE ST,60602.0,1175113.30259427,1901023.04281984,42.0,1.0,32.0,,41.8837645981034,-87.63227535353653,"(41.8837645981034, -87.63227535353653)",2015-10-05
109660,10/05/2015,Completed,10/05/2015,15-05251596,Abandoned Vehicle Complaint,NONE,Chevrolet,Gold,FVI - Outcome,Vehicle was moved from original address requested,20.0,121 N LA SALLE ST,60602.0,1175113.30259427,1901023.04281984,42.0,1.0,32.0,,41.8837645981034,-87.63227535353653,"(41.8837645981034, -87.63227535353653)",2015-10-05
109661,10/05/2015,Completed,10/05/2015,15-05251597,Abandoned Vehicle Complaint,P13 7741,Plymouth,White,FVI - Outcome,Vehicle was moved from original address requested,17.0,121 N LA SALLE ST,60602.0,1175113.30259427,1901023.04281984,42.0,1.0,32.0,,41.8837645981034,-87.63227535353653,"(41.8837645981034, -87.63227535353653)",2015-10-05
109662,10/05/2015,Completed,10/05/2015,15-05251611,Abandoned Vehicle Complaint,7087833,(Unlisted Make),Maroon,FVI - Outcome,Vehicle was moved from original address requested,28.0,121 N LA SALLE ST,60602.0,1175113.30259427,1901023.04281984,42.0,1.0,32.0,,41.8837645981034,-87.63227535353653,"(41.8837645981034, -87.63227535353653)",2015-10-05
109663,10/05/2015,Completed,10/05/2015,15-05251623,Abandoned Vehicle Complaint,Y906646,(Unlisted Make),White,FVI - Outcome,Vehicle was moved from original address requested,19.0,121 N LA SALLE ST,60602.0,1175113.30259427,1901023.04281984,42.0,1.0,32.0,,41.8837645981034,-87.63227535353653,"(41.8837645981034, -87.63227535353653)",2015-10-05
109664,10/05/2015,Completed,10/05/2015,15-05251638,Abandoned Vehicle Complaint,X103821,Dodge,Blue,FVI - Outcome,Vehicle was moved from original address requested,30.0,121 N LA SALLE ST,60602.0,1175113.30259427,1901023.04281984,42.0,1.0,32.0,,41.8837645981034,-87.63227535353653,"(41.8837645981034, -87.63227535353653)",2015-10-05
109665,10/05/2015,Completed,10/05/2015,15-05251643,Abandoned Vehicle Complaint,800 1642,Jeep/Cherokee,Black,FVI - Outcome,Vehicle was moved from original address requested,15.0,121 N LA SALLE ST,60602.0,1175113.30259427,1901023.04281984,42.0,1.0,32.0,,41.8837645981034,-87.63227535353653,"(41.8837645981034, -87.63227535353653)",2015-10-05
109666,10/05/2015,Completed,10/05/2015,15-05251644,Abandoned Vehicle Complaint,Y706295,Dodge,Green,FVI - Outcome,Vehicle was moved from original address requested,8.0,121 N LA SALLE ST,60602.0,1175113.30259427,1901023.04281984,42.0,1.0,32.0,,41.8837645981034,-87.63227535353653,"(41.8837645981034, -87.63227535353653)",2015-10-05
109667,10/03/2015,Completed - Dup,10/05/2015,15-05232805,Abandoned Vehicle Complaint,IL,Dodge,White,FVI - Outcome,Create Work Order,30.0,6154 W GRACE ST,60634.0,1134659.95708732,1924624.33181826,38.0,16.0,17.0,,41.949465544572725,-87.78125164602395,"(41.949465544572725, -87.78125164602393)",2015-10-03
109668,10/03/2015,Completed - Dup,10/05/2015,15-05235573,Abandoned Vehicle Complaint,R508659,Infiniti/Q45,White,FVI - Outcome,Create Work Order,60.0,5634 W MONTROSE AVE,60634.0,1137862.99987848,1928690.05239807,38.0,16.0,15.0,,41.96057406615407,-87.76869100218514,"(41.96057406615407, -87.76869100218514)",2015-10-03
109669,10/03/2015,Completed - Dup,10/05/2015,15-05242426,Abandoned Vehicle Complaint,V25 3319,Chevrolet,White,FVI - Outcome,Create Work Order,9.0,2158 W HUBBARD ST,60612.0,1161936.03327472,1903057.30383067,27.0,12.0,24.0,,41.889753456201255,-87.6816492875226,"(41.88975345620126, -87.68164928752259)",2015-10-03
109670,10/04/2015,Completed - Dup,10/05/2015,15-05249176,Abandoned Vehicle Complaint,2927586,Chevrolet,Blue,FVI - Outcome,Create Work Order,14.0,6800 S CONSTANCE AVE,60649.0,1189711.20321891,1860256.59921674,5.0,3.0,43.0,,41.77149380193248,-87.58027570925495,"(41.77149380193248, -87.58027570925496)",2015-10-04
109671,10/02/2015,Completed - Dup,10/05/2015,15-05222316,Abandoned Vehicle Complaint,Y770302,Honda,Silver,FVI - Outcome,Create Work Order,15.0,5226 S TROY ST,60632.0,1156263.97672451,1869815.60177973,14.0,9.0,63.0,,41.798222665766225,-87.70261801535763,"(41.798222665766225, -87.70261801535763)",2015-10-02
109672,10/02/2015,Completed - Dup,10/05/2015,15-05225924,Abandoned Vehicle Complaint,H352121,Jeep/Cherokee,Yellow,FVI - Outcome,Create Work Order,90.0,3116 N BERNARD ST,60618.0,1152849.11996707,1920510.99948905,35.0,14.0,21.0,,41.937983663499075,-87.71381662813154,"(41.937983663499075, -87.71381662813155)",2015-10-02
109696,10/06/2015,Completed - Dup,10/06/2015,15-05279267,Abandoned Vehicle Complaint,V522714,Lincoln,White,FVI - Outcome,Create Work Order,14.0,3505 W 78TH PL,60652.0,1154381.98328786,1852326.42008872,18.0,8.0,70.0,,41.750488767787935,-87.7099938513484,"(41.750488767787935, -87.70999385134841)",2015-10-06
109697,10/06/2015,Completed,10/06/2015,15-05278132,Abandoned Vehicle Complaint,Z226269,Mazda,Red,FVI - Outcome,Return to Owner - Vehicle,14.0,7937 S AVALON AVE,60619.0,1185923.52120899,1852618.71000336,8.0,4.0,45.0,50.0,41.75029093213541,-87.59409883635513,"(41.750290932135414, -87.59409883635514)",2015-10-06
109698,10/06/2015,Completed,10/06/2015,15-05278942,Abandoned Vehicle Complaint,133HAH,Honda,Silver,FVI - Outcome,Return to Owner - Vehicle,14.0,753 W 33RD ST,60616.0,1171734.71346762,1883000.5193917,11.0,9.0,60.0,,41.83429394413347,-87.64587752853805,"(41.83429394413347, -87.64587752853804)",2015-10-06
109699,10/01/2015,Completed - Dup,10/06/2015,15-05190606,Abandoned Vehicle Complaint,NO PLATES,Bmw,Bronze,,,4.0,8648 S INGLESIDE AVE,60619.0,1184065.89903287,1847837.36460135,8.0,6.0,44.0,51.0,41.73707145474743,-87.60133876209322,"(41.73707145474743, -87.60133876209322)",2015-10-01
109700,10/01/2015,Completed - Dup,10/06/2015,15-05190620,Abandoned Vehicle Complaint,2226269,(Unlisted Make),Red,,,30.0,7937 S AVALON AVE,60619.0,1185923.52120899,1852618.71000336,8.0,4.0,45.0,50.0,41.75029093213541,-87.59409883635513,"(41.750290932135414, -87.59409883635514)",2015-10-01
109701,10/01/2015,Completed - Dup,10/06/2015,15-05192687,Abandoned Vehicle Complaint,H927960,Pontiac,White,,,10.0,8804 S DANTE AVE,60619.0,1187323.97891869,1846891.68297562,8.0,4.0,48.0,,41.73483663152589,-87.58944904811726,"(41.73483663152588, -87.58944904811726)",2015-10-01
109706,10/07/2015,Completed,10/07/2015,15-05304645,Abandoned Vehicle Complaint,,,,FVI - Outcome,Return to Owner - Vehicle,,759 S CALIFORNIA AVE,60612.0,,,28.0,11.0,27.0,,41.87110969576045,-87.69588019205723,"(41.871109695760445, -87.69588019205722)",2015-10-07
109707,10/07/2015,Completed,10/07/2015,15-05306607,Abandoned Vehicle Complaint,,,,FVI - Outcome,Return to Owner - Vehicle,,4022 W JACKSON BLVD,60624.0,,,28.0,11.0,26.0,,41.87718509456447,-87.72650809058932,"(41.87718509456447, -87.72650809058932)",2015-10-07
109708,10/07/2015,Completed - Dup,10/07/2015,15-05305143,Abandoned Vehicle Complaint,E761045,Chevrolet,Red,FVI - Outcome,Create Work Order,14.0,2733 W FLOURNOY ST,60612.0,1158253.80962602,1896921.72062616,28.0,11.0,27.0,,41.87278245669474,-87.69496240419144,"(41.87278245669474, -87.69496240419143)",2015-10-07
109709,10/07/2015,Completed,10/07/2015,15-05304337,Abandoned Vehicle Complaint,,,,FVI - Outcome,Vehicle was moved from original address requested,,1142 S FRANCISCO AVE,60612.0,,,28.0,11.0,29.0,,41.86698124753775,-87.69850612398312,"(41.86698124753775, -87.69850612398311)",2015-10-07
109710,10/07/2015,Completed,10/07/2015,15-05304501,Abandoned Vehicle Complaint,,,,FVI - Outcome,Vehicle was moved from original address requested,,3123 W TAYLOR ST,60612.0,,,24.0,11.0,29.0,,41.86904178026547,-87.70426829932346,"(41.86904178026547, -87.70426829932347)",2015-10-07
109711,10/06/2015,Completed - Dup,10/07/2015,15-05292628,Abandoned Vehicle Complaint,Y906646,(Unlisted Make),White,FVI - Outcome,Create Work Order,21.0,6136 S RHODES AVE,60637.0,1180962.03662361,1864444.83208238,20.0,3.0,42.0,,41.782838813008006,-87.61222977069723,"(41.782838813008006, -87.61222977069723)",2015-10-06
109712,10/06/2015,Completed,10/07/2015,15-05277206,Abandoned Vehicle Complaint,NO PLTS,Ford,Green,FVI - Outcome,Vehicle was moved from original address requested,60.0,1016 N KEYSTONE AVE,60651.0,,,37.0,11.0,23.0,,41.899541763469,-87.72758501513859,"(41.899541763468996, -87.72758501513859)",2015-10-06
109713,10/06/2015,Completed,10/07/2015,15-05278958,Abandoned Vehicle Complaint,DT4103,Honda,Black,FVI - Outcome,Vehicle was moved from original address requested,14.0,2921 W GLENLAKE AVE,60659.0,,,50.0,24.0,2.0,,41.99205346350695,-87.7026718699194,"(41.99205346350695, -87.70267186991939)",2015-10-06
109714,10/06/2015,Completed,10/07/2015,15-05281271,Abandoned Vehicle Complaint,V513994,Toyota,Green,FVI - Outcome,Vehicle was moved from original address requested,14.0,5020 W DIVISION ST,60651.0,,,37.0,25.0,25.0,,41.90240211145565,-87.75172455860027,"(41.90240211145565, -87.75172455860027)",2015-10-06
109715,10/06/2015,Completed,10/07/2015,15-05285914,Abandoned Vehicle Complaint,X326904,Cadillac,Black,FVI - Outcome,Need Vehicle Tow Report,15.0,4843 W CULLOM AVE,60641.0,,,45.0,16.0,15.0,,41.95876450660418,-87.74917795103677,"(41.95876450660418, -87.74917795103678)",2015-10-06
109716,10/06/2015,Completed,10/07/2015,15-05287671,Abandoned Vehicle Complaint,UNKOWN NUMBER,Toyota,Green,FVI - Outcome,Return to Owner - Vehicle,80.0,3919 W JACKSON BLVD,60624.0,,,28.0,11.0,26.0,,41.877000814256526,-87.72390811070078,"(41.87700081425652, -87.72390811070078)",2015-10-06
109717,10/04/2015,Completed,10/07/2015,15-05247696,Abandoned Vehicle Complaint,6228259,Ford,Green,FVI - Outcome,Vehicle was moved from original address requested,30.0,4304 W IOWA ST,60651.0,,,37.0,11.0,23.0,,41.89716792563329,-87.73374337073739,"(41.89716792563329, -87.73374337073737)",2015-10-04
109718,10/04/2015,Completed,10/07/2015,15-05248069,Abandoned Vehicle Complaint,UNKNOWN,Legacy Unknown,Black,FVI - Outcome,Return to Owner - Vehicle,120.0,4931 W ADAMS ST,60644.0,,,28.0,15.0,25.0,,41.878445153314225,-87.74855792644092,"(41.87844515331423, -87.74855792644092)",2015-10-04
109719,10/04/2015,Completed,10/07/2015,15-05248377,Abandoned Vehicle Complaint,UNKOWN NUMBER,Mazda,Blue,FVI - Outcome,Vehicle was moved from original address requested,20.0,3243 N ORIOLE AVE,60634.0,,,29.0,16.0,17.0,,41.939201607487405,-87.81641582903923,"(41.939201607487405, -87.81641582903923)",2015-10-04
109720,10/04/2015,Completed,10/07/2015,15-05248648,Abandoned Vehicle Complaint,165219AV,Ford,Red,FVI - Outcome,Vehicle was moved from original address requested,30.0,6132 N MEADE AVE,60646.0,,,39.0,16.0,10.0,,41.99292626932606,-87.78049688092312,"(41.99292626932606, -87.78049688092311)",2015-10-04
109721,10/04/2015,Completed,10/07/2015,15-05248672,Abandoned Vehicle Complaint,E144515,Mercedes,Blue,FVI - Outcome,Vehicle was moved from original address requested,20.0,1620 E 93RD ST,60617.0,,,8.0,4.0,48.0,50.0,41.726111399861935,-87.58410369761519,"(41.72611139986194, -87.58410369761519)",2015-10-04
109722,10/04/2015,Completed,10/07/2015,15-05248885,Abandoned Vehicle Complaint,K824547,Ford,White,FVI - Outcome,Vehicle was moved from original address requested,21.0,4300 N WINCHESTER AVE,60613.0,,,47.0,19.0,5.0,31.0,41.95973719480394,-87.67758195461653,"(41.959737194803935, -87.67758195461653)",2015-10-04
109723,10/04/2015,Completed,10/07/2015,15-05248906,Abandoned Vehicle Complaint,87746FF,Honda,Silver,FVI - Outcome,Vehicle was moved from original address requested,10.0,5618 N SPAULDING AVE,60659.0,,,39.0,17.0,13.0,,41.983605871257275,-87.71147352566072,"(41.98360587125727, -87.71147352566072)",2015-10-04
109724,10/04/2015,Completed,10/07/2015,15-05249021,Abandoned Vehicle Complaint,E391229,Chevrolet,Red,FVI - Outcome,Return to Owner - Vehicle,21.0,11625 S THROOP ST,60643.0,,,34.0,5.0,53.0,,41.682334604884026,-87.65408086527498,"(41.682334604884026, -87.65408086527498)",2015-10-04
109725,10/04/2015,Completed,10/07/2015,15-05249486,Abandoned Vehicle Complaint,1873252,Nissan,Black,FVI - Outcome,Vehicle was moved from original address requested,7.0,1800 W PRATT BLVD,60626.0,,,49.0,24.0,1.0,,42.0054044077649,-87.67580971174554,"(42.0054044077649, -87.67580971174554)",2015-10-04
109726,10/05/2015,Completed,10/07/2015,15-05254577,Abandoned Vehicle Complaint,,Suzuki,Maroon,FVI - Outcome,Vehicle was moved from original address requested,14.0,2632 E 82ND ST,60617.0,,,7.0,4.0,46.0,,41.74647122933879,-87.56001886004299,"(41.74647122933879, -87.560018860043)",2015-10-05
109727,10/05/2015,Completed,10/07/2015,15-05259382,Abandoned Vehicle Complaint,459UWZ,Buick,Cream,FVI - Outcome,Vehicle was moved from original address requested,10.0,5011 N KILBOURN AVE,60630.0,,,39.0,17.0,14.0,,41.97218054147935,-87.74042474270281,"(41.97218054147934, -87.74042474270281)",2015-10-05
109728,10/05/2015,Completed,10/07/2015,15-05262380,Abandoned Vehicle Complaint,NONE,Dodge,Blue,FVI - Outcome,Vehicle was moved from original address requested,7.0,3 S KILPATRICK AVE,60644.0,,,28.0,11.0,25.0,,41.88040021488978,-87.74267861712255,"(41.88040021488978, -87.74267861712255)",2015-10-05
109729,10/02/2015,Completed,10/07/2015,15-05217718,Abandoned Vehicle Complaint,HAS PLATES,Chevrolet,Gray,FVI - Outcome,Vehicle was moved from original address requested,30.0,8920 S BENNETT AVE,60617.0,,,8.0,4.0,48.0,,41.73271590464702,-87.57818906103462,"(41.73271590464702, -87.57818906103462)",2015-10-02
109730,10/02/2015,Completed,10/07/2015,15-05220215,Abandoned Vehicle Complaint,R802819,Chrysler,Yellow,FVI - Outcome,Vehicle was moved from original address requested,45.0,10700 S AVENUE C,60617.0,,,10.0,4.0,52.0,,41.700787794025686,-87.52711772868021,"(41.70078779402569, -87.52711772868022)",2015-10-02
109731,10/02/2015,Completed,10/07/2015,15-05223202,Abandoned Vehicle Complaint,NO PLATES,(Unlisted Make),Unknown,FVI - Outcome,Vehicle was moved from original address requested,120.0,10359 S AVENUE M,60617.0,,,10.0,4.0,52.0,,41.70648494518993,-87.5375591678701,"(41.706484945189914, -87.53755916787009)",2015-10-02
109732,10/02/2015,Completed,10/07/2015,15-05223598,Abandoned Vehicle Complaint,?,(Unlisted Make),Blue,FVI - Outcome,Return to Owner - Vehicle,333.0,5414 W JACKSON BLVD,60644.0,,,29.0,15.0,25.0,,41.87669591535265,-87.76023537904516,"(41.87669591535265, -87.76023537904516)",2015-10-02
109733,10/02/2015,Completed,10/07/2015,15-05223931,Abandoned Vehicle Complaint,?,(Unlisted Make),Multi-Color,FVI - Outcome,Vehicle was moved from original address requested,25.0,730 N KENNEDY EXPRESS RL,60642.0,,,27.0,12.0,24.0,29.0,41.89512656944989,-87.65710896689122,"(41.89512656944989, -87.6571089668912)",2015-10-02
109734,10/02/2015,Completed,10/07/2015,15-05228107,Abandoned Vehicle Complaint,V56 4264,(Unlisted Make),Burgundy,FVI - Outcome,Vehicle was moved from original address requested,2.0,7537 N CALIFORNIA AVE,60645.0,,,50.0,24.0,2.0,,42.01858911855338,-87.69945110552376,"(42.01858911855338, -87.69945110552376)",2015-10-02
109735,10/03/2015,Completed,10/07/2015,15-05230117,Abandoned Vehicle Complaint,S226492,Ford,White,FVI - Outcome,Vehicle was moved from original address requested,80.0,1212 W 33RD ST,60608.0,,,11.0,9.0,60.0,,41.83438423924881,-87.6566288612691,"(41.834384239248806, -87.6566288612691)",2015-10-03
109736,10/03/2015,Completed,10/07/2015,15-05235563,Abandoned Vehicle Complaint,741RED,Nissan,White,FVI - Outcome,Vehicle was moved from original address requested,60.0,5900 W DIVISION ST,60651.0,,,29.0,25.0,25.0,,41.90214306691257,-87.77300219510552,"(41.902143066912565, -87.77300219510552)",2015-10-03
109737,10/03/2015,Completed,10/07/2015,15-05238592,Abandoned Vehicle Complaint,H807497,Nissan,Maroon,FVI - Outcome,Vehicle was moved from original address requested,20.0,9900 S COMMERCIAL AVE,60617.0,,,10.0,4.0,51.0,,41.715355759050816,-87.55112014735262,"(41.71535575905081, -87.55112014735263)",2015-10-03
109738,10/03/2015,Completed,10/07/2015,15-05238596,Abandoned Vehicle Complaint,1826123,Toyota,Gold,FVI - Outcome,Vehicle was moved from original address requested,20.0,9902 S COMMERCIAL AVE,60617.0,,,10.0,4.0,51.0,,41.715299196845315,-87.55111905643629,"(41.71529919684531, -87.5511190564363)",2015-10-03
109739,10/03/2015,Completed,10/07/2015,15-05240109,Abandoned Vehicle Complaint,R156641,Dodge,Burgundy,FVI - Outcome,Vehicle was moved from original address requested,25.0,4243 N LINCOLN AVE,60618.0,,,47.0,19.0,5.0,38.0,41.95894228986967,-87.6819497564818,"(41.95894228986967, -87.6819497564818)",2015-10-03
109740,10/03/2015,Completed,10/07/2015,15-05240497,Abandoned Vehicle Complaint,F9711279,(Unlisted Make),Black,FVI - Outcome,Return to Owner - Vehicle,30.0,1305 N MASON AVE,60651.0,,,29.0,25.0,25.0,,41.904035913597596,-87.77406802224083,"(41.90403591359759, -87.77406802224083)",2015-10-03
109741,10/03/2015,Completed,10/07/2015,15-05241179,Abandoned Vehicle Complaint,0,Pontiac,Black,FVI - Outcome,Vehicle was moved from original address requested,1.0,4500 W AUGUSTA BLVD,60651.0,,,37.0,11.0,23.0,,41.898928384006325,-87.7385737441395,"(41.89892838400633, -87.7385737441395)",2015-10-03
109742,10/03/2015,Completed,10/07/2015,15-05243049,Abandoned Vehicle Complaint,Y740428,Chrysler,Black,FVI - Outcome,Vehicle was moved from original address requested,10.0,11105 S GREEN ST,60643.0,,,34.0,22.0,75.0,45.0,41.69214060583515,-87.64344415463053,"(41.69214060583515, -87.64344415463053)",2015-10-03
109743,10/01/2015,Completed,10/07/2015,15-05200142,Abandoned Vehicle Complaint,NO PLATE,Pontiac,White,FVI - Outcome,Vehicle was moved from original address requested,60.0,2030 W 52ND PL,60609.0,,,16.0,9.0,61.0,,41.79812825259389,-87.67573507007087,"(41.798128252593884, -87.67573507007087)",2015-10-01
109744,10/02/2015,Completed,10/07/2015,15-05210628,Abandoned Vehicle Complaint,R948366,Chevrolet,Black,FVI - Outcome,Return to Owner - Vehicle,60.0,2858 W POLK ST,60612.0,,,28.0,11.0,27.0,,41.87114749081087,-87.69835354400308,"(41.87114749081087, -87.69835354400308)",2015-10-02
109745,10/02/2015,Completed,10/07/2015,15-05210661,Abandoned Vehicle Complaint,P13 7741,Plymouth,White,FVI - Outcome,Vehicle was moved from original address requested,8.0,8434 S WABASH AVE,60619.0,,,6.0,6.0,44.0,,41.74079947365117,-87.62287085247836,"(41.740799473651165, -87.62287085247834)",2015-10-02
109746,10/02/2015,Completed,10/07/2015,15-05214337,Abandoned Vehicle Complaint,117BBY,Ford,Black,FVI - Outcome,Vehicle was moved from original address requested,15.0,8847 S LUELLA AVE,60617.0,,,8.0,4.0,48.0,,41.733925432299415,-87.56942465004259,"(41.733925432299415, -87.5694246500426)",2015-10-02
109747,10/02/2015,Completed,10/07/2015,15-05214449,Abandoned Vehicle Complaint,R94 8366,Chevrolet,Black,FVI - Outcome,Return to Owner - Vehicle,4.0,749 S FRANCISCO AVE,60612.0,,,28.0,11.0,27.0,,41.87128837995871,-87.69833447712531,"(41.871288379958706, -87.69833447712533)",2015-10-02
109748,10/02/2015,Completed,10/07/2015,15-05217474,Abandoned Vehicle Complaint,700622,Chevrolet,White,FVI - Outcome,Return to Owner - Vehicle,200.0,2820 E 77TH PL,60649.0,,,7.0,4.0,43.0,49.0,41.75496513081729,-87.5544975888671,"(41.75496513081729, -87.5544975888671)",2015-10-02
109750,10/02/2015,Completed,10/07/2015,15-05217485,Abandoned Vehicle Complaint,MISSING PLATES,Cadillac,Silver,FVI - Outcome,Vehicle was moved from original address requested,14.0,5400 W CORTEZ ST,60651.0,,,37.0,15.0,25.0,,41.89956094010207,-87.76094702439495,"(41.89956094010207, -87.76094702439495)",2015-10-02
109759,10/01/2015,Completed - Dup,10/07/2015,15-05192152,Abandoned Vehicle Complaint,Y906646,(Unlisted Make),White,,,16.0,6136 S RHODES AVE,60637.0,1180962.03662361,1864444.83208238,20.0,3.0,42.0,,41.782838813008006,-87.61222977069723,"(41.782838813008006, -87.61222977069723)",2015-10-01
109760,10/01/2015,Completed,10/07/2015,15-05189710,Abandoned Vehicle Complaint,UNKNOWN,Legacy Unknown,Red,FVI - Outcome,Vehicle was moved from original address requested,21.0,7309 S CLAREMONT AVE,60636.0,,,18.0,8.0,66.0,14.0,41.76075504319714,-87.68166743489863,"(41.76075504319714, -87.68166743489863)",2015-10-01
109761,10/01/2015,Completed,10/07/2015,15-05190430,Abandoned Vehicle Complaint,COVERED,"(Homemade Motorcycle, Moped.Etc.)",Blue,FVI - Outcome,Vehicle was moved from original address requested,10.0,2922 W GLENLAKE AVE,60659.0,,,50.0,24.0,2.0,,41.99227249502432,-87.70274735036665,"(41.99227249502432, -87.70274735036666)",2015-10-01
109762,10/01/2015,Completed,10/07/2015,15-05190539,Abandoned Vehicle Complaint,P98 2836,Saturn,Black,FVI - Outcome,Vehicle was moved from original address requested,7.0,6219 S EMERALD DR,60621.0,,,16.0,7.0,68.0,,41.78112936650897,-87.64354171465433,"(41.78112936650897, -87.64354171465433)",2015-10-01
109763,10/01/2015,Completed,10/07/2015,15-05190623,Abandoned Vehicle Complaint,976 1868,Dodge,Green,FVI - Outcome,Vehicle was moved from original address requested,3.0,2613 W 54TH ST,60632.0,,,14.0,9.0,63.0,,41.79548258601296,-87.68958033656082,"(41.79548258601296, -87.68958033656082)",2015-10-01
109764,10/01/2015,Completed,10/07/2015,15-05192374,Abandoned Vehicle Complaint,E152335,Ford,Tan,FVI - Outcome,Vehicle was moved from original address requested,30.0,7604 S WABASH AVE,60619.0,,,6.0,6.0,69.0,,41.75623750111513,-87.62325359047071,"(41.75623750111513, -87.62325359047072)",2015-10-01
109765,10/01/2015,Completed,10/07/2015,15-05192391,Abandoned Vehicle Complaint,V617747,Chevrolet,Black,FVI - Outcome,Vehicle was moved from original address requested,30.0,7612 S WABASH AVE,60619.0,,,6.0,6.0,69.0,,41.75601131050753,-87.6232488371787,"(41.756011310507525, -87.6232488371787)",2015-10-01
109856,10/08/2015,Completed,10/08/2015,15-05331057,Abandoned Vehicle Complaint,UNKOWN,Chrysler,Blue,FVI - Outcome,Vehicle was moved from original address requested,45.0,5438 W HIGGINS AVE,60630.0,1139370.87877674,1931834.03669563,45.0,16.0,11.0,,41.96918970437984,-87.76294984045177,"(41.969189704379836, -87.76294984045177)",2015-10-08
109857,10/07/2015,Completed,10/08/2015,15-05305125,Abandoned Vehicle Complaint,R264062,General Motors Corp.,Gray,FVI - Outcome,Vehicle was moved from original address requested,1.0,3651 W 30TH ST,60623.0,,,22.0,10.0,30.0,,41.83874429218021,-87.71667930154331,"(41.83874429218021, -87.71667930154332)",2015-10-07
109858,10/07/2015,Completed,10/08/2015,15-05306114,Abandoned Vehicle Complaint,K96 0525,Infiniti/M30,White,FVI - Outcome,Vehicle was moved from original address requested,6.0,2612 S LOWE AVE,60616.0,,,11.0,9.0,60.0,,41.84497114818881,-87.64295264465058,"(41.84497114818881, -87.64295264465058)",2015-10-07
109859,10/07/2015,Completed,10/08/2015,15-05308387,Abandoned Vehicle Complaint,71603FF,Dodge,Blue,FVI - Outcome,Vehicle was moved from original address requested,15.0,3735 W 24TH ST,60623.0,,,22.0,10.0,30.0,,41.847885425280666,-87.71869770419922,"(41.847885425280666, -87.71869770419922)",2015-10-07
109860,10/07/2015,Completed,10/08/2015,15-05314685,Abandoned Vehicle Complaint,2260238,Dodge,Green,Place 7 Day Sticker,Return to Owner - Vehicle,9.0,9536 S LOOMIS ST,60643.0,1168702.30896563,1841495.51191342,21.0,22.0,73.0,,41.72019102655439,-87.65781597308424,"(41.72019102655439, -87.65781597308424)",2015-10-07
109861,10/07/2015,Completed,10/08/2015,15-05322513,Abandoned Vehicle Complaint,L34 1206,Jeep/Cherokee,White,FVI - Outcome,Vehicle was moved from original address requested,70.0,3308 S UNION AVE,60616.0,,,11.0,9.0,60.0,,41.83411197386519,-87.64389605175488,"(41.83411197386519, -87.64389605175487)",2015-10-07
109862,10/06/2015,Completed,10/08/2015,15-05277882,Abandoned Vehicle Complaint,NONE,Chevrolet,Blue,FVI - Outcome,Vehicle was moved from original address requested,7.0,1703 S WASHTENAW AVE,60608.0,,,24.0,10.0,29.0,,41.85824239334428,-87.6930506366756,"(41.85824239334427, -87.69305063667558)",2015-10-06
109863,10/06/2015,Completed,10/08/2015,15-05278991,Abandoned Vehicle Complaint,Z264454,Mercury,Black,FVI - Outcome,Vehicle was moved from original address requested,14.0,1225 W MORSE AVE,60626.0,,,49.0,24.0,1.0,24.0,42.00785217633035,-87.6627470160783,"(42.00785217633035, -87.6627470160783)",2015-10-06
109864,10/06/2015,Completed,10/08/2015,15-05279203,Abandoned Vehicle Complaint,V974195,Pontiac,Silver,FVI - Outcome,Vehicle was moved from original address requested,14.0,949 W LELAND AVE,60640.0,,,46.0,19.0,3.0,34.0,41.967175064192354,-87.6544471846413,"(41.96717506419235, -87.65444718464131)",2015-10-06
109865,10/06/2015,Completed,10/08/2015,15-05279238,Abandoned Vehicle Complaint,6PWA997,Ford,Silver,FVI - Outcome,Vehicle was moved from original address requested,14.0,951 W EASTWOOD AVE,60640.0,,,46.0,19.0,3.0,34.0,41.96626791205329,-87.65451528124761,"(41.96626791205329, -87.65451528124763)",2015-10-06
109866,10/06/2015,Completed,10/08/2015,15-05283343,Abandoned Vehicle Complaint,NO PLATES,(Unlisted Make),Blue,FVI - Outcome,Return to Owner - Vehicle,60.0,1013 N DRAKE AVE,60651.0,,,27.0,11.0,23.0,,41.89955076760229,-87.71508180569424,"(41.899550767602285, -87.71508180569423)",2015-10-06
109867,10/06/2015,Completed,10/08/2015,15-05290217,Abandoned Vehicle Complaint,860 XTW,Volkswagen,Gray,FVI - Outcome,Vehicle was moved from original address requested,2.0,126 S RACINE AVE,60607.0,,,27.0,12.0,28.0,,41.87947986094982,-87.65722075722705,"(41.87947986094982, -87.65722075722707)",2015-10-06
109868,10/06/2015,Completed,10/08/2015,15-05293918,Abandoned Vehicle Complaint,NONE,Lincoln,Silver,FVI - Outcome,Vehicle was moved from original address requested,4.0,2924 W MONROE ST,60612.0,,,27.0,11.0,27.0,,41.880350111697716,-87.6996814440832,"(41.88035011169772, -87.69968144408318)",2015-10-06
109869,10/05/2015,Completed,10/08/2015,15-05253422,Abandoned Vehicle Complaint,47815V,Chevrolet,Black,FVI - Outcome,Vehicle was moved from original address requested,9.0,5419 N MILWAUKEE AVE,60630.0,,,45.0,16.0,11.0,,41.979958766906925,-87.77147803728859,"(41.97995876690692, -87.7714780372886)",2015-10-05
109870,10/05/2015,Completed,10/08/2015,15-05254689,Abandoned Vehicle Complaint,714R963,General Motors Corp.,Maroon,FVI - Outcome,Return to Owner - Vehicle,14.0,3748 E 103RD ST,60617.0,,,10.0,4.0,52.0,,41.70832777697368,-87.53213977376852,"(41.70832777697368, -87.53213977376852)",2015-10-05
109871,10/03/2015,Completed,10/08/2015,15-05233985,Abandoned Vehicle Complaint,MISSING PLATES,Chevrolet,Beige,FVI - Outcome,Vehicle was moved from original address requested,12.0,4500 W FIFTH AVE,60624.0,,,24.0,11.0,26.0,,41.86965475017799,-87.73786397932226,"(41.869654750177986, -87.73786397932226)",2015-10-03
109872,10/03/2015,Completed,10/08/2015,15-05242299,Abandoned Vehicle Complaint,V25 3319,Chevrolet,White,FVI - Outcome,Vehicle was moved from original address requested,12.0,2158 W HUBBARD ST,60612.0,,,27.0,12.0,24.0,,41.889753456201255,-87.6816492875226,"(41.88975345620126, -87.68164928752259)",2015-10-03
109873,10/03/2015,Completed,10/08/2015,15-05244091,Abandoned Vehicle Complaint,825R109,Ford,Black,FVI - Outcome,Vehicle was moved from original address requested,1.0,2556 W 46TH ST,60632.0,,,15.0,9.0,58.0,,41.81029257308617,-87.68920383785293,"(41.810292573086166, -87.68920383785294)",2015-10-03
109874,10/04/2015,Completed,10/08/2015,15-05249280,Abandoned Vehicle Complaint,L603274,Honda,Gray,FVI - Outcome,Vehicle was moved from original address requested,120.0,1220 W GLADYS AVE,60607.0,,,28.0,12.0,28.0,,41.87722306724103,-87.65788462922049,"(41.87722306724103, -87.65788462922049)",2015-10-04
109875,10/01/2015,Completed,10/08/2015,15-05190450,Abandoned Vehicle Complaint,N23 1017,Daewoo,Beige,FVI - Outcome,Vehicle was moved from original address requested,15.0,1426 W FLETCHER ST,60657.0,,,32.0,19.0,6.0,27.0,41.9389484506069,-87.66489007248276,"(41.938948450606894, -87.66489007248276)",2015-10-01
109876,10/02/2015,Completed,10/08/2015,15-05218267,Abandoned Vehicle Complaint,HAS PLATES,Chevrolet,Black,FVI - Outcome,Vehicle was moved from original address requested,30.0,4326 W 18TH ST,60623.0,,,24.0,10.0,29.0,,41.857029072567855,-87.73341075513531,"(41.85702907256785, -87.73341075513531)",2015-10-02
109877,10/02/2015,Completed,10/08/2015,15-05219600,Abandoned Vehicle Complaint,55270M,Ford,White,FVI - Outcome,Vehicle was moved from original address requested,7.0,2740 S KEELER AVE,60623.0,,,22.0,10.0,30.0,,41.84110995726406,-87.72947613714564,"(41.84110995726406, -87.72947613714564)",2015-10-02
109878,10/02/2015,Completed,10/08/2015,15-05223893,Abandoned Vehicle Complaint,?,(Unlisted Make),Multi-Color,FVI - Outcome,Vehicle was moved from original address requested,25.0,712 N RACINE AVE,60642.0,,,27.0,12.0,24.0,29.0,41.8948321482272,-87.65761807650499,"(41.8948321482272, -87.65761807650499)",2015-10-02
109908,10/09/2015,Completed,10/09/2015,15-05338405,Abandoned Vehicle Complaint,,,,FVI - Outcome,Return to Owner - Vehicle,,38 E 82ND ST,60619.0,,,6.0,6.0,44.0,,41.74561311912347,-87.62292866012224,"(41.74561311912347, -87.62292866012224)",2015-10-09
109909,10/09/2015,Completed,10/09/2015,15-05339007,Abandoned Vehicle Complaint,0,Jeep/Cherokee,Unknown,FVI - Outcome,Return to Owner - Vehicle,7.0,3852 W GLADYS AVE,60624.0,1150757.28026691,1898079.05401577,28.0,11.0,26.0,,41.876323054820965,-87.7227348000313,"(41.876323054820965, -87.72273480003129)",2015-10-09
109910,10/09/2015,Completed,10/09/2015,15-05339010,Abandoned Vehicle Complaint,UNKNOWN,Chevrolet,Unknown,FVI - Outcome,Return to Owner - Vehicle,7.0,3957 W GLADYS AVE,60624.0,1150064.64287347,1898062.23787324,28.0,11.0,26.0,,41.876070398197825,-87.72531597691065,"(41.876070398197825, -87.72531597691065)",2015-10-09
109911,10/09/2015,Completed,10/09/2015,15-05339446,Abandoned Vehicle Complaint,E761045,Chevrolet,Red,FVI - Outcome,Vehicle was moved from original address requested,7.0,2733 W FLOURNOY ST,60612.0,,,28.0,11.0,27.0,,41.87278245669474,-87.69496240419144,"(41.87278245669474, -87.69496240419143)",2015-10-09
109912,10/08/2015,Completed - Dup,10/09/2015,15-05331188,Abandoned Vehicle Complaint,E761045,Chevrolet,Maroon,FVI - Outcome,Create Work Order,10.0,2733 W FLOURNOY ST,60612.0,1158253.80962602,1896921.72062616,28.0,11.0,27.0,,41.87278245669474,-87.69496240419144,"(41.87278245669474, -87.69496240419143)",2015-10-08
109913,10/08/2015,Completed - Dup,10/09/2015,15-05331248,Abandoned Vehicle Complaint,UNKNOWN,Legacy Unknown,Blue,FVI - Outcome,Create Work Order,10.0,2733 W FLOURNOY ST,60612.0,1158253.80962602,1896921.72062616,28.0,11.0,27.0,,41.87278245669474,-87.69496240419144,"(41.87278245669474, -87.69496240419143)",2015-10-08
109914,10/08/2015,Completed,10/09/2015,15-05326476,Abandoned Vehicle Complaint,V298292,Chevrolet,Purple,FVI - Outcome,Vehicle was moved from original address requested,14.0,6447 S NEW ENGLAND AVE,60638.0,,,23.0,8.0,64.0,,41.77425997627945,-87.79322307765008,"(41.774259976279446, -87.7932230776501)",2015-10-08
109915,10/08/2015,Completed,10/09/2015,15-05330845,Abandoned Vehicle Complaint,NOT AVAILABLE,(Unlisted Make),White,FVI - Outcome,Return to Owner - Vehicle,7.0,5751 S LAFLIN ST,60636.0,,,16.0,7.0,67.0,,41.78892100289927,-87.66186865213626,"(41.78892100289927, -87.66186865213626)",2015-10-08
109916,10/08/2015,Completed,10/09/2015,15-05330962,Abandoned Vehicle Complaint,L705984,Toyota,White,FVI - Outcome,Vehicle was moved from original address requested,20.0,5921 S MCVICKER AVE,60638.0,,,13.0,8.0,64.0,,41.784597416569405,-87.77283026882074,"(41.784597416569405, -87.77283026882075)",2015-10-08
109917,10/08/2015,Completed,10/09/2015,15-05330971,Abandoned Vehicle Complaint,549LKTA,(Homemade Trailer),Black,,,7.0,5751 S LAFLIN ST,60636.0,1167319.52467955,1866593.67127798,16.0,7.0,67.0,,41.78892100289927,-87.66186865213626,"(41.78892100289927, -87.66186865213626)",2015-10-08
109918,10/08/2015,Completed,10/09/2015,15-05331139,Abandoned Vehicle Complaint,NO,Buick,Maroon,FVI - Outcome,Vehicle was moved from original address requested,10.0,2733 W FLOURNOY ST,60612.0,,,28.0,11.0,27.0,,41.87278245669474,-87.69496240419144,"(41.87278245669474, -87.69496240419143)",2015-10-08
109919,10/08/2015,Completed,10/09/2015,15-05331318,Abandoned Vehicle Complaint,E686008,Oldsmobile,Maroon,FVI - Outcome,Vehicle was moved from original address requested,10.0,1143 S FRANCISCO AVE,60612.0,,,28.0,11.0,29.0,,41.866985293565996,-87.69821247452411,"(41.866985293566, -87.69821247452413)",2015-10-08
109920,10/08/2015,Completed,10/09/2015,15-05331510,Abandoned Vehicle Complaint,UNKNOWN,Chevrolet,White,FVI - Outcome,Vehicle was moved from original address requested,10.0,2725 W FLOURNOY ST,60612.0,,,28.0,11.0,27.0,,41.872786732424466,-87.69465865087842,"(41.872786732424466, -87.69465865087842)",2015-10-08
109921,10/07/2015,Completed,10/09/2015,15-05304129,Abandoned Vehicle Complaint,E686008,Oldsmobile,Burgundy,FVI - Outcome,Vehicle was moved from original address requested,7.0,1141 S FRANCISCO AVE,60612.0,,,28.0,11.0,29.0,,41.86704394320756,-87.69821392394242,"(41.867043943207555, -87.6982139239424)",2015-10-07
109922,10/07/2015,Completed,10/09/2015,15-05304547,Abandoned Vehicle Complaint,P476066,Chevrolet,Black,FVI - Outcome,Need Vehicle Tow Report,2.0,1238 W WASHINGTON BLVD,60607.0,,,27.0,12.0,28.0,,41.88306907889864,-87.65822511540183,"(41.88306907889864, -87.65822511540185)",2015-10-07
109923,10/07/2015,Completed,10/09/2015,15-05306055,Abandoned Vehicle Complaint,E726317,Nissan,Blue,FVI - Outcome,Need Vehicle Tow Report,1.0,6838 S DAMEN AVE,60636.0,,,16.0,7.0,67.0,,41.769119086497824,-87.6737870988696,"(41.76911908649783, -87.6737870988696)",2015-10-07
109924,10/07/2015,Completed,10/09/2015,15-05306801,Abandoned Vehicle Complaint,E650498,Cadillac,Green,FVI - Outcome,Vehicle was moved from original address requested,7.0,4052 W ADAMS ST,60624.0,,,28.0,11.0,26.0,,41.87806203081799,-87.72767899335739,"(41.87806203081799, -87.72767899335739)",2015-10-07
109925,10/07/2015,Completed,10/09/2015,15-05306927,Abandoned Vehicle Complaint,P127842,Pontiac,Blue,FVI - Outcome,Need Vehicle Tow Report,60.0,4351 W WILCOX ST,60624.0,,,28.0,11.0,26.0,,41.878645924587616,-87.73498307552273,"(41.87864592458762, -87.73498307552273)",2015-10-07
109926,10/07/2015,Completed,10/09/2015,15-05307818,Abandoned Vehicle Complaint,52886PV,Chevrolet,Blue,FVI - Outcome,Return to Owner - Vehicle,8.0,5153 S HAMLIN AVE,60632.0,,,23.0,8.0,62.0,,41.79904910744832,-87.7182761548892,"(41.79904910744832, -87.71827615488921)",2015-10-07
109927,10/07/2015,Completed,10/09/2015,15-05308425,Abandoned Vehicle Complaint,NONE,Cadillac,Black,FVI - Outcome,Need Vehicle Tow Report,10.0,2543 W 73RD ST,60629.0,,,18.0,8.0,66.0,14.0,41.760874030803365,-87.68732955823765,"(41.760874030803365, -87.68732955823766)",2015-10-07
109928,10/07/2015,Completed,10/09/2015,15-05316495,Abandoned Vehicle Complaint,P9942029,Kia Motors Corp,Burgundy,FVI - Outcome,Return to Owner - Vehicle,265.0,4416 S LEAMINGTON AVE,60638.0,,,22.0,8.0,56.0,,41.81246255155463,-87.75199653886294,"(41.81246255155463, -87.75199653886293)",2015-10-07
109929,10/07/2015,Completed,10/09/2015,15-05319849,Abandoned Vehicle Complaint,P944188,Toyota,Blue,FVI - Outcome,Vehicle was moved from original address requested,90.0,8200 S WABASH AVE,60619.0,,,6.0,6.0,44.0,,41.745410328602254,-87.62299317765147,"(41.74541032860226, -87.62299317765145)",2015-10-07
109930,10/06/2015,Completed,10/09/2015,15-05287803,Abandoned Vehicle Complaint,V19 9154,Toyota,Green,FVI - Outcome,Vehicle was moved from original address requested,15.0,6642 N TALMAN AVE,60645.0,,,50.0,24.0,2.0,,42.0025366129428,-87.69625752564474,"(42.0025366129428, -87.69625752564475)",2015-10-06
109931,10/06/2015,Completed,10/09/2015,15-05290001,Abandoned Vehicle Complaint,E933697,Chevrolet,Gray,FVI - Outcome,Vehicle was moved from original address requested,14.0,3711 W 56TH ST,60629.0,,,23.0,8.0,62.0,,41.791390320549205,-87.71626137079518,"(41.7913903205492, -87.71626137079517)",2015-10-06
109932,10/06/2015,Completed,10/09/2015,15-05292153,Abandoned Vehicle Complaint,1429380,,Green,FVI - Outcome,Vehicle was moved from original address requested,7.0,2349 W JARVIS AVE,60645.0,,,50.0,24.0,2.0,,42.015549115891474,-87.68968517650738,"(42.01554911589147, -87.68968517650738)",2015-10-06
109933,10/06/2015,Completed,10/09/2015,15-05292159,Abandoned Vehicle Complaint,8445448,Toyota,White,FVI - Outcome,Vehicle was moved from original address requested,7.0,2300 W JARVIS AVE,60645.0,,,50.0,24.0,2.0,,42.01574722295507,-87.68758648056016,"(42.01574722295507, -87.68758648056016)",2015-10-06
109934,10/06/2015,Completed,10/09/2015,15-05292218,Abandoned Vehicle Complaint,UNK,Nissan,Burgundy,FVI - Outcome,Vehicle was moved from original address requested,7.0,2300 W JARVIS AVE,60645.0,,,50.0,24.0,2.0,,42.01574722295507,-87.68758648056016,"(42.01574722295507, -87.68758648056016)",2015-10-06
109935,10/04/2015,Completed,10/09/2015,15-05247863,Abandoned Vehicle Complaint,NONE,Lincoln,Green,FVI - Outcome,Vehicle was moved from original address requested,10.0,8501 S HOYNE AVE,60620.0,,,18.0,6.0,71.0,,41.739231983515396,-87.67515997447748,"(41.739231983515396, -87.67515997447748)",2015-10-04
109936,10/04/2015,Completed,10/09/2015,15-05247932,Abandoned Vehicle Complaint,3692,Chevrolet,Green,FVI - Outcome,Return to Owner - Vehicle,30.0,11423 S WESTERN AVE,60643.0,,,19.0,22.0,75.0,,41.68547550094365,-87.68081269018667,"(41.68547550094366, -87.68081269018667)",2015-10-04
109937,10/04/2015,Completed,10/09/2015,15-05248743,Abandoned Vehicle Complaint,885BNW,Mercedes,Black,FVI - Outcome,Vehicle was moved from original address requested,30.0,7442 S LAFAYETTE AVE,60621.0,,,6.0,7.0,69.0,,41.75869359345595,-87.62653244587943,"(41.75869359345595, -87.62653244587943)",2015-10-04
109938,10/04/2015,Completed,10/09/2015,15-05248866,Abandoned Vehicle Complaint,UNKNOWN,Dodge,White,FVI - Outcome,Vehicle was moved from original address requested,8.0,5239 W 64TH PL,60638.0,,,13.0,8.0,64.0,,41.77502764972434,-87.75333697841532,"(41.77502764972434, -87.75333697841532)",2015-10-04
109939,10/05/2015,Completed,10/09/2015,15-05254087,Abandoned Vehicle Complaint,E925649,Ford,Turquoise,FVI - Outcome,Vehicle was moved from original address requested,8.0,6441 S KARLOV AVE,60629.0,,,13.0,8.0,65.0,,41.775584617389384,-87.72497383661022,"(41.77558461738938, -87.72497383661022)",2015-10-05
109940,10/02/2015,Completed,10/09/2015,15-05206797,Abandoned Vehicle Complaint,492 5343,Acura,Blue,FVI - Outcome,Return to Owner - Vehicle,20.0,2617 W WINDSOR AVE,60625.0,,,47.0,19.0,4.0,,41.96384684036783,-87.69438414109683,"(41.96384684036783, -87.69438414109685)",2015-10-02
109941,10/02/2015,Completed,10/09/2015,15-05212164,Abandoned Vehicle Complaint,NONE,Chevrolet,Blue,FVI - Outcome,Vehicle was moved from original address requested,5.0,1500 W 88TH ST,60620.0,,,21.0,22.0,71.0,,41.73411607781708,-87.66064469706076,"(41.73411607781708, -87.66064469706076)",2015-10-02
109942,10/02/2015,Completed,10/09/2015,15-05214009,Abandoned Vehicle Complaint,E549313,Jeep - Year Greater 1988,Black,FVI - Outcome,Vehicle was moved from original address requested,30.0,2519 N RIDGEWAY AVE,60647.0,,,31.0,25.0,22.0,,41.926950900159966,-87.72057379117048,"(41.926950900159966, -87.72057379117048)",2015-10-02
109943,10/02/2015,Completed,10/09/2015,15-05215781,Abandoned Vehicle Complaint,NO PLATES,Kawasaki Motors Corp.,Black,FVI - Outcome,Vehicle was moved from original address requested,60.0,4000 W GEORGE ST,60641.0,,,31.0,25.0,21.0,,41.93374298859685,-87.72714928404585,"(41.93374298859685, -87.72714928404584)",2015-10-02
109944,10/02/2015,Completed,10/09/2015,15-05225918,Abandoned Vehicle Complaint,S891896,Mercedes,Gray,FVI - Outcome,Vehicle was moved from original address requested,10.0,530 N OAKLEY BLVD,60612.0,,,26.0,12.0,24.0,,41.89172786655644,-87.68442732192342,"(41.89172786655644, -87.68442732192342)",2015-10-02
109945,10/03/2015,Completed,10/09/2015,15-05235740,Abandoned Vehicle Complaint,P659472,Chevrolet,Gray,FVI - Outcome,Vehicle was moved from original address requested,20.0,6510 S KEELER AVE,60629.0,,,13.0,8.0,65.0,,41.77458236840544,-87.7276826409696,"(41.77458236840544, -87.7276826409696)",2015-10-03
109946,10/03/2015,Completed,10/09/2015,15-05241178,Abandoned Vehicle Complaint,Y993000,Kia Motors Corp,Gray,FVI - Outcome,Vehicle was moved from original address requested,20.0,8320 S SEELEY AVE,60620.0,,,18.0,6.0,71.0,,41.742269213296076,-87.67430863522043,"(41.74226921329608, -87.67430863522043)",2015-10-03
109947,10/01/2015,Completed,10/09/2015,15-05187309,Abandoned Vehicle Complaint,NONE,Cadillac,Black,FVI - Outcome,Need Vehicle Tow Report,,5823 N WESTERN AVE,60659.0,1159270.39243006,1938596.03997995,40.0,20.0,4.0,,41.98752641018463,-87.6894245054857,"(41.98752641018463, -87.6894245054857)",2015-10-01
109948,10/01/2015,Completed,10/09/2015,15-05188959,Abandoned Vehicle Complaint,NONE,Pontiac,Black,FVI - Outcome,Vehicle was moved from original address requested,30.0,9745 S HARVARD AVE,60628.0,,,21.0,5.0,49.0,,41.716645517483904,-87.63201848445465,"(41.716645517483904, -87.63201848445466)",2015-10-01
109949,10/01/2015,Completed,10/09/2015,15-05190609,Abandoned Vehicle Complaint,L304329,Volkswagen,Gray,FVI - Outcome,Vehicle was moved from original address requested,14.0,1826 N WASHTENAW AVE,60647.0,,,1.0,14.0,22.0,,41.91472595601513,-87.69482078955672,"(41.914725956015126, -87.69482078955672)",2015-10-01
109950,10/01/2015,Completed,10/09/2015,15-05191227,Abandoned Vehicle Complaint,Y959241,,Gray,FVI - Outcome,Vehicle was moved from original address requested,14.0,2153 W RACE AVE,60612.0,,,26.0,12.0,24.0,,41.89136156082796,-87.68146933259045,"(41.89136156082796, -87.68146933259045)",2015-10-01
109951,10/01/2015,Completed,10/09/2015,15-05191381,Abandoned Vehicle Complaint,LDK227,,Bronze,FVI - Outcome,Vehicle was moved from original address requested,14.0,2153 W RACE AVE,60612.0,,,26.0,12.0,24.0,,41.89136156082796,-87.68146933259045,"(41.89136156082796, -87.68146933259045)",2015-10-01
109952,10/01/2015,Completed,10/09/2015,15-05191469,Abandoned Vehicle Complaint,PLA150393,Jeep - Year Greater 1988,Black,FVI - Outcome,Vehicle was moved from original address requested,14.0,2153 W RACE AVE,60612.0,,,26.0,12.0,24.0,,41.89136156082796,-87.68146933259045,"(41.89136156082796, -87.68146933259045)",2015-10-01
109953,10/01/2015,Completed,10/09/2015,15-05199001,Abandoned Vehicle Complaint,926-LZU,Hyundai,Green,FVI - Outcome,Vehicle was moved from original address requested,10.0,3242 N KILDARE AVE,60641.0,,,30.0,17.0,16.0,,41.9403008382513,-87.73475696666134,"(41.940300838251304, -87.73475696666134)",2015-10-01
110105,10/13/2015,Completed,10/13/2015,15-05356131,Abandoned Vehicle Complaint,,Jeep - Year Greater 1988,,FVI - Outcome,Return to Owner - Vehicle,,3852 W GLADYS AVE,60624.0,,,28.0,11.0,26.0,,41.876323054820965,-87.7227348000313,"(41.876323054820965, -87.72273480003129)",2015-10-13
110106,10/13/2015,Completed,10/13/2015,15-05356173,Abandoned Vehicle Complaint,,Chevrolet,,FVI - Outcome,Return to Owner - Vehicle,,3957 W GLADYS AVE,60624.0,,,28.0,11.0,26.0,,41.876070398197825,-87.72531597691065,"(41.876070398197825, -87.72531597691065)",2015-10-13
110107,10/13/2015,Completed,10/13/2015,15-05356687,Abandoned Vehicle Complaint,Z350503,Nissan,Silver,FVI - Outcome,Vehicle was moved from original address requested,1.0,3651 W 30TH ST,60623.0,,,22.0,10.0,30.0,,41.83874429218021,-87.71667930154331,"(41.83874429218021, -87.71667930154332)",2015-10-13
110108,10/12/2015,Completed - Dup,10/13/2015,15-05354290,Abandoned Vehicle Complaint,S679389,Honda,Black,FVI - Outcome,Create Work Order,21.0,3043 S THROOP ST,60608.0,1170385.16397172,1884660.68577858,11.0,9.0,60.0,,41.8387825677437,-87.64990536040173,"(41.8387825677437, -87.64990536040173)",2015-10-12
110109,10/12/2015,Completed,10/13/2015,15-05351625,Abandoned Vehicle Complaint,G605934,Volkswagen,Black,FVI - Outcome,Vehicle was moved from original address requested,30.0,3216 W FLOURNOY ST,60624.0,,,24.0,11.0,27.0,,41.872881768700154,-87.70661482137974,"(41.872881768700154, -87.70661482137973)",2015-10-12
110110,10/12/2015,Completed,10/13/2015,15-05354028,Abandoned Vehicle Complaint,.,(Unlisted Manufacturer),Multi-Color,FVI - Outcome,Vehicle was moved from original address requested,63.0,802 N RACINE AVE,60642.0,,,27.0,12.0,24.0,29.0,41.896322820665226,-87.65766078051453,"(41.896322820665226, -87.65766078051453)",2015-10-12
110111,10/12/2015,Completed,10/13/2015,15-05354058,Abandoned Vehicle Complaint,.,(Unlisted Manufacturer),Multi-Color,FVI - Outcome,Vehicle was moved from original address requested,63.0,730 N KENNEDY EXPRESS RL,60642.0,,,27.0,12.0,24.0,29.0,41.89512656944989,-87.65710896689122,"(41.89512656944989, -87.6571089668912)",2015-10-12
110112,10/12/2015,Completed,10/13/2015,15-05354170,Abandoned Vehicle Complaint,.,(Unlisted Manufacturer),Multi-Color,FVI - Outcome,Vehicle was moved from original address requested,63.0,712 N RACINE AVE,60642.0,,,27.0,12.0,24.0,29.0,41.8948321482272,-87.65761807650499,"(41.8948321482272, -87.65761807650499)",2015-10-12
110113,10/12/2015,Completed,10/13/2015,15-05354196,Abandoned Vehicle Complaint,000000,Chrysler,Black,FVI - Outcome,Return to Owner - Vehicle,8.0,3112 S MAY ST,60608.0,,,11.0,9.0,60.0,,41.8375060319178,-87.6549395835065,"(41.8375060319178, -87.6549395835065)",2015-10-12
110114,10/12/2015,Completed,10/13/2015,15-05354887,Abandoned Vehicle Complaint,UNKNOWN,Toyota,Silver,FVI - Outcome,Vehicle was moved from original address requested,7.0,399 N ABERDEEN ST,60607.0,,,27.0,12.0,28.0,,41.88895324588485,-87.6544193960531,"(41.888953245884856, -87.65441939605311)",2015-10-12
110115,10/11/2015,Completed - Dup,10/13/2015,15-05347528,Abandoned Vehicle Complaint,S494088,Dodge,Red,FVI - Outcome,Create Work Order,120.0,319 N LOREL AVE,60644.0,1140653.96679072,1901594.6098667,37.0,15.0,25.0,,41.88623683447607,-87.75880589071942,"(41.886236834476065, -87.75880589071942)",2015-10-11
110116,10/11/2015,Completed,10/13/2015,15-05347514,Abandoned Vehicle Complaint,S494088,Dodge,Red,FVI - Outcome,Vehicle was moved from original address requested,120.0,319 N LOREL AVE,60644.0,,,37.0,15.0,25.0,,41.88623683447607,-87.75880589071942,"(41.886236834476065, -87.75880589071942)",2015-10-11
110117,10/10/2015,Completed,10/13/2015,15-05343892,Abandoned Vehicle Complaint,N587301,Chevrolet,Gray,FVI - Outcome,Vehicle was moved from original address requested,7.0,831 N RIDGEWAY AVE,60651.0,,,27.0,11.0,23.0,63.0,41.89636846430815,-87.71985699722697,"(41.89636846430816, -87.71985699722697)",2015-10-10
110118,10/10/2015,Completed,10/13/2015,15-05344748,Abandoned Vehicle Complaint,E693517,Mercury,Gray,FVI - Outcome,Vehicle was moved from original address requested,10.0,941 N LATROBE AVE,60651.0,,,37.0,15.0,25.0,,41.89797611452364,-87.75675502266664,"(41.89797611452363, -87.75675502266664)",2015-10-10
110119,10/10/2015,Completed,10/13/2015,15-05344827,Abandoned Vehicle Complaint,E693517,Mercury,Gray,FVI - Outcome,Vehicle was moved from original address requested,5.0,939 N LATROBE AVE,60651.0,,,37.0,15.0,25.0,,41.897919346979116,-87.75675354125366,"(41.897919346979116, -87.75675354125366)",2015-10-10
110120,10/09/2015,Completed,10/13/2015,15-05334958,Abandoned Vehicle Complaint,S15 4195,Saab,Blue,FVI - Outcome,Vehicle was moved from original address requested,395.0,22 N ADA ST,60607.0,,,27.0,12.0,28.0,,41.88221006415723,-87.66072544984523,"(41.88221006415723, -87.66072544984523)",2015-10-09
110121,10/09/2015,Completed,10/13/2015,15-05337957,Abandoned Vehicle Complaint,Y916927,Chevrolet,Gray,FVI - Outcome,Vehicle was moved from original address requested,2.0,317 E WACKER DR,60601.0,,,42.0,1.0,32.0,,41.88760406331652,-87.61994525524857,"(41.887604063316516, -87.61994525524857)",2015-10-09
110122,10/09/2015,Completed,10/13/2015,15-05340020,Abandoned Vehicle Complaint,254EEC,Dodge,Gray,FVI - Outcome,Vehicle was moved from original address requested,20.0,3117 S THROOP ST,60608.0,,,11.0,9.0,60.0,,41.83733576624685,-87.65827646676672,"(41.83733576624685, -87.65827646676672)",2015-10-09
110123,10/09/2015,Completed,10/13/2015,15-05340847,Abandoned Vehicle Complaint,Y721726,Mercury,Gray,FVI - Outcome,Vehicle was moved from original address requested,8.0,120 N HALSTED ST,60661.0,,,27.0,12.0,28.0,,41.88380058788575,-87.64756556923359,"(41.88380058788575, -87.64756556923359)",2015-10-09
110124,10/09/2015,Completed,10/13/2015,15-05341541,Abandoned Vehicle Complaint,0000000,,Blue,FVI - Outcome,Return to Owner - Vehicle,160.0,1039 N DRAKE AVE,60651.0,,,27.0,11.0,23.0,,41.90028601767089,-87.71510716288917,"(41.90028601767088, -87.71510716288917)",2015-10-09
110125,10/08/2015,Completed - Dup,10/13/2015,15-05330187,Abandoned Vehicle Complaint,UNKNOWN,Honda,White,FVI - Outcome,Create Work Order,7.0,3426 S EMERALD AVE,60616.0,1171861.0224911,1882164.41648973,11.0,9.0,60.0,,41.831763643260615,-87.6450601090493,"(41.831763643260615, -87.6450601090493)",2015-10-08
110126,10/08/2015,Completed,10/13/2015,15-05333947,Abandoned Vehicle Complaint,L341206,Jeep/Cherokee,White,FVI - Outcome,Vehicle was moved from original address requested,222.0,3304 S UNION AVE,60616.0,,,11.0,9.0,60.0,,41.83422504974606,-87.6438998964864,"(41.83422504974606, -87.64389989648639)",2015-10-08
110127,10/08/2015,Completed,10/13/2015,15-05333949,Abandoned Vehicle Complaint,L341206,Jeep/Cherokee,White,FVI - Outcome,Vehicle was moved from original address requested,222.0,3304 S UNION AVE,60616.0,,,11.0,9.0,60.0,,41.83422504974606,-87.6438998964864,"(41.83422504974606, -87.64389989648639)",2015-10-08
110129,10/08/2015,Completed,10/13/2015,15-05333950,Abandoned Vehicle Complaint,L341206,Jeep/Cherokee,White,FVI - Outcome,Vehicle was moved from original address requested,222.0,3308 S UNION AVE,60616.0,,,11.0,9.0,60.0,,41.83411197386519,-87.64389605175488,"(41.83411197386519, -87.64389605175487)",2015-10-08
110130,10/07/2015,Completed - Dup,10/13/2015,15-05304548,Abandoned Vehicle Complaint,E308083,Chevrolet,Silver,FVI - Outcome,Create Work Order,30.0,3316 W MARQUETTE RD,60629.0,1155437.47999506,1859997.64138231,17.0,8.0,66.0,,41.771734786347025,-87.70610964327622,"(41.77173478634702, -87.70610964327622)",2015-10-07
110131,10/07/2015,Completed - Dup,10/13/2015,15-05306238,Abandoned Vehicle Complaint,S878057,Mercury,Black,FVI - Outcome,Create Work Order,30.0,13119 S MANISTEE AVE,60633.0,1196769.41170293,1818600.75678274,10.0,4.0,55.0,,41.65678416586345,-87.55549410192484,"(41.656784165863456, -87.55549410192484)",2015-10-07
110132,10/07/2015,Completed,10/13/2015,15-05304543,Abandoned Vehicle Complaint,V384178,Pontiac,Red,FVI - Outcome,Vehicle was moved from original address requested,14.0,202 E 81ST ST,60619.0,,,6.0,6.0,44.0,,41.747495061125,-87.61950126673409,"(41.747495061125, -87.6195012667341)",2015-10-07
110133,10/07/2015,Completed,10/13/2015,15-05304547,Abandoned Vehicle Complaint,P476066,Chevrolet,Black,,,2.0,1238 W WASHINGTON BLVD,60607.0,,,27.0,12.0,28.0,,41.88306907889864,-87.65822511540183,"(41.88306907889864, -87.65822511540185)",2015-10-07
110134,10/07/2015,Completed,10/13/2015,15-05321715,Abandoned Vehicle Complaint,A143472,Chrysler,Silver,FVI - Outcome,Vehicle was moved from original address requested,500.0,2558 S HILLOCK AVE,60608.0,,,11.0,9.0,60.0,,41.84597910557178,-87.65525446882748,"(41.84597910557177, -87.65525446882748)",2015-10-07
110135,10/06/2015,Completed - Dup,10/13/2015,15-05278301,Abandoned Vehicle Complaint,E118310,Dodge,Gray,FVI - Outcome,Create Work Order,14.0,9939 S PERRY AVE,60628.0,1177355.20522088,1839056.25439808,9.0,5.0,49.0,,41.71325329958553,-87.62590470857675,"(41.71325329958553, -87.62590470857675)",2015-10-06
110136,10/06/2015,Completed,10/13/2015,15-05277220,Abandoned Vehicle Complaint,R136872,Nissan,Gray,FVI - Outcome,Vehicle was moved from original address requested,10.0,7739 S KARLOV AVE,60652.0,,,18.0,8.0,70.0,,41.75221607167921,-87.72371664898895,"(41.75221607167921, -87.72371664898895)",2015-10-06
110137,10/06/2015,Completed,10/13/2015,15-05277954,Abandoned Vehicle Complaint,5868489,Nissan,Black,FVI - Outcome,Vehicle was moved from original address requested,30.0,7351 S CAMPBELL AVE,60629.0,,,18.0,8.0,66.0,14.0,41.759506026292044,-87.68540174916771,"(41.759506026292044, -87.6854017491677)",2015-10-06
110138,10/06/2015,Completed,10/13/2015,15-05278454,Abandoned Vehicle Complaint,V328386,Chrysler,Blue,FVI - Outcome,Vehicle was moved from original address requested,14.0,11402 S AVENUE G,60617.0,,,10.0,4.0,52.0,,41.68805458364325,-87.53181479549455,"(41.68805458364325, -87.53181479549457)",2015-10-06
110139,10/06/2015,Completed,10/13/2015,15-05279864,Abandoned Vehicle Complaint,MISSING,Ford,Green,FVI - Outcome,Vehicle was moved from original address requested,60.0,8349 S BRANDON AVE,60617.0,,,10.0,4.0,46.0,,41.74325064430304,-87.54650790582842,"(41.74325064430304, -87.54650790582842)",2015-10-06
110140,10/06/2015,Completed,10/13/2015,15-05279902,Abandoned Vehicle Complaint,262WVZ,Honda,White,FVI - Outcome,Vehicle was moved from original address requested,10.0,3426 S EMERALD AVE,60616.0,,,11.0,9.0,60.0,,41.831763643260615,-87.6450601090493,"(41.831763643260615, -87.6450601090493)",2015-10-06
110141,10/06/2015,Completed,10/13/2015,15-05280337,Abandoned Vehicle Complaint,????????,Chevrolet,Gray,FVI - Outcome,Vehicle was moved from original address requested,20.0,9000 S LAFLIN ST,60620.0,,,21.0,22.0,73.0,,41.73027472880287,-87.66061571200025,"(41.73027472880287, -87.66061571200025)",2015-10-06
110142,10/06/2015,Completed,10/13/2015,15-05280617,Abandoned Vehicle Complaint,1234,Lexus,Green,FVI - Outcome,Vehicle was moved from original address requested,30.0,10100 S STATE ST,60628.0,,,9.0,5.0,49.0,,41.71075806387458,-87.62373986711684,"(41.71075806387458, -87.62373986711683)",2015-10-06
110143,10/06/2015,Completed,10/13/2015,15-05282536,Abandoned Vehicle Complaint,UNKNOWN,Chevrolet,Green,FVI - Outcome,Return to Owner - Vehicle,7.0,8129 S CHAMPLAIN AVE,60619.0,,,6.0,6.0,44.0,,41.74668357003265,-87.60859901030727,"(41.74668357003265, -87.60859901030727)",2015-10-06
110144,10/06/2015,Completed,10/13/2015,15-05293500,Abandoned Vehicle Complaint,29877Z,Ford,Black,FVI - Outcome,Vehicle was moved from original address requested,7.0,7241 S RACINE AVE,60636.0,,,6.0,7.0,68.0,,41.76199129090978,-87.65388856154543,"(41.76199129090978, -87.65388856154543)",2015-10-06
110145,10/06/2015,Completed,10/13/2015,15-05299897,Abandoned Vehicle Complaint,S770496,Jeep - Year Greater 1988,Red,FVI - Outcome,Vehicle was moved from original address requested,12.0,3154 S NORMAL AVE,60616.0,,,11.0,9.0,60.0,,41.8365213206028,-87.63908050270645,"(41.8365213206028, -87.63908050270646)",2015-10-06
110146,10/05/2015,Completed,10/13/2015,15-05264467,Abandoned Vehicle Complaint,592-5456,Nissan,Silver,FVI - Outcome,Vehicle was moved from original address requested,15.0,8646 S ROCKWELL ST,60652.0,,,18.0,8.0,70.0,,41.735727088022564,-87.68839679810787,"(41.735727088022564, -87.68839679810787)",2015-10-05
110147,10/05/2015,Completed,10/13/2015,15-05265393,Abandoned Vehicle Complaint,Y790874,Chevrolet,Black,FVI - Outcome,Return to Owner - Vehicle,10.0,2722 S QUINN ST,60608.0,,,11.0,9.0,60.0,,41.84331746959694,-87.65279903582994,"(41.84331746959694, -87.65279903582996)",2015-10-05
110148,10/05/2015,Completed,10/13/2015,15-05267293,Abandoned Vehicle Complaint,Z26 4025,Mitsubishi,Blue,FVI - Outcome,Vehicle was moved from original address requested,21.0,3142 W 81ST ST,60652.0,,,18.0,8.0,70.0,,41.74627534539805,-87.70150346896467,"(41.746275345398054, -87.70150346896467)",2015-10-05
110149,10/05/2015,Completed,10/13/2015,15-05268202,Abandoned Vehicle Complaint,E390193,Ford,Green,FVI - Outcome,Vehicle was moved from original address requested,60.0,3518 W 79TH PL,60652.0,,,18.0,8.0,70.0,,41.7488735124171,-87.7104797032764,"(41.7488735124171, -87.7104797032764)",2015-10-05
110150,10/05/2015,Completed,10/13/2015,15-05271935,Abandoned Vehicle Complaint,P337910,Chrysler,Cream,FVI - Outcome,Vehicle was moved from original address requested,30.0,1059 W 92ND PL,60620.0,,,21.0,22.0,73.0,,41.72582713904926,-87.65054743885017,"(41.72582713904926, -87.65054743885017)",2015-10-05
110151,10/03/2015,Completed,10/13/2015,15-05234235,Abandoned Vehicle Complaint,V725460,Honda,Red,FVI - Outcome,Vehicle was moved from original address requested,14.0,1531 N TALMAN AVE,60622.0,,,1.0,14.0,24.0,,41.90937241703036,-87.6931537019865,"(41.90937241703036, -87.6931537019865)",2015-10-03
110152,10/03/2015,Completed,10/13/2015,15-05236722,Abandoned Vehicle Complaint,6305589,(Unlisted Make),White,FVI - Outcome,Vehicle was moved from original address requested,14.0,2600 N MANGO AVE,60639.0,,,30.0,25.0,19.0,,41.92766471577896,-87.76991488280788,"(41.92766471577896, -87.76991488280788)",2015-10-03
110153,10/03/2015,Completed,10/13/2015,15-05243059,Abandoned Vehicle Complaint,E308083,Chevrolet,Silver,FVI - Outcome,Need Vehicle Tow Report,91.0,3316 W MARQUETTE RD,60629.0,,,17.0,8.0,66.0,,41.771734786347025,-87.70610964327622,"(41.77173478634702, -87.70610964327622)",2015-10-03
110154,10/04/2015,Completed,10/13/2015,15-05248440,Abandoned Vehicle Complaint,P782815,Ford,Tan,FVI - Outcome,Vehicle was moved from original address requested,7.0,9410 S FOREST AVE,60619.0,,,9.0,6.0,49.0,,41.723300254993575,-87.61674651461867,"(41.72330025499357, -87.61674651461865)",2015-10-04
110155,10/04/2015,Completed,10/13/2015,15-05248951,Abandoned Vehicle Complaint,GHG704,Volvo,Black,FVI - Outcome,Vehicle was moved from original address requested,60.0,3400 W BLOOMINGDALE AVE,60647.0,,,26.0,14.0,22.0,,41.91371828783261,-87.71188168612012,"(41.91371828783261, -87.71188168612012)",2015-10-04
110156,10/04/2015,Completed,10/13/2015,15-05249070,Abandoned Vehicle Complaint,976186I,Dodge,Green,FVI - Outcome,Vehicle was moved from original address requested,10.0,5400 S TALMAN AVE,60632.0,,,14.0,9.0,63.0,,41.795488258416206,-87.69033912364345,"(41.79548825841621, -87.69033912364345)",2015-10-04
110157,10/04/2015,Completed,10/13/2015,15-05249071,Abandoned Vehicle Complaint,E528559,Volvo,Black,FVI - Outcome,Vehicle was moved from original address requested,10.0,5400 S TALMAN AVE,60632.0,,,14.0,9.0,63.0,,41.795488258416206,-87.69033912364345,"(41.79548825841621, -87.69033912364345)",2015-10-04
110158,10/04/2015,Completed,10/13/2015,15-05250040,Abandoned Vehicle Complaint,CJM462,Range Rover of North America,Silver,FVI - Outcome,Vehicle was moved from original address requested,70.0,3158 N HUDSON AVE,60657.0,,,44.0,19.0,6.0,,41.93946686281699,-87.64105542846025,"(41.93946686281699, -87.64105542846025)",2015-10-04
110159,10/04/2015,Completed,10/13/2015,15-05250044,Abandoned Vehicle Complaint,CJM462,Range Rover of North America,Silver,FVI - Outcome,Vehicle was moved from original address requested,75.0,3160 N HUDSON AVE,60657.0,,,44.0,19.0,6.0,,41.93952486263365,-87.64105842994205,"(41.939524862633654, -87.64105842994206)",2015-10-04
110160,10/05/2015,Completed,10/13/2015,15-05251654,Abandoned Vehicle Complaint,T438707,Chevrolet,Red,FVI - Outcome,Vehicle was moved from original address requested,12.0,1350 W FLETCHER ST,60657.0,,,32.0,19.0,6.0,27.0,41.938976487865865,-87.6632240503205,"(41.93897648786587, -87.6632240503205)",2015-10-05
110161,10/05/2015,Completed,10/13/2015,15-05252101,Abandoned Vehicle Complaint,1382494,Chevrolet,Black,FVI - Outcome,Vehicle was moved from original address requested,35.0,2423 N KILDARE AVE,60639.0,,,31.0,25.0,20.0,,41.92511294223245,-87.73399297577872,"(41.92511294223245, -87.73399297577872)",2015-10-05
110162,10/05/2015,Completed,10/13/2015,15-05253589,Abandoned Vehicle Complaint,271S596,Pontiac,Silver,FVI - Outcome,Vehicle was moved from original address requested,30.0,7914 S MOZART ST,60652.0,,,18.0,8.0,70.0,,41.749353404054105,-87.6939777808404,"(41.749353404054105, -87.69397778084041)",2015-10-05
110163,10/05/2015,Completed,10/13/2015,15-05253722,Abandoned Vehicle Complaint,S901738,Pontiac,Silver,FVI - Outcome,Vehicle was moved from original address requested,30.0,7915 S CALIFORNIA AVE,60652.0,,,18.0,8.0,70.0,,41.74939735766197,-87.69246581465704,"(41.74939735766197, -87.69246581465704)",2015-10-05
110164,10/05/2015,Completed,10/13/2015,15-05254377,Abandoned Vehicle Complaint,JANIS85,Chevrolet,Blue,FVI - Outcome,Return to Owner - Vehicle,14.0,2939 N NEWLAND AVE,60634.0,1129575.69001244,1918864.59002766,36.0,25.0,18.0,,41.93380367980137,-87.79909287748337,"(41.933803679801365, -87.79909287748337)",2015-10-05
110165,10/05/2015,Completed,10/13/2015,15-05256001,Abandoned Vehicle Complaint,81142K,,White,FVI - Outcome,Vehicle was moved from original address requested,15.0,2702 S LOOMIS ST,60608.0,,,11.0,9.0,60.0,,41.844500752091676,-87.66017320940745,"(41.844500752091676, -87.66017320940743)",2015-10-05
110166,10/05/2015,Completed,10/13/2015,15-05256239,Abandoned Vehicle Complaint,N125388,Volkswagen,Gray,FVI - Outcome,Vehicle was moved from original address requested,21.0,1642 N WHIPPLE ST,60647.0,,,26.0,14.0,23.0,,41.91143117125815,-87.70356187743549,"(41.91143117125816, -87.70356187743548)",2015-10-05
110167,10/05/2015,Completed,10/13/2015,15-05258158,Abandoned Vehicle Complaint,S67 9389,Honda,Black,FVI - Outcome,Return to Owner - Vehicle,18.0,3043 S THROOP ST,60608.0,,,11.0,9.0,60.0,,41.8387825677437,-87.64990536040173,"(41.8387825677437, -87.64990536040173)",2015-10-05
110168,10/05/2015,Completed,10/13/2015,15-05258358,Abandoned Vehicle Complaint,P732175,Dodge,Black,FVI - Outcome,Vehicle was moved from original address requested,7.0,3551 W 85TH ST,60652.0,,,18.0,8.0,70.0,,41.73859618928435,-87.71126430629481,"(41.73859618928435, -87.71126430629481)",2015-10-05
110169,10/05/2015,Completed,10/13/2015,15-05259050,Abandoned Vehicle Complaint,V761289,Nissan,Black,FVI - Outcome,Vehicle was moved from original address requested,60.0,5 E 72ND ST,60619.0,,,6.0,3.0,69.0,,41.76358999873567,-87.62460438151594,"(41.76358999873567, -87.62460438151594)",2015-10-05
110171,10/05/2015,Completed,10/13/2015,15-05262412,Abandoned Vehicle Complaint,S578057,Legacy Unknown,Black,FVI - Outcome,Vehicle was moved from original address requested,20.0,13119 S MANISTEE AVE,60633.0,,,10.0,4.0,55.0,,41.65678416586345,-87.55549410192484,"(41.656784165863456, -87.55549410192484)",2015-10-05
110172,10/02/2015,Completed,10/13/2015,15-05214061,Abandoned Vehicle Complaint,7788988,Chevrolet,Green,FVI - Outcome,Return to Owner - Vehicle,7.0,3829 W 56TH ST,60629.0,1151797.95870227,1867197.42328205,23.0,8.0,62.0,,41.79134494101604,-87.71939368916254,"(41.79134494101605, -87.71939368916253)",2015-10-02
110174,10/01/2015,Completed,10/13/2015,15-05193836,Abandoned Vehicle Complaint,E118310,Dodge,Gray,FVI - Outcome,Return to Owner - Vehicle,60.0,9939 S PERRY AVE,60628.0,,,9.0,5.0,49.0,,41.71325329958553,-87.62590470857675,"(41.71325329958553, -87.62590470857675)",2015-10-01
110175,10/01/2015,Completed,10/13/2015,15-05197793,Abandoned Vehicle Complaint,NONE,Nissan,Black,FVI - Outcome,Vehicle was moved from original address requested,2.0,5341 W WELLINGTON AVE,60641.0,,,31.0,25.0,19.0,,41.934890262247905,-87.76064851390886,"(41.93489026224791, -87.76064851390886)",2015-10-01
110176,10/01/2015,Completed,10/13/2015,15-05198744,Abandoned Vehicle Complaint,E697544,Ford,Black,FVI - Outcome,Vehicle was moved from original address requested,14.0,2807 N MCVICKER AVE,60634.0,,,30.0,25.0,19.0,,41.93138618106428,-87.77704310206856,"(41.93138618106428, -87.77704310206856)",2015-10-01
110189,10/14/2015,Completed,10/14/2015,15-05366471,Abandoned Vehicle Complaint,K771041,Dodge,Silver,FVI - Outcome,Vehicle was moved from original address requested,1.0,3651 W 30TH ST,60623.0,,,22.0,10.0,30.0,,41.83874429218021,-87.71667930154331,"(41.83874429218021, -87.71667930154332)",2015-10-14
110190,10/14/2015,Completed - Dup,10/14/2015,15-05366528,Abandoned Vehicle Complaint,E894072,Mazda,Red,FVI - Outcome,Create Work Order,30.0,3311 W 84TH PL,60652.0,1155781.80217692,1848368.40959606,18.0,8.0,70.0,,41.739598828877504,-87.70504989891447,"(41.73959882887751, -87.70504989891447)",2015-10-14
110191,10/14/2015,Completed - Dup,10/14/2015,15-05366875,Abandoned Vehicle Complaint,R140239,Mitsubishi,Burgundy,FVI - Outcome,Create Work Order,15.0,4244 N MONITOR AVE,60634.0,1136586.26267029,1927623.06261345,38.0,16.0,15.0,,41.95808495114589,-87.77342538011563,"(41.958084951145885, -87.77342538011563)",2015-10-14
110192,10/14/2015,Completed - Dup,10/14/2015,15-05367138,Abandoned Vehicle Complaint,E357535,Nissan,Gray,FVI - Outcome,Create Work Order,28.0,1820 W 22ND PL,60608.0,1164587.03009008,1889158.53997647,25.0,10.0,31.0,,41.851568912849366,-87.67183028488617,"(41.851568912849366, -87.67183028488617)",2015-10-14
110193,10/14/2015,Completed - Dup,10/14/2015,15-05367587,Abandoned Vehicle Complaint, 3374459,Chrysler,Blue,FVI - Outcome,Create Work Order,60.0,2545 S ELEANOR ST,60608.0,1168396.49542331,1887229.95159821,11.0,9.0,60.0,,41.845618110325745,-87.6581347063451,"(41.84561811032574, -87.6581347063451)",2015-10-14
110194,10/14/2015,Completed - Dup,10/14/2015,15-05368738,Abandoned Vehicle Complaint,NEW YORK  FPJ9621,Chevrolet,White,FVI - Outcome,Create Work Order,24.0,2233 N DAYTON ST,60614.0,1170249.92600069,1915055.20100131,43.0,18.0,7.0,,41.922794536184114,-87.64973618929457,"(41.92279453618411, -87.64973618929457)",2015-10-14
110195,10/14/2015,Completed - Dup,10/14/2015,15-05369071,Abandoned Vehicle Complaint,L702832,Dodge,Burgundy,FVI - Outcome,Create Work Order,30.0,8045 S DORCHESTER AVE,60619.0,1186938.26041049,1851923.15967693,8.0,4.0,45.0,,41.74827988977925,-87.59040107034794,"(41.74827988977925, -87.59040107034794)",2015-10-14
110196,10/13/2015,Completed - Dup,10/14/2015,15-05355910,Abandoned Vehicle Complaint,1535702,Dodge,Black,FVI - Outcome,Create Work Order,28.0,3051 W ROSCOE ST,60618.0,1155350.88009728,1922357.00007351,33.0,17.0,21.0,,41.942640925509856,-87.70489223969463,"(41.942640925509856, -87.70489223969463)",2015-10-13
110197,10/13/2015,Completed - Dup,10/14/2015,15-05356393,Abandoned Vehicle Complaint,HAS PLATES,Ford,Blue,FVI - Outcome,Create Work Order,30.0,1317 W GRANVILLE AVE,60660.0,1166307.12001164,1941304.13912383,48.0,24.0,77.0,,41.99440784660619,-87.66357592123016,"(41.99440784660619, -87.66357592123016)",2015-10-13
110198,10/13/2015,Completed - Dup,10/14/2015,15-05357012,Abandoned Vehicle Complaint,,,,,,,320 E WACKER DR,60601.0,1178536.83527485,1902541.02051375,42.0,1.0,32.0,,41.88796398404736,-87.61969589496262,"(41.88796398404736, -87.61969589496263)",2015-10-13
110199,10/13/2015,Completed - Dup,10/14/2015,15-05357024,Abandoned Vehicle Complaint,HAS PLATES,Ford,Red,FVI - Outcome,Create Work Order,30.0,7316 S CONSTANCE AVE,60649.0,1189639.32156941,1856825.8928051998,8.0,3.0,43.0,,41.76192404143821,-87.58064431965711,"(41.761924041438206, -87.58064431965711)",2015-10-13
110200,10/13/2015,Completed - Dup,10/14/2015,15-05357205,Abandoned Vehicle Complaint,,,,,,,322 E WACKER DR,60601.0,1178562.73527485,1902539.12051375,42.0,1.0,32.0,,41.88795891724345,-87.61960733992628,"(41.887958917243445, -87.61960733992628)",2015-10-13
110201,10/13/2015,Completed - Dup,10/14/2015,15-05357530,Abandoned Vehicle Complaint,1085294,Chevrolet,Silver,FVI - Outcome,Create Work Order,10.0,7218 W PRATT AVE,60631.0,1127188.510022,1944650.87397618,41.0,16.0,9.0,,42.00455822123145,-87.80749118531747,"(42.004558221231456, -87.80749118531747)",2015-10-13
110202,10/13/2015,Completed - Dup,10/14/2015,15-05358121,Abandoned Vehicle Complaint,V765439,Saturn,Black,FVI - Outcome,Create Work Order,21.0,3737 W 24TH ST,60623.0,1151727.46441346,1887799.42092396,22.0,10.0,30.0,,41.84788451085107,-87.71878228202381,"(41.847884510851074, -87.71878228202382)",2015-10-13
110203,10/13/2015,Completed - Dup,10/14/2015,15-05358686,Abandoned Vehicle Complaint,2934156,Legacy Unknown,Burgundy,FVI - Outcome,Create Work Order,14.0,7222 S CORNELL AVE,60649.0,1188484.56407395,1857423.15183176,7.0,3.0,43.0,42.0,41.763530746186575,-87.58485583008014,"(41.763530746186575, -87.58485583008016)",2015-10-13
110204,10/13/2015,Completed - Dup,10/14/2015,15-05360959,Abandoned Vehicle Complaint,E476165,Pontiac,Unknown,FVI - Outcome,Create Work Order,18.0,4922 W BELDEN AVE,60639.0,1143096.83009818,1914846.97727558,36.0,25.0,19.0,,41.9224932349091,-87.74964544847178,"(41.9224932349091, -87.74964544847177)",2015-10-13
110205,10/13/2015,Completed - Dup,10/14/2015,15-05360982,Abandoned Vehicle Complaint,CALIFORNIA 7GYR756,Honda,Blue,FVI - Outcome,Create Work Order,5.0,4243 N LINCOLN AVE,60618.0,1161401.61880895,1928248.75939018,47.0,19.0,5.0,38.0,41.95894228986967,-87.6819497564818,"(41.95894228986967, -87.6819497564818)",2015-10-13
110206,10/13/2015,Completed - Dup,10/14/2015,15-05360996,Abandoned Vehicle Complaint,V454450,Ford,Gray,FVI - Outcome,Create Work Order,21.0,9327 S UNION AVE,60620.0,1173279.17316668,1843013.10712353,21.0,22.0,73.0,,41.7243190389196,-87.64071835169487,"(41.724319038919596, -87.64071835169487)",2015-10-13
110207,10/13/2015,Completed - Dup,10/14/2015,15-05363036,Abandoned Vehicle Complaint,R987488,Dodge,Red,FVI - Outcome,Create Work Order,180.0,1811 N NAGLE AVE,60707.0,1133020.59901818,1911344.76711562,29.0,25.0,25.0,,41.91312849301274,-87.78661011436061,"(41.91312849301274, -87.78661011436061)",2015-10-13
110208,10/13/2015,Completed - Dup,10/14/2015,15-05363506,Abandoned Vehicle Complaint,V765439,Saturn,Black,,,21.0,3737 W 24TH ST,60623.0,1151727.46441346,1887799.42092396,22.0,10.0,30.0,,41.84788451085107,-87.71878228202381,"(41.847884510851074, -87.71878228202382)",2015-10-13
110209,10/13/2015,Completed - Dup,10/14/2015,15-05363690,Abandoned Vehicle Complaint,E169085,Ford,Red,FVI - Outcome,Create Work Order,30.0,7025 N WASHTENAW AVE,60645.0,1157088.99611133,1946598.31288482,50.0,24.0,2.0,,42.00930486578376,-87.69722006691799,"(42.009304865783754, -87.69722006691798)",2015-10-13
110210,10/13/2015,Completed - Dup,10/14/2015,15-05363707,Abandoned Vehicle Complaint,R508659,Infiniti/M30,White,FVI - Outcome,Create Work Order,30.0,5634 W MONTROSE AVE,60634.0,1137862.99987848,1928690.05239807,38.0,16.0,15.0,,41.96057406615407,-87.76869100218514,"(41.96057406615407, -87.76869100218514)",2015-10-13
110211,10/13/2015,Completed - Dup,10/14/2015,15-05364600,Abandoned Vehicle Complaint,UNK,,Yellow,FVI - Outcome,Create Work Order,30.0,4525 W FIFTH AVE,60624.0,1146237.46987278,1895535.62312473,24.0,11.0,29.0,,41.869231873708685,-87.73853378123262,"(41.869231873708685, -87.73853378123262)",2015-10-13
110212,10/13/2015,Completed - Dup,10/14/2015,15-05364635,Abandoned Vehicle Complaint,N860144,Toyota,Black,FVI - Outcome,Create Work Order,30.0,2513 N MANGO AVE,60639.0,1137627.79019364,1916123.40951781,30.0,25.0,19.0,,41.92618101261309,-87.76956846454858,"(41.926181012613085, -87.7695684645486)",2015-10-13
110213,10/13/2015,Completed - Dup,10/14/2015,15-05364677,Abandoned Vehicle Complaint,UNKNOWN,(Unlisted Make),White,FVI - Outcome,Create Work Order,14.0,2244 N MAGNOLIA AVE,60614.0,1167607.58378197,1915052.90527488,43.0,18.0,7.0,,41.92297470200127,-87.65974093105358,"(41.92297470200127, -87.65974093105358)",2015-10-13
110214,10/13/2015,Completed,10/14/2015,15-05362301,Abandoned Vehicle Complaint,MISSING PLATES AND STICKER,Volkswagen,Black,FVI - Outcome,Vehicle was moved from original address requested,60.0,4109 W MAYPOLE AVE,60624.0,,,28.0,11.0,26.0,,41.8845354929416,-87.72866081201876,"(41.8845354929416, -87.72866081201877)",2015-10-13
110215,10/13/2015,Completed,10/14/2015,15-05363045,Abandoned Vehicle Complaint,413LVV,Honda,Black,FVI - Outcome,Return to Owner - Vehicle,30.0,10347 S GREEN BAY AVE,60617.0,,,10.0,4.0,52.0,,41.70682259465101,-87.5411942468186,"(41.70682259465101, -87.5411942468186)",2015-10-13
110216,10/13/2015,Completed,10/14/2015,15-05365125,Abandoned Vehicle Complaint,R654270,Chevrolet,Silver,FVI - Outcome,Vehicle was moved from original address requested,6.0,6220 S KILBOURN AVE,60629.0,,,13.0,8.0,65.0,3.0,41.779679253304174,-87.73514795658932,"(41.77967925330417, -87.73514795658932)",2015-10-13
110217,10/13/2015,Completed,10/14/2015,15-05365493,Abandoned Vehicle Complaint,L722692,Chevrolet,Blue,FVI - Outcome,Vehicle was moved from original address requested,14.0,3842 S UNION AVE,60609.0,,,11.0,9.0,60.0,,41.82403335312365,-87.64365209001943,"(41.82403335312365, -87.64365209001944)",2015-10-13
110218,10/12/2015,Completed,10/14/2015,15-05350757,Abandoned Vehicle Complaint,K833717,Toyota,Tan,FVI - Outcome,Vehicle was moved from original address requested,10.0,2153 W RACE AVE,60612.0,,,26.0,12.0,24.0,,41.89136156082796,-87.68146933259045,"(41.89136156082796, -87.68146933259045)",2015-10-12
110219,10/12/2015,Completed,10/14/2015,15-05350974,Abandoned Vehicle Complaint,E441404,Chevrolet,Gold,FVI - Outcome,Vehicle was moved from original address requested,14.0,3735 W 54TH ST,60632.0,,,23.0,8.0,62.0,,41.795029001720856,-87.71722814386942,"(41.795029001720856, -87.71722814386942)",2015-10-12
110220,10/12/2015,Completed,10/14/2015,15-05351949,Abandoned Vehicle Complaint,K833713,Toyota,Tan,FVI - Outcome,Vehicle was moved from original address requested,30.0,2151 W RACE AVE,60612.0,,,26.0,12.0,24.0,,41.8913629486806,-87.68139321686874,"(41.8913629486806, -87.68139321686873)",2015-10-12
110221,10/12/2015,Completed,10/14/2015,15-05354416,Abandoned Vehicle Complaint,112MDP,Dodge,Maroon,FVI - Outcome,Return to Owner - Vehicle,7.0,13327 S COMMERCIAL AVE,60633.0,,,10.0,4.0,55.0,,41.652888974630365,-87.55064412032516,"(41.65288897463037, -87.55064412032517)",2015-10-12
110222,10/12/2015,Completed,10/14/2015,15-05354462,Abandoned Vehicle Complaint,1636741,Ford,White,FVI - Outcome,Return to Owner - Vehicle,7.0,6417 S KEELER AVE,60629.0,,,13.0,8.0,65.0,,41.7762369419213,-87.7274338619924,"(41.7762369419213, -87.72743386199241)",2015-10-12
110223,10/12/2015,Completed,10/14/2015,15-05354704,Abandoned Vehicle Complaint,0,Chevrolet,Blue,FVI - Outcome,Vehicle was moved from original address requested,9.0,6005 S KOLIN AVE,60629.0,,,13.0,8.0,65.0,,41.78382363725396,-87.73131566004339,"(41.78382363725396, -87.73131566004339)",2015-10-12
110224,10/11/2015,Completed - Dup,10/14/2015,15-05347716,Abandoned Vehicle Complaint,L702882,Dodge,Burgundy,FVI - Outcome,Create Work Order,30.0,8045 S DORCHESTER AVE,60619.0,1186938.26041049,1851923.15967693,8.0,4.0,45.0,,41.74827988977925,-87.59040107034794,"(41.74827988977925, -87.59040107034794)",2015-10-11
110225,10/11/2015,Completed - Dup,10/14/2015,15-05348484,Abandoned Vehicle Complaint,NEW YORK   FPJ9621,Chevrolet,White,FVI - Outcome,Create Work Order,20.0,2229 N DAYTON ST,60614.0,1170250.82600069,1915028.40100131,43.0,18.0,7.0,,41.92268175440103,-87.64973219877325,"(41.922681754401026, -87.64973219877325)",2015-10-11
110226,10/11/2015,Completed,10/14/2015,15-05346841,Abandoned Vehicle Complaint,3692,Ford,Green,FVI - Outcome,Return to Owner - Vehicle,21.0,11427 S WESTERN AVE,60643.0,,,19.0,22.0,75.0,,41.68537669220179,-87.68080938197025,"(41.6853766922018, -87.68080938197025)",2015-10-11
110227,10/11/2015,Completed,10/14/2015,15-05347384,Abandoned Vehicle Complaint,415S041,Nissan,Gray,FVI - Outcome,Vehicle was moved from original address requested,8.0,3822 W 64TH ST,60629.0,,,23.0,8.0,65.0,,41.77699431564254,-87.71877044291998,"(41.77699431564254, -87.71877044291998)",2015-10-11
110228,10/11/2015,Completed,10/14/2015,15-05348032,Abandoned Vehicle Complaint,001319302,Ford,Gray,FVI - Outcome,Vehicle was moved from original address requested,3.0,5507 S KENNETH AVE,60629.0,,,13.0,8.0,62.0,,41.79285285248207,-87.734035482222,"(41.79285285248207, -87.734035482222)",2015-10-11
110229,10/12/2015,Completed - Dup,10/14/2015,15-05350405,Abandoned Vehicle Complaint,361MYM- WISCONSIN,Chevrolet,Silver,FVI - Outcome,Create Work Order,15.0,6810 N OZARK AVE,60631.0,1123531.95337919,1944629.57729184,41.0,16.0,9.0,,42.00470733255005,-87.82079546861306,"(42.00470733255005, -87.82079546861304)",2015-10-12
110230,10/12/2015,Completed - Dup,10/14/2015,15-05351051,Abandoned Vehicle Complaint,Y930991,Legacy Unknown,White,FVI - Outcome,Create Work Order,21.0,6154 W GRACE ST,60634.0,1134659.95708732,1924624.33181826,38.0,16.0,17.0,,41.949465544572725,-87.78125164602395,"(41.949465544572725, -87.78125164602393)",2015-10-12
110231,10/12/2015,Completed - Dup,10/14/2015,15-05351438,Abandoned Vehicle Complaint,H681741,Acura,Black,FVI - Outcome,Create Work Order,10.0,12920 S CARONDOLET AVE,60633.0,1198421.92352571,1819894.80107447,10.0,4.0,55.0,,41.66032917919994,-87.54969393683271,"(41.66032917919994, -87.54969393683272)",2015-10-12
110232,10/12/2015,Completed - Dup,10/14/2015,15-05351943,Abandoned Vehicle Complaint,217NXB,Lexus,Black,FVI - Outcome,Create Work Order,30.0,2147 W RACE AVE,60612.0,1161990.29150887,1903723.98762957,26.0,12.0,24.0,,41.89136573329763,-87.68124096495106,"(41.89136573329763, -87.68124096495106)",2015-10-12
110233,10/09/2015,Completed,10/14/2015,15-05340398,Abandoned Vehicle Complaint,E594622,Dodge,Silver,FVI - Outcome,Need Vehicle Tow Report,7.0,4348 W ADAMS ST,60624.0,,,28.0,11.0,26.0,,41.877975528114675,-87.73487985314547,"(41.87797552811467, -87.73487985314547)",2015-10-09
110234,10/12/2015,Completed - Dup,10/14/2015,15-05351946,Abandoned Vehicle Complaint,A150393,Jeep - Year Greater 1988,Black,FVI - Outcome,Create Work Order,30.0,2146 W RACE AVE,60612.0,1161997.09150887,1903724.28762957,26.0,12.0,24.0,,41.89158520013728,-87.68124817343376,"(41.89158520013728, -87.68124817343376)",2015-10-12
110235,10/12/2015,Completed - Dup,10/14/2015,15-05352238,Abandoned Vehicle Complaint,8846067,Hyundai,Yellow,FVI - Outcome,Create Work Order,60.0,2132 N ST LOUIS AVE,60647.0,1152913.95489758,1914079.55967767,35.0,14.0,22.0,,41.92016447187334,-87.71374381463791,"(41.92016447187334, -87.71374381463791)",2015-10-12
110236,10/12/2015,Completed - Dup,10/14/2015,15-05352306,Abandoned Vehicle Complaint,BLC088,Pontiac,Black,FVI - Outcome,Create Work Order,90.0,4243 N LINCOLN AVE,60618.0,1161401.61880895,1928248.75939018,47.0,19.0,5.0,38.0,41.95894228986967,-87.6819497564818,"(41.95894228986967, -87.6819497564818)",2015-10-12
110237,10/12/2015,Completed - Dup,10/14/2015,15-05352838,Abandoned Vehicle Complaint,P883739,Ford,Blue,FVI - Outcome,Create Work Order,21.0,2901 N MAJOR AVE,60634.0,1137875.00529572,1918712.18243084,31.0,25.0,19.0,,41.933161702806075,-87.76859418783529,"(41.933161702806075, -87.7685941878353)",2015-10-12
110238,10/12/2015,Completed - Dup,10/14/2015,15-05352959,Abandoned Vehicle Complaint,E476165,Pontiac,Gray,FVI - Outcome,Create Work Order,90.0,4924 W BELDEN AVE,60639.0,1143073.63009818,1914846.47727558,36.0,25.0,19.0,,41.92249238032908,-87.74972492834104,"(41.92249238032908, -87.74972492834104)",2015-10-12
110239,10/12/2015,Completed - Dup,10/14/2015,15-05352984,Abandoned Vehicle Complaint,A795309,Acura,Beige,FVI - Outcome,Create Work Order,90.0,4924 W BELDEN AVE,60639.0,1143073.63009818,1914846.47727558,36.0,25.0,19.0,,41.92249238032908,-87.74972492834104,"(41.92249238032908, -87.74972492834104)",2015-10-12
110240,10/12/2015,Completed - Dup,10/14/2015,15-05353526,Abandoned Vehicle Complaint,TNO 186,Chevrolet,Red,FVI - Outcome,Create Work Order,30.0,6443 N NEWGARD AVE,60626.0,1165434.0498823998,1942900.51438757,49.0,24.0,1.0,26.0,41.99940888268916,-87.66663716505829,"(41.99940888268916, -87.66663716505828)",2015-10-12
110241,10/12/2015,Completed - Dup,10/14/2015,15-05353550,Abandoned Vehicle Complaint,R983722,Honda,Green,FVI - Outcome,Create Work Order,30.0,5278 N LUNA AVE,60630.0,1138180.22300815,1934766.54067872,45.0,16.0,11.0,,41.97685369117095,-87.76738102914587,"(41.976853691170945, -87.76738102914588)",2015-10-12
110242,10/12/2015,Completed - Dup,10/14/2015,15-05354543,Abandoned Vehicle Complaint,",",Cadillac,Black,FVI - Outcome,Create Work Order,60.0,1300 S FAIRFIELD AVE,60608.0,1158237.54577374,1893908.41590339,28.0,10.0,29.0,,41.86453524179095,-87.69473017837633,"(41.86453524179095, -87.69473017837633)",2015-10-12
110243,10/12/2015,Completed - Dup,10/14/2015,15-05354797,Abandoned Vehicle Complaint,163602 EN,Dodge,Silver,FVI - Outcome,Create Work Order,21.0,6314 N CLAREMONT AVE,60659.0,1159503.58778683,1941861.01633002,50.0,24.0,2.0,43.0,41.99641535087924,-87.6887687331678,"(41.99641535087924, -87.68876873316779)",2015-10-12
110244,10/12/2015,Completed,10/14/2015,15-05350744,Abandoned Vehicle Complaint,A150393,Jeep - Year Greater 1988,Black,FVI - Outcome,Vehicle was moved from original address requested,30.0,2146 W RACE AVE,60612.0,,,26.0,12.0,24.0,,41.89158520013728,-87.68124817343376,"(41.89158520013728, -87.68124817343376)",2015-10-12
110245,10/10/2015,Completed - Dup,10/14/2015,15-05344353,Abandoned Vehicle Complaint,IL 835 9545,Buick,Burgundy,FVI - Outcome,Create Work Order,14.0,4407 N KOSTNER AVE,60630.0,1146051.58206793,1928924.39183097,39.0,17.0,16.0,,41.96109236223656,-87.73828747316341,"(41.96109236223656, -87.73828747316341)",2015-10-10
110246,10/10/2015,Completed - Dup,10/14/2015,15-05344445,Abandoned Vehicle Complaint,E278978,Mitsubishi,Gray,FVI - Outcome,Create Work Order,7.0,4960 W CULLOM AVE,60641.0,1142438.88821242,1928129.76442974,45.0,16.0,15.0,,41.958948852448074,-87.75219942547344,"(41.95894885244808, -87.75219942547344)",2015-10-10
110247,10/10/2015,Completed - Dup,10/14/2015,15-05345906,Abandoned Vehicle Complaint,038YWW,Ford,Green,FVI - Outcome,Create Work Order,30.0,4243 N LINCOLN AVE,60618.0,1161401.61880895,1928248.75939018,47.0,19.0,5.0,38.0,41.95894228986967,-87.6819497564818,"(41.95894228986967, -87.6819497564818)",2015-10-10
110248,10/10/2015,Completed,10/14/2015,15-05343301,Abandoned Vehicle Complaint,UNKOWN NUMBER,Pontiac,Gray,FVI - Outcome,Vehicle was moved from original address requested,20.0,1851 S LAWNDALE AVE,60623.0,,,24.0,10.0,29.0,,41.855622003004974,-87.7174355375535,"(41.855622003004974, -87.7174355375535)",2015-10-10
110249,10/10/2015,Completed,10/14/2015,15-05343415,Abandoned Vehicle Complaint,1636741,Ford,White,FVI - Outcome,Return to Owner - Vehicle,21.0,6417 S KEELER AVE,60629.0,,,13.0,8.0,65.0,,41.7762369419213,-87.7274338619924,"(41.7762369419213, -87.72743386199241)",2015-10-10
110250,10/10/2015,Completed,10/14/2015,15-05343874,Abandoned Vehicle Complaint,C97814,Legacy Unknown,Blue,FVI - Outcome,Vehicle was moved from original address requested,15.0,146 N CANAL ST,60606.0,,,42.0,1.0,28.0,,41.88450703869902,-87.63994608627945,"(41.88450703869902, -87.63994608627945)",2015-10-10
110251,10/10/2015,Completed,10/14/2015,15-05344301,Abandoned Vehicle Complaint,IL K71 6136,Isuzu,Red,FVI - Outcome,Vehicle was moved from original address requested,20.0,108 N WELLS ST,60606.0,,,42.0,1.0,32.0,,41.88344812317934,-87.63401085636784,"(41.88344812317934, -87.63401085636784)",2015-10-10
110252,10/10/2015,Completed,10/14/2015,15-05344484,Abandoned Vehicle Complaint,NO PLATES,Ford,Green,FVI - Outcome,Vehicle was moved from original address requested,3.0,3918 W 56TH ST,60629.0,,,13.0,8.0,62.0,,41.79153258697781,-87.72146962919027,"(41.791532586977816, -87.72146962919027)",2015-10-10
110253,10/10/2015,Completed,10/14/2015,15-05345241,Abandoned Vehicle Complaint,H681741,Ford,Black,FVI - Outcome,Vehicle was moved from original address requested,5.0,12920 S CARONDOLET AVE,60633.0,,,10.0,4.0,55.0,,41.66032917919994,-87.54969393683271,"(41.66032917919994, -87.54969393683272)",2015-10-10
110255,10/09/2015,Completed,10/14/2015,15-05340580,Abandoned Vehicle Complaint,S893478,Pontiac,Green,FVI - Outcome,Vehicle was moved from original address requested,25.0,10657 S AVENUE D,60617.0,,,10.0,4.0,52.0,,41.7010310399964,-87.52802765028734,"(41.701031039996394, -87.52802765028734)",2015-10-09
110256,10/09/2015,Completed,10/14/2015,15-05341902,Abandoned Vehicle Complaint,N665356,Toyota,Gray,FVI - Outcome,Vehicle was moved from original address requested,7.0,7005 S LAFLIN ST,60636.0,,,17.0,7.0,67.0,,41.76656343333458,-87.66128960988176,"(41.766563433334575, -87.66128960988176)",2015-10-09
110257,10/09/2015,Completed - Dup,10/14/2015,15-05335497,Abandoned Vehicle Complaint,91873S,Chevrolet,Black,FVI - Outcome,Create Work Order,14.0,4816 S KENWOOD AVE,60615.0,1185934.94001414,1873335.83066581,4.0,2.0,39.0,,41.807317052291495,-87.59370405294057,"(41.8073170522915, -87.59370405294057)",2015-10-09
110258,10/09/2015,Completed - Dup,10/14/2015,15-05335653,Abandoned Vehicle Complaint,E169085,Ford,Red,FVI - Outcome,Create Work Order,30.0,7025 N WASHTENAW AVE,60645.0,1157088.99611133,1946598.31288482,50.0,24.0,2.0,,42.00930486578376,-87.69722006691799,"(42.009304865783754, -87.69722006691798)",2015-10-09
110259,10/09/2015,Completed - Dup,10/14/2015,15-05336638,Abandoned Vehicle Complaint,R92 9176,Pontiac,Red,FVI - Outcome,Create Work Order,20.0,4243 N LINCOLN AVE,60618.0,1161401.61880895,1928248.75939018,47.0,19.0,5.0,38.0,41.95894228986967,-87.6819497564818,"(41.95894228986967, -87.6819497564818)",2015-10-09
110260,10/09/2015,Completed - Dup,10/14/2015,15-05336861,Abandoned Vehicle Complaint,S707247,Chevrolet,Black,FVI - Outcome,Create Work Order,32.0,3900 W CORNELIA AVE,60618.0,1149773.78581291,1922984.38201403,30.0,17.0,21.0,,41.94469486983067,-87.7249630270856,"(41.94469486983067, -87.7249630270856)",2015-10-09
110261,10/09/2015,Completed - Dup,10/14/2015,15-05337926,Abandoned Vehicle Complaint,1535702,Dodge,Black,FVI - Outcome,Create Work Order,25.0,3051 W ROSCOE ST,60618.0,1155350.88009728,1922357.00007351,33.0,17.0,21.0,,41.942640925509856,-87.70489223969463,"(41.942640925509856, -87.70489223969463)",2015-10-09
110262,10/09/2015,Completed - Dup,10/14/2015,15-05341370,Abandoned Vehicle Complaint,2448465,Ford,Gold,FVI - Outcome,Create Work Order,30.0,2435 N DRAKE AVE,60647.0,1152303.3999215001,1915959.52319634,35.0,14.0,22.0,,41.92566732518414,-87.71565086679493,"(41.92566732518414, -87.71565086679493)",2015-10-09
110263,10/09/2015,Completed - Dup,10/14/2015,15-05341754,Abandoned Vehicle Complaint,S728486,Toyota,Blue,FVI - Outcome,Create Work Order,28.0,7139 N MASON AVE,60646.0,1136212.4308022,1947144.59002384,41.0,16.0,12.0,,42.01133683721001,-87.77402328923422,"(42.01133683721001, -87.77402328923422)",2015-10-09
110264,10/09/2015,Completed - Dup,10/14/2015,15-05341962,Abandoned Vehicle Complaint,250S726,Suzuki,Black,FVI - Outcome,Create Work Order,39.0,642 S CLARK ST,60605.0,1175621.95003101,1897470.8699983002,4.0,1.0,32.0,,41.873710735982044,-87.63079709547358,"(41.87371073598204, -87.63079709547358)",2015-10-09
110265,10/09/2015,Completed - Dup,10/14/2015,15-05342200,Abandoned Vehicle Complaint,UNKNOWN,Jeep/Cherokee,Gray,FVI - Outcome,Create Work Order,14.0,129 N KILDARE AVE,60624.0,1147707.62889529,1900287.39442319,28.0,11.0,26.0,,41.88300218295267,-87.73295100128996,"(41.88300218295267, -87.73295100128996)",2015-10-09
110266,10/09/2015,Completed,10/14/2015,15-05337344,Abandoned Vehicle Complaint,NONE,(Homemade Trailer),Black,FVI - Outcome,Return to Owner - Vehicle,30.0,13237 S COMMERCIAL AVE,60633.0,,,10.0,4.0,55.0,,41.65440213408763,-87.55063574993873,"(41.65440213408763, -87.55063574993873)",2015-10-09
110267,10/09/2015,Completed,10/14/2015,15-05338847,Abandoned Vehicle Complaint,A150393,Jeep/Cherokee,Black,FVI - Outcome,Vehicle was moved from original address requested,15.0,2144 W RACE AVE,60612.0,,,26.0,12.0,24.0,,41.89158659587718,-87.68117205770668,"(41.89158659587718, -87.68117205770668)",2015-10-09
110268,10/09/2015,Completed,10/14/2015,15-05339095,Abandoned Vehicle Complaint,NO PLATES OR STICKERS,Nissan,Gray,FVI - Outcome,Vehicle was moved from original address requested,35.0,5958 S KILDARE AVE,60629.0,,,13.0,8.0,65.0,,41.78412895202158,-87.7303936752512,"(41.784128952021575, -87.7303936752512)",2015-10-09
110269,10/08/2015,Completed - Dup,10/14/2015,15-05327986,Abandoned Vehicle Complaint,Y859375,Honda,Black,FVI - Outcome,Create Work Order,15.0,4525 N SACRAMENTO AVE,60625.0,1155565.27166594,1929909.19749412,33.0,17.0,14.0,,41.9638100072582,-87.70328871491434,"(41.9638100072582, -87.70328871491435)",2015-10-08
110270,10/08/2015,Completed - Dup,10/14/2015,15-05328688,Abandoned Vehicle Complaint,.,Legacy Unknown,Silver,FVI - Outcome,Create Work Order,9.0,3922 N ORIOLE AVE,60634.0,1124699.27487591,1925207.96968431,38.0,16.0,17.0,,41.95143919975604,-87.81717514072552,"(41.95143919975604, -87.81717514072552)",2015-10-08
110271,10/08/2015,Completed - Dup,10/14/2015,15-05328703,Abandoned Vehicle Complaint,180615,Ford,Red,FVI - Outcome,Create Work Order,30.0,4431 N TROY ST,60625.0,1154586.10157764,1929280.23659605,33.0,17.0,14.0,60.0,41.96213933819478,-87.7069076225947,"(41.96213933819478, -87.70690762259471)",2015-10-08
110272,10/08/2015,Completed - Dup,10/14/2015,15-05329403,Abandoned Vehicle Complaint,1535702,Dodge,Black,FVI - Outcome,Create Work Order,21.0,3051 W ROSCOE ST,60618.0,1155350.88009728,1922357.00007351,33.0,17.0,21.0,,41.942640925509856,-87.70489223969463,"(41.942640925509856, -87.70489223969463)",2015-10-08
110273,10/08/2015,Completed - Dup,10/14/2015,15-05330765,Abandoned Vehicle Complaint,NONE,Ford,Black,FVI - Outcome,Create Work Order,90.0,1901 N KEELER AVE,60639.0,1148085.26849244,1912300.28539453,35.0,25.0,20.0,,41.91537794378824,-87.73123970610935,"(41.91537794378824, -87.73123970610936)",2015-10-08
110274,10/08/2015,Completed - Dup,10/14/2015,15-05331771,Abandoned Vehicle Complaint,WKR739,Pontiac,Maroon,FVI - Outcome,Create Work Order,75.0,6018 N WINTHROP AVE,60660.0,1167771.62820101,1940116.7418060002,48.0,24.0,77.0,26.0,41.99151853312368,-87.65840800691805,"(41.991518533123674, -87.65840800691804)",2015-10-08
110275,10/06/2015,Completed - Dup,10/14/2015,15-05291387,Abandoned Vehicle Complaint,V757875,Ford,Red,FVI - Outcome,Create Work Order,30.0,7227 S CALIFORNIA AVE,60629.0,1158957.30346821,1856593.57527001,18.0,8.0,66.0,14.0,41.761891378866466,-87.69280736496269,"(41.76189137886646, -87.69280736496269)",2015-10-06
110276,10/08/2015,Completed - Dup,10/14/2015,15-05332028,Abandoned Vehicle Complaint,141429,Chevrolet,Unknown,FVI - Outcome,Create Work Order,18.0,5511 W NEWPORT AVE,60641.0,1139010.27373296,1922392.51012352,36.0,16.0,15.0,,41.94305226188026,-87.76470560738008,"(41.94305226188026, -87.76470560738008)",2015-10-08
110277,10/08/2015,Completed - Dup,10/14/2015,15-05333112,Abandoned Vehicle Complaint,2448465,Ford,Gold,FVI - Outcome,Create Work Order,20.0,2435 N DRAKE AVE,60647.0,1152303.3999215001,1915959.52319634,35.0,14.0,22.0,,41.92566732518414,-87.71565086679493,"(41.92566732518414, -87.71565086679493)",2015-10-08
