,Creation Date,Status,Completion Date,Service Request Number,Type of Service Request,Street Address,ZIP Code,X Coordinate,Y Coordinate,Ward,Police District,Community Area,Latitude,Longitude,Location,date
90692,07/01/2014,Completed - Dup,07/01/2014,14-01024361,Alley Light Out,8925 S JEFFERY BLVD,60617.0,1191065.9361102,1846188.09216863,8.0,4.0,48.0,41.73294875755565,-87.57561921322944,"(41.73294875755565, -87.57561921322944)",2014-07-01
90693,07/01/2014,Completed - Dup,07/01/2014,14-01024936,Alley Light Out,916 E 48TH ST,60615.0,1183303.32000871,1873381.51160964,4.0,2.0,39.0,41.80775410465618,-87.6032112371261,"(41.80775410465619, -87.60321123712609)",2014-07-01
90694,07/01/2014,Completed,07/01/2014,14-01022412,Alley Light Out,643 E 74TH ST,60619.0,1181898.95701184,1856093.5400307,6.0,3.0,69.0,41.76034694490764,-87.6088962281059,"(41.76034694490764, -87.6088962281059)",2014-07-01
90712,07/01/2014,Completed - Dup,07/02/2014,14-01028162,Alley Light Out,7540 S GREEN ST,60620.0,1171944.03988778,1854811.77350761,17.0,6.0,71.0,41.75705387525528,-87.64541866650991,"(41.75705387525528, -87.64541866650991)",2014-07-01
90713,07/01/2014,Completed - Dup,07/02/2014,14-01028172,Alley Light Out,5023 W BARRY AVE,60641.0,1142341.23949727,1920144.20902311,31.0,25.0,19.0,41.936933616254464,-87.75228959398979,"(41.93693361625446, -87.7522895939898)",2014-07-01
90714,07/02/2014,Completed,07/02/2014,14-01030193,Alley Light Out,138 E 124TH ST,60628.0,1179470.69503215,1822773.43380891,9.0,5.0,53.0,41.66896797978446,-87.61880922576105,"(41.66896797978446, -87.61880922576105)",2014-07-02
90715,07/02/2014,Completed,07/02/2014,14-01035866,Alley Light Out,4946 W WALTON ST,60651.0,1143208.94501114,1905858.00328345,37.0,15.0,25.0,41.89771458359521,-87.74945807104231,"(41.89771458359521, -87.74945807104231)",2014-07-02
90716,07/02/2014,Completed,07/02/2014,14-01036827,Alley Light Out,2730 E 128TH ST,60633.0,1196410.84781884,1820690.21922416,10.0,4.0,55.0,41.66284924372625,-87.55688079810714,"(41.66284924372625, -87.55688079810714)",2014-07-02
90729,07/02/2014,Completed - Dup,07/03/2014,14-01029696,Alley Light Out,210 E 109TH ST,60628.0,1179623.43417459,1832735.67142883,9.0,5.0,49.0,41.69630233991225,-87.6179474824921,"(41.69630233991225, -87.61794748249211)",2014-07-02
90730,07/02/2014,Completed - Dup,07/03/2014,14-01030168,Alley Light Out,9327 S MAY ST,60620.0,1170294.14391234,1842938.05168692,21.0,22.0,73.0,41.72450678872625,-87.65180988053653,"(41.724506788726245, -87.65180988053653)",2014-07-02
90731,07/02/2014,Completed - Dup,07/03/2014,14-01030636,Alley Light Out,6054 S MICHIGAN AVE,60637.0,1178195.0389843,1864898.51259122,20.0,3.0,40.0,41.78459351325121,-87.62220424430792,"(41.78459351325121, -87.62220424430792)",2014-07-02
90732,07/02/2014,Completed - Dup,07/03/2014,14-01033216,Alley Light Out,2747 W 55TH ST,60632.0,1158902.19292258,1868068.5819124,16.0,8.0,63.0,41.793708705255106,-87.69285332821201,"(41.79370870525511, -87.69285332821202)",2014-07-02
90733,07/02/2014,Completed - Dup,07/03/2014,14-01034881,Alley Light Out,1131 W 112TH ST,60643.0,1170783.0857043,1830527.72538708,34.0,22.0,75.0,41.69044031667014,-87.65037942583362,"(41.69044031667014, -87.65037942583363)",2014-07-02
90734,07/02/2014,Completed - Dup,07/03/2014,14-01035376,Alley Light Out,9123 S DOBSON AVE,60619.0,1184810.28357669,1844701.54701453,8.0,4.0,47.0,41.729018351015746,-87.59858276939512,"(41.72901835101575, -87.59858276939512)",2014-07-02
90735,07/02/2014,Completed - Dup,07/03/2014,14-01035677,Alley Light Out,1131 W 112TH ST,60643.0,1170783.0857043,1830527.72538708,34.0,22.0,75.0,41.69044031667014,-87.65037942583362,"(41.69044031667014, -87.65037942583363)",2014-07-02
90736,07/02/2014,Completed,07/03/2014,14-01032938,Alley Light Out,3711 W 56TH ST,60629.0,1152586.76351849,1867218.7833748,14.0,8.0,62.0,41.791503513404216,-87.71603416273761,"(41.79150351340422, -87.71603416273761)",2014-07-02
90737,07/02/2014,Completed,07/03/2014,14-01035922,Alley Light Out,921 W 20TH PL,60608.0,1170861.28733171,1890354.211284,25.0,12.0,31.0,41.85460975428123,-87.64834864452033,"(41.85460975428123, -87.64834864452031)",2014-07-02
90738,07/03/2014,Completed - Dup,07/03/2014,14-01037500,Alley Light Out,1256 E 96TH PL,60628.0,1186347.66167321,1841233.1799803001,8.0,5.0,50.0,41.719464617296296,-87.59306031046428,"(41.719464617296296, -87.59306031046428)",2014-07-03
90739,07/03/2014,Completed - Dup,07/03/2014,14-01041624,Alley Light Out,6146 S KEATING AVE,60629.0,1145760.05673329,1863433.53259853,13.0,8.0,64.0,41.781247949138425,-87.74116230995472,"(41.78124794913842, -87.74116230995472)",2014-07-03
90740,07/03/2014,Completed - Dup,07/03/2014,14-01041669,Alley Light Out,5824 S AUSTIN AVE,60638.0,1137381.87322439,1865325.87090977,23.0,8.0,56.0,41.78659508960085,-87.77183386284331,"(41.786595089600844, -87.77183386284332)",2014-07-03
90741,07/03/2014,Completed - Dup,07/03/2014,14-01041697,Alley Light Out,5637 W 63RD ST,60638.0,1139801.28012798,1862218.97697374,13.0,8.0,64.0,41.778025523795115,-87.76303842588062,"(41.778025523795115, -87.76303842588062)",2014-07-03
90742,07/03/2014,Completed - Dup,07/03/2014,14-01041707,Alley Light Out,5824 S MERRIMAC AVE,60638.0,1135719.4321951,1865270.37737517,23.0,8.0,56.0,41.78647243607573,-87.77793068967851,"(41.78647243607573, -87.77793068967851)",2014-07-03
90743,07/03/2014,Completed - Dup,07/03/2014,14-01044133,Alley Light Out,9130 S GREENWOOD AVE,60619.0,1185142.09651513,1844663.9525746002,8.0,4.0,47.0,41.72890740885414,-87.59736845009611,"(41.72890740885414, -87.59736845009611)",2014-07-03
90744,07/03/2014,Completed - Dup,07/03/2014,14-01044507,Alley Light Out,5929 W 64TH PL,60638.0,1138002.0227677,1861167.03128674,13.0,8.0,64.0,41.77517134765426,-87.76965997967507,"(41.77517134765426, -87.76965997967507)",2014-07-03
90745,07/03/2014,Completed - Dup,07/03/2014,14-01044896,Alley Light Out,11701 S AVENUE J,60617.0,1202584.27581395,1827993.72667366,10.0,4.0,55.0,41.68273594476307,-87.53404186339797,"(41.682735944763074, -87.53404186339799)",2014-07-03
90746,07/03/2014,Completed,07/03/2014,14-01038053,Alley Light Out,4828 S LA CROSSE AVE,60638.0,1144840.37639471,1872179.09900402,23.0,8.0,56.0,41.80526453247912,-87.74431442923824,"(41.80526453247912, -87.74431442923823)",2014-07-03
90747,07/03/2014,Completed,07/03/2014,14-01043893,Alley Light Out,3559 S LOWE AVE,60609.0,1172548.78342428,1881267.02846643,11.0,9.0,60.0,41.8296366534469,-87.64242318189353,"(41.829636653446904, -87.64242318189355)",2014-07-03
90748,07/03/2014,Completed,07/03/2014,14-01043897,Alley Light Out,3541 S LOWE AVE,60609.0,1172545.70400763,1881375.6636335,11.0,9.0,60.0,41.8299348260862,-87.64243127461478,"(41.829934826086195, -87.64243127461476)",2014-07-03
90749,07/04/2014,Completed,07/04/2014,14-01046284,Alley Light Out,433 N HAMLIN AVE,60624.0,1150979.96890851,1902619.59581156,27.0,11.0,23.0,41.888679389939306,-87.72100059129227,"(41.888679389939306, -87.72100059129227)",2014-07-04
90750,07/03/2014,Completed,07/04/2014,14-01038093,Alley Light Out,5415 N LOTUS AVE,60630.0,1138848.91458016,1935669.77998917,45.0,16.0,11.0,41.97960146215513,-87.76474596563659,"(41.97960146215513, -87.7647459656366)",2014-07-03
90751,07/04/2014,Completed - Dup,07/04/2014,14-01046122,Alley Light Out,5415 N LOTUS AVE,60630.0,1138848.91458016,1935669.77998917,45.0,16.0,11.0,41.97960146215513,-87.76474596563659,"(41.97960146215513, -87.7647459656366)",2014-07-04
90752,07/05/2014,Completed,07/05/2014,14-01047305,Alley Light Out,3334 W BELLE PLAINE AVE,60618.0,1153426.90879765,1927066.73840196,33.0,17.0,16.0,41.955716130801015,-87.71136329046722,"(41.955716130801015, -87.71136329046722)",2014-07-05
90753,07/06/2014,Completed - Dup,07/06/2014,14-01051896,Alley Light Out,6300 S AUSTIN AVE,60638.0,1137494.90422952,1862144.34133169,13.0,8.0,64.0,41.777862371712004,-87.77149564388034,"(41.77786237171201, -87.77149564388034)",2014-07-06
90754,07/06/2014,Completed - Dup,07/06/2014,14-01052045,Alley Light Out,8115 S MARQUETTE AVE,60617.0,1195582.91812452,1851683.43762544,7.0,4.0,46.0,41.74791812200553,-87.55889056035359,"(41.747918122005544, -87.55889056035359)",2014-07-06
90755,07/06/2014,Completed,07/06/2014,14-01049787,Alley Light Out,2512 W 115TH ST,60655.0,1161655.53822047,1828292.78750519,19.0,22.0,75.0,41.68450096777642,-87.6838576980135,"(41.68450096777642, -87.6838576980135)",2014-07-06
90756,07/06/2014,Completed,07/06/2014,14-01049811,Alley Light Out,2251 W NORTH AVE,60647.0,1161019.48217266,1910598.26522818,1.0,14.0,24.0,41.910370986744425,-87.6839098784872,"(41.91037098674443, -87.6839098784872)",2014-07-06
90757,07/06/2014,Completed,07/06/2014,14-01051872,Alley Light Out,11943 S HARVARD AVE,60628.0,1176102.93559492,1825724.25438255,34.0,5.0,53.0,41.67714146402271,-87.63104659294521,"(41.67714146402271, -87.63104659294522)",2014-07-06
90758,07/03/2014,Completed - Dup,07/06/2014,14-01044689,Alley Light Out,8110 S KINGSTON AVE,60617.0,1194589.24351769,1851689.85158812,7.0,4.0,46.0,41.747960206941926,-87.56253141463759,"(41.747960206941926, -87.56253141463758)",2014-07-03
90759,07/07/2014,Completed,07/07/2014,14-01060592,Alley Light Out,4537 N LAWNDALE AVE,60625.0,1150905.78809476,1929899.54291375,33.0,17.0,14.0,41.963539381849436,-87.72055707164343,"(41.963539381849436, -87.72055707164343)",2014-07-07
90760,07/07/2014,Completed,07/07/2014,14-01060612,Alley Light Out,4537 N LAWNDALE AVE,60625.0,1150905.78809476,1929899.54291375,33.0,17.0,14.0,41.963539381849436,-87.72055707164343,"(41.963539381849436, -87.72055707164343)",2014-07-07
90761,07/07/2014,Completed,07/07/2014,14-01061527,Alley Light Out,7746 S EUCLID AVE,60649.0,1190547.2542786002,1853994.36919321,8.0,4.0,43.0,41.754382413610074,-87.57726808847485,"(41.75438241361008, -87.57726808847485)",2014-07-07
90762,07/07/2014,Completed - Dup,07/07/2014,14-01052598,Alley Light Out,6329 S KNOX AVE,60629.0,1146466.43317963,1862232.33408015,13.0,8.0,64.0,41.77793828296417,-87.73860299740616,"(41.777938282964165, -87.73860299740615)",2014-07-07
90763,07/07/2014,Completed - Dup,07/07/2014,14-01053403,Alley Light Out,5006 W ERIE ST,60644.0,1142869.17368732,1903854.98757906,28.0,15.0,25.0,41.892224413553684,-87.75075598334341,"(41.89222441355368, -87.7507559833434)",2014-07-07
90764,07/07/2014,Completed - Dup,07/07/2014,14-01058474,Alley Light Out,5006 W ERIE ST,60644.0,1142869.17368732,1903854.98757906,28.0,15.0,25.0,41.892224413553684,-87.75075598334341,"(41.89222441355368, -87.7507559833434)",2014-07-07
90765,07/07/2014,Completed - Dup,07/07/2014,14-01058969,Alley Light Out,8011 S OGLESBY AVE,60617.0,1193249.93061996,1852310.21590873,7.0,4.0,46.0,41.74969535680713,-87.56741875547287,"(41.74969535680713, -87.56741875547287)",2014-07-07
90766,07/07/2014,Completed - Dup,07/07/2014,14-01060047,Alley Light Out,6657 S KNOX AVE,60629.0,1146526.10001812,1860054.0705915,13.0,8.0,64.0,41.77195962940417,-87.73843949373156,"(41.77195962940417, -87.73843949373156)",2014-07-07
90767,07/07/2014,Completed - Dup,07/07/2014,14-01060094,Alley Light Out,6135 S TRIPP AVE,60629.0,1149090.38161377,1863579.13993047,13.0,8.0,65.0,41.78158393416894,-87.72894868538532,"(41.781583934168935, -87.72894868538533)",2014-07-07
90768,07/07/2014,Completed - Dup,07/07/2014,14-01060174,Alley Light Out,8314 S BURLEY AVE,60617.0,1199256.39503056,1850462.80381815,10.0,4.0,46.0,41.7444770999216,-87.54547104231419,"(41.7444770999216, -87.54547104231418)",2014-07-07
90769,07/07/2014,Completed - Dup,07/07/2014,14-01060640,Alley Light Out,5911 W ERIE ST,60644.0,1136947.62177059,1903699.89127956,29.0,15.0,25.0,41.891907078424794,-87.77250738875665,"(41.8919070784248, -87.77250738875665)",2014-07-07
90770,07/07/2014,Completed,07/07/2014,14-01053691,Alley Light Out,8414 S KEDZIE AVE,60652.0,1156514.37531247,1848572.41758634,18.0,8.0,70.0,41.74025673046695,-87.70213399118093,"(41.74025673046695, -87.70213399118094)",2014-07-07
90771,07/07/2014,Completed,07/07/2014,14-01054549,Alley Light Out,1674 W HOLLYWOOD AVE,60660.0,1163982.59522631,1937846.22989757,40.0,20.0,77.0,41.9850787009529,-87.67225250209542,"(41.9850787009529, -87.6722525020954)",2014-07-07
90772,07/07/2014,Completed,07/07/2014,14-01055549,Alley Light Out,6609 S EVANS AVE,60637.0,1182355.5299674,1861354.56911215,20.0,3.0,42.0,41.7747731658251,-87.60706008021927,"(41.7747731658251, -87.60706008021927)",2014-07-07
90773,07/07/2014,Completed,07/07/2014,14-01056935,Alley Light Out,7955 S ALBANY AVE,60652.0,1157094.41262198,1851682.76366795,18.0,8.0,70.0,41.748780332268076,-87.69992489817746,"(41.74878033226808, -87.69992489817746)",2014-07-07
90774,07/07/2014,Completed,07/07/2014,14-01057362,Alley Light Out,11214 S AVENUE G,60617.0,1203203.19740249,1831219.3142178,10.0,4.0,52.0,41.69157146542671,-87.5316664118721,"(41.69157146542671, -87.53166641187211)",2014-07-07
90775,07/07/2014,Completed,07/07/2014,14-01057364,Alley Light Out,11214 S AVENUE G,60617.0,1203203.19740249,1831219.3142178,10.0,4.0,52.0,41.69157146542671,-87.5316664118721,"(41.69157146542671, -87.53166641187211)",2014-07-07
90776,07/07/2014,Completed,07/07/2014,14-01057387,Alley Light Out,6261 N HARLEM AVE,60631.0,1127373.75178136,1941155.82998242,41.0,16.0,10.0,41.994856984710324,-87.80682375542902,"(41.99485698471032, -87.80682375542902)",2014-07-07
90777,07/07/2014,Completed,07/07/2014,14-01057399,Alley Light Out,11008 S AVENUE G,60617.0,1203191.58050278,1832580.73650582,10.0,4.0,52.0,41.69530762213142,-87.53166255277748,"(41.69530762213142, -87.53166255277748)",2014-07-07
90778,07/07/2014,Completed,07/07/2014,14-01057400,Alley Light Out,11008 S AVENUE G,60617.0,1203191.58050278,1832580.73650582,10.0,4.0,52.0,41.69530762213142,-87.53166255277748,"(41.69530762213142, -87.53166255277748)",2014-07-07
90779,07/07/2014,Completed,07/07/2014,14-01057432,Alley Light Out,11022 S AVENUE H,60617.0,1202863.00052542,1832486.46340151,10.0,4.0,52.0,41.69505731446189,-87.53286876719513,"(41.69505731446189, -87.53286876719513)",2014-07-07
90780,07/07/2014,Completed,07/07/2014,14-01057433,Alley Light Out,11022 S AVENUE H,60617.0,1202863.00052542,1832486.46340151,10.0,4.0,52.0,41.69505731446189,-87.53286876719513,"(41.69505731446189, -87.53286876719513)",2014-07-07
90781,07/07/2014,Completed,07/07/2014,14-01057446,Alley Light Out,6101 N NORTHWEST HWY,60631.0,1129494.55281631,1940258.49936963,41.0,16.0,10.0,41.99235858019276,-87.79904288126998,"(41.99235858019276, -87.79904288127)",2014-07-07
90782,07/07/2014,Completed,07/07/2014,14-01057461,Alley Light Out,11057 S EWING AVE,60617.0,1202206.00019162,1832251.96569639,10.0,4.0,52.0,41.694430561849416,-87.5352821428889,"(41.694430561849416, -87.5352821428889)",2014-07-07
90783,07/07/2014,Completed,07/07/2014,14-01057462,Alley Light Out,11057 S EWING AVE,60617.0,1202206.00019162,1832251.96569639,10.0,4.0,52.0,41.694430561849416,-87.5352821428889,"(41.694430561849416, -87.5352821428889)",2014-07-07
90784,07/07/2014,Completed,07/07/2014,14-01059286,Alley Light Out,11453 S ST LAWRENCE AVE,60628.0,1182293.23000263,1829130.53890879,9.0,5.0,50.0,41.68634809922804,-87.6082835221648,"(41.68634809922804, -87.6082835221648)",2014-07-07
90785,07/07/2014,Completed,07/07/2014,14-01060340,Alley Light Out,5858 W WAVELAND AVE,60634.0,1136646.65207245,1924004.88648463,38.0,16.0,15.0,41.94763172296951,-87.77312559574638,"(41.947631722969504, -87.77312559574638)",2014-07-07
90786,07/07/2014,Completed,07/07/2014,14-01060430,Alley Light Out,9658 S CARPENTER ST,60643.0,1171023.34037852,1840666.34867111,21.0,22.0,73.0,41.71825703119711,-87.64920497207535,"(41.718257031197105, -87.64920497207534)",2014-07-07
90787,07/04/2014,Completed - Dup,07/07/2014,14-01045871,Alley Light Out,5946 S KOMENSKY AVE,60629.0,1150386.66996705,1864860.97026774,13.0,8.0,65.0,41.78507637684788,-87.72416282836168,"(41.78507637684788, -87.72416282836168)",2014-07-04
90788,07/05/2014,Completed - Dup,07/07/2014,14-01047647,Alley Light Out,7921 S CONSTANCE AVE,60617.0,1189800.16989133,1852817.11068562,8.0,4.0,46.0,41.751169894878466,-87.58004364634445,"(41.751169894878466, -87.58004364634445)",2014-07-05
90789,07/05/2014,Completed - Dup,07/07/2014,14-01049704,Alley Light Out,1158 W 115TH ST,60643.0,1170593.23039905,1828529.66452371,34.0,22.0,75.0,41.684961440248415,-87.65113242441768,"(41.684961440248415, -87.65113242441768)",2014-07-05
90790,07/03/2014,Completed - Dup,07/07/2014,14-01037460,Alley Light Out,212 E 89TH PL,60619.0,1179213.81777373,1845691.12990971,6.0,6.0,44.0,41.73186315232196,-87.61905372567676,"(41.73186315232195, -87.61905372567676)",2014-07-03
90791,07/01/2014,Completed - Dup,07/07/2014,14-01021781,Alley Light Out,5820 S AUSTIN AVE,60638.0,1137380.97322439,1865352.87090977,23.0,8.0,56.0,41.78666919855173,-87.77183651627601,"(41.78666919855173, -87.77183651627601)",2014-07-01
90792,07/02/2014,Completed - Dup,07/07/2014,14-01037111,Alley Light Out,10812 S RIDGEWAY AVE,60655.0,1153270.86812053,1832647.65867534,19.0,22.0,74.0,41.69662095002176,-87.71443738459914,"(41.69662095002176, -87.71443738459912)",2014-07-02
90807,07/01/2014,Completed,07/08/2014,14-01028201,Alley Light Out,6534 S CHAMPLAIN AVE,60637.0,1181690.54090508,1861828.73779835,20.0,3.0,42.0,41.77608971530979,-87.60948317326591,"(41.77608971530979, -87.6094831732659)",2014-07-01
90808,07/03/2014,Completed - Dup,07/08/2014,14-01044989,Alley Light Out,7417 S PAXTON AVE,60649.0,1192166.84878358,1856215.93033257,7.0,3.0,43.0,41.760439347886354,-87.57126077154888,"(41.760439347886354, -87.57126077154888)",2014-07-03
90809,07/03/2014,Completed,07/08/2014,14-01040392,Alley Light Out,4210 N ST LOUIS AVE,60618.0,1152301.75237674,1927761.46779323,33.0,17.0,16.0,41.95764485016941,-87.71548122215157,"(41.95764485016941, -87.71548122215157)",2014-07-03
90810,07/03/2014,Completed,07/08/2014,14-01041730,Alley Light Out,5036 S CARPENTER ST,60609.0,1170167.91990856,1871416.90191887,16.0,9.0,61.0,41.8026591170354,-87.65144528378141,"(41.8026591170354, -87.6514452837814)",2014-07-03
90811,07/07/2014,Completed - Dup,07/08/2014,14-01061965,Alley Light Out,8500 S WOLCOTT AVE,60620.0,1165163.8225681002,1848300.84452798,18.0,6.0,71.0,41.739333033385726,-87.67045093734299,"(41.73933303338573, -87.67045093734298)",2014-07-07
90812,07/07/2014,Completed - Dup,07/08/2014,14-01062246,Alley Light Out,10810 S LAWNDALE AVE,60655.0,1153605.76960365,1832609.26001709,19.0,22.0,74.0,41.69650896646471,-87.71321217256201,"(41.696508966464705, -87.71321217256202)",2014-07-07
90813,07/07/2014,Completed,07/08/2014,14-01060533,Alley Light Out,3630 W GRENSHAW ST,60624.0,1152333.82399319,1894801.94160372,24.0,11.0,29.0,41.867200289109284,-87.71623512014366,"(41.867200289109284, -87.71623512014365)",2014-07-07
90814,07/08/2014,Completed - Dup,07/08/2014,14-01062360,Alley Light Out,4623 S KOMENSKY AVE,60632.0,1150134.53420435,1873672.47450537,14.0,8.0,57.0,41.809261369576724,-87.72485859720898,"(41.80926136957673, -87.72485859720898)",2014-07-08
90815,07/08/2014,Completed - Dup,07/08/2014,14-01062368,Alley Light Out,4910 S KEATING AVE,60632.0,1145520.7504683998,1871651.98292571,23.0,8.0,56.0,41.80380522175467,-87.74183236238,"(41.80380522175467, -87.74183236237998)",2014-07-08
90816,07/08/2014,Completed - Dup,07/08/2014,14-01066102,Alley Light Out,2128 W GREENLEAF AVE,60645.0,1160565.18991374,1946924.80597959,50.0,24.0,2.0,42.01006230834233,-87.68456841203489,"(42.01006230834233, -87.68456841203489)",2014-07-08
90817,07/08/2014,Completed - Dup,07/08/2014,14-01066214,Alley Light Out,6546 S CHAMPLAIN AVE,60637.0,1181692.64090508,1861748.43779835,20.0,3.0,42.0,41.7758693158722,-87.6094779526957,"(41.7758693158722, -87.6094779526957)",2014-07-08
90818,07/08/2014,Completed - Dup,07/08/2014,14-01067403,Alley Light Out,10911 S MACKINAW AVE,60617.0,1200208.1714205,1833214.01357674,10.0,4.0,52.0,41.69712107185028,-87.54256422971058,"(41.697121071850276, -87.54256422971058)",2014-07-08
90819,07/08/2014,Completed - Dup,07/08/2014,14-01067406,Alley Light Out,12928 S ESCANABA AVE,60633.0,1197424.91569381,1819839.75468649,10.0,4.0,55.0,41.66049034137968,-87.5531980785581,"(41.66049034137968, -87.55319807855811)",2014-07-08
90820,07/08/2014,Completed - Dup,07/08/2014,14-01067986,Alley Light Out,8510 S JEFFERY BLVD,60617.0,1190999.47021331,1848943.18161858,8.0,4.0,45.0,41.740510588008426,-87.57577386140964,"(41.740510588008426, -87.57577386140964)",2014-07-08
90821,07/08/2014,Completed - Dup,07/08/2014,14-01069198,Alley Light Out,7444 S EUCLID AVE,60649.0,1190499.19349928,1855995.15500408,8.0,3.0,43.0,41.75987389971912,-87.57737978355135,"(41.75987389971912, -87.57737978355135)",2014-07-08
90822,07/08/2014,Completed - Dup,07/08/2014,14-01069219,Alley Light Out,8822 S EXCHANGE AVE,60617.0,1197296.89871622,1847040.48118262,10.0,4.0,46.0,41.735134987653815,-87.55276444885892,"(41.73513498765381, -87.55276444885894)",2014-07-08
90823,07/08/2014,Completed - Dup,07/08/2014,14-01070371,Alley Light Out,2527 S ALBANY AVE,60623.0,1156098.42437046,1887056.28939562,12.0,10.0,30.0,41.84587027136384,-87.70262354641187,"(41.84587027136384, -87.70262354641187)",2014-07-08
90824,07/08/2014,Completed - Dup,07/08/2014,14-01071364,Alley Light Out,7417 S PAXTON AVE,60649.0,1192166.84878358,1856215.93033257,7.0,3.0,43.0,41.760439347886354,-87.57126077154888,"(41.760439347886354, -87.57126077154888)",2014-07-08
90825,07/08/2014,Completed,07/08/2014,14-01064424,Alley Light Out,5624 W GRACE ST,60634.0,1138180.05048734,1924704.02290124,38.0,16.0,15.0,41.94952258203191,-87.76747214450188,"(41.94952258203191, -87.76747214450188)",2014-07-08
90826,07/08/2014,Completed,07/08/2014,14-01068361,Alley Light Out,2048 N SAWYER AVE,60647.0,1154178.6730785,1913530.78009173,35.0,14.0,22.0,41.91855743923538,-87.70896204586442,"(41.91855743923538, -87.70896204586444)",2014-07-08
90827,07/08/2014,Completed,07/08/2014,14-01069078,Alley Light Out,9233 S BENNETT AVE,60617.0,1190458.35082628,1844123.88231328,8.0,4.0,48.0,41.72729901844993,-87.57791141240108,"(41.727299018449926, -87.5779114124011)",2014-07-08
90828,07/08/2014,Completed,07/08/2014,14-01069412,Alley Light Out,2316 W MONROE ST,60612.0,1161000.36421812,1899487.64719493,2.0,12.0,28.0,41.87988293576619,-87.68428887611384,"(41.87988293576619, -87.68428887611383)",2014-07-08
90912,07/01/2014,Completed - Dup,07/09/2014,14-01018004,Alley Light Out,10128 S LA SALLE ST,60628.0,1177057.37692497,1837797.07201515,9.0,5.0,49.0,41.71024964291832,-87.62719079945036,"(41.71024964291832, -87.62719079945036)",2014-07-01
90913,07/01/2014,Completed - Dup,07/09/2014,14-01022221,Alley Light Out,9349 S JUSTINE ST,60620.0,1167643.30851473,1842722.31496751,21.0,22.0,73.0,41.723971954558294,-87.66152603340029,"(41.7239719545583, -87.6615260334003)",2014-07-01
90914,07/02/2014,Completed - Dup,07/09/2014,14-01028623,Alley Light Out,8823 S COMMERCIAL AVE,60617.0,1197674.93447723,1847043.34047457,10.0,4.0,46.0,41.73513341702528,-87.55137941684809,"(41.735133417025274, -87.55137941684808)",2014-07-02
90915,07/02/2014,Completed - Dup,07/09/2014,14-01032485,Alley Light Out,9000 S LAFLIN ST,60620.0,1167912.80457222,1845055.30129266,21.0,22.0,73.0,41.73036824229876,-87.66047208049667,"(41.73036824229876, -87.66047208049667)",2014-07-02
90916,07/02/2014,Completed - Dup,07/09/2014,14-01034765,Alley Light Out,8928 S MERRILL AVE,60617.0,1192061.20370572,1846194.88272851,7.0,4.0,48.0,41.73294329004359,-87.57197292831799,"(41.73294329004359, -87.57197292831799)",2014-07-02
90917,07/02/2014,Completed - Dup,07/09/2014,14-01036006,Alley Light Out,8343 S SAGINAW AVE,60617.0,1195284.28898016,1850162.80963322,7.0,4.0,46.0,41.74375276803136,-87.56003488438526,"(41.74375276803136, -87.56003488438527)",2014-07-02
90918,07/03/2014,Completed - Dup,07/09/2014,14-01040728,Alley Light Out,511 E 89TH ST,60619.0,1181208.23800848,1846082.62357338,6.0,6.0,44.0,41.73289180672936,-87.61173539520075,"(41.732891806729356, -87.61173539520075)",2014-07-03
90919,07/03/2014,Completed - Dup,07/09/2014,14-01041735,Alley Light Out,5812 S MERRIMAC AVE,60638.0,1135716.7321951,1865351.47737517,23.0,8.0,56.0,41.7866950370539,-87.77793866868247,"(41.78669503705391, -87.77793866868247)",2014-07-03
90920,07/03/2014,Completed - Dup,07/09/2014,14-01045188,Alley Light Out,8617 S TRIPP AVE,60652.0,1149588.09912322,1847068.24497447,18.0,8.0,70.0,41.736265615270476,-87.72755017623872,"(41.73626561527048, -87.72755017623874)",2014-07-03
90921,07/03/2014,Completed - Dup,07/09/2014,14-01045269,Alley Light Out,5524 S HOMAN AVE,60629.0,1154652.31219319,1867779.46088535,14.0,8.0,63.0,41.79300114494278,-87.70844518242083,"(41.79300114494278, -87.70844518242083)",2014-07-03
90922,07/03/2014,Completed,07/09/2014,14-01039580,Alley Light Out,6006 S FAIRFIELD AVE,60629.0,1159072.46821007,1864710.90467648,15.0,8.0,66.0,41.78449129490173,-87.69232073518877,"(41.78449129490173, -87.69232073518877)",2014-07-03
90923,07/03/2014,Completed,07/09/2014,14-01042470,Alley Light Out,6015 S MAPLEWOOD AVE,60629.0,1160402.94547992,1864689.42668033,15.0,8.0,66.0,41.78440503419365,-87.68744323149961,"(41.78440503419365, -87.68744323149961)",2014-07-03
90924,07/04/2014,Completed - Dup,07/09/2014,14-01047112,Alley Light Out,4824 N KEELER AVE,60630.0,1147514.28751477,1931729.59671929,39.0,17.0,14.0,41.96862706304355,-87.73297945729843,"(41.96862706304355, -87.73297945729844)",2014-07-04
90925,07/04/2014,Completed,07/09/2014,14-01046230,Alley Light Out,6208 N OVERHILL AVE,60631.0,1124056.55030356,1940626.7229236,41.0,16.0,10.0,41.993460380660565,-87.81903795832275,"(41.99346038066056, -87.81903795832275)",2014-07-04
90926,07/05/2014,Completed - Dup,07/09/2014,14-01047292,Alley Light Out,3211 W 61ST PL,60629.0,1156035.48016795,1863670.13996653,15.0,8.0,66.0,41.78169687483601,-87.70348360102214,"(41.78169687483601, -87.70348360102214)",2014-07-05
90927,07/05/2014,Completed - Dup,07/09/2014,14-01047445,Alley Light Out,2526 S WHIPPLE ST,60623.0,1156430.92529887,1887072.55000221,12.0,10.0,30.0,41.845908185009115,-87.7014028499959,"(41.845908185009115, -87.7014028499959)",2014-07-05
90928,07/07/2014,Completed - Dup,07/09/2014,14-01055189,Alley Light Out,8611 S MANISTEE AVE,60617.0,1195983.16286771,1848407.84502093,7.0,4.0,46.0,41.738919741579146,-87.55753217825104,"(41.738919741579146, -87.55753217825104)",2014-07-07
90929,07/07/2014,Completed - Dup,07/09/2014,14-01055901,Alley Light Out,511 E 89TH ST,60619.0,1181208.23800848,1846082.62357338,6.0,6.0,44.0,41.73289180672936,-87.61173539520075,"(41.732891806729356, -87.61173539520075)",2014-07-07
90930,07/07/2014,Completed - Dup,07/09/2014,14-01056169,Alley Light Out,6220 W EDDY ST,60634.0,1134286.03661171,1922957.3299893,36.0,16.0,17.0,41.94479912678712,-87.78182756628269,"(41.94479912678712, -87.78182756628269)",2014-07-07
90931,07/07/2014,Completed - Dup,07/09/2014,14-01057308,Alley Light Out,1218 W 108TH PL,60643.0,1170132.75220722,1832834.90010219,34.0,22.0,75.0,41.69678570035757,-87.6526935858132,"(41.696785700357566, -87.65269358581321)",2014-07-07
90932,07/07/2014,Completed - Dup,07/09/2014,14-01059328,Alley Light Out,11453 S ST LAWRENCE AVE,60628.0,1182293.23000263,1829130.53890879,9.0,5.0,50.0,41.68634809922804,-87.6082835221648,"(41.68634809922804, -87.6082835221648)",2014-07-07
90933,07/07/2014,Completed - Dup,07/09/2014,14-01059783,Alley Light Out,544 W 117TH ST,60628.0,1174679.15896859,1827305.89310135,34.0,5.0,53.0,41.68151345831061,-87.63621118077214,"(41.681513458310604, -87.63621118077214)",2014-07-07
90934,07/07/2014,Completed - Dup,07/09/2014,14-01061837,Alley Light Out,4422 S ROCKWELL ST,60632.0,1159772.58641812,1875251.60331217,12.0,9.0,58.0,41.813402003245,-87.68946432392187,"(41.813402003244995, -87.68946432392187)",2014-07-07
90935,07/07/2014,Completed - Dup,07/09/2014,14-01061889,Alley Light Out,5949 S KARLOV AVE,60629.0,1150054.28841987,1864833.72893162,13.0,8.0,65.0,41.785008077984656,-87.72538220613727,"(41.785008077984656, -87.72538220613728)",2014-07-07
90936,07/07/2014,Completed,07/09/2014,14-01054011,Alley Light Out,7103 N ORIOLE AVE,60631.0,1124734.95959889,1946546.04997084,41.0,16.0,9.0,42.0096923731769,-87.81641098966209,"(42.009692373176904, -87.8164109896621)",2014-07-07
90937,07/07/2014,Completed,07/09/2014,14-01055106,Alley Light Out,6412 S WOLCOTT AVE,60636.0,1164785.96618864,1862151.33197044,15.0,7.0,67.0,41.777348699843614,-87.67144490625223,"(41.77734869984361, -87.67144490625223)",2014-07-07
90938,07/07/2014,Completed,07/09/2014,14-01056521,Alley Light Out,5479 N LAMON AVE,60630.0,1142615.86023216,1936665.19386888,45.0,16.0,12.0,41.98226350279785,-87.7508675981538,"(41.982263502797856, -87.7508675981538)",2014-07-07
90939,07/07/2014,Completed,07/09/2014,14-01057237,Alley Light Out,11056 S AVENUE H,60617.0,1202864.92352242,1832260.21230923,10.0,4.0,52.0,41.69443641289711,-87.532869424919,"(41.694436412897105, -87.532869424919)",2014-07-07
90940,07/07/2014,Completed,07/09/2014,14-01057281,Alley Light Out,11201 S AVENUE G,60617.0,1203202.49740249,1831306.6142178,10.0,4.0,52.0,41.69181104209592,-87.53166600006037,"(41.691811042095914, -87.53166600006037)",2014-07-07
90941,07/07/2014,Completed,07/09/2014,14-01058116,Alley Light Out,2515 W 70TH ST,60629.0,1160755.83566721,1858155.83348026,18.0,8.0,66.0,41.76646865406475,-87.68632961118853,"(41.76646865406476, -87.68632961118853)",2014-07-07
90942,07/07/2014,Completed,07/09/2014,14-01058748,Alley Light Out,6446 S MAPLEWOOD AVE,60629.0,1160482.05077254,1861823.14019497,15.0,8.0,66.0,41.77653791542894,-87.68723215955984,"(41.77653791542894, -87.68723215955984)",2014-07-07
90943,07/07/2014,Completed,07/09/2014,14-01060701,Alley Light Out,4343 N MOBILE AVE,60634.0,1133573.16559153,1928218.89550163,38.0,16.0,15.0,41.95924997211043,-87.78432394934484,"(41.95924997211042, -87.78432394934485)",2014-07-07
90944,07/07/2014,Completed,07/09/2014,14-01061446,Alley Light Out,6936 W HOBART AVE,60631.0,1128713.93919789,1937412.19670236,41.0,16.0,10.0,41.984561382049634,-87.80197925109358,"(41.984561382049634, -87.80197925109358)",2014-07-07
90945,07/08/2014,Completed - Dup,07/09/2014,14-01062271,Alley Light Out,10808 S LAWNDALE AVE,60655.0,1153605.26960365,1832623.56001709,19.0,22.0,74.0,41.69654821829986,-87.713213626318,"(41.69654821829986, -87.713213626318)",2014-07-08
90946,07/08/2014,Completed - Dup,07/09/2014,14-01062359,Alley Light Out,4614 S PULASKI RD,60632.0,1150465.64852689,1873741.82861563,14.0,8.0,57.0,41.80944524771496,-87.72364231099506,"(41.809445247714955, -87.72364231099507)",2014-07-08
90947,07/08/2014,Completed - Dup,07/09/2014,14-01063429,Alley Light Out,3338 S ARCHER AVE,60608.0,1164211.29000032,1882519.30003116,11.0,9.0,59.0,41.833252950734476,-87.6729779770978,"(41.83325295073448, -87.67297797709779)",2014-07-08
90948,07/08/2014,Completed - Dup,07/09/2014,14-01064062,Alley Light Out,211 E 90TH PL,60619.0,1179229.73332084,1845017.5123035999,6.0,6.0,44.0,41.73001429988413,-87.61901590061699,"(41.73001429988413, -87.61901590061699)",2014-07-08
90949,07/08/2014,Completed - Dup,07/09/2014,14-01066954,Alley Light Out,7451 S EUCLID PKWY,60649.0,1190262.92901113,1855846.04048663,8.0,3.0,43.0,41.759470410953774,-87.57825047487768,"(41.75947041095377, -87.57825047487769)",2014-07-08
90950,07/08/2014,Completed - Dup,07/09/2014,14-01070295,Alley Light Out,8928 S MERRILL AVE,60617.0,1192061.20370572,1846194.88272851,7.0,4.0,48.0,41.73294329004359,-87.57197292831799,"(41.73294329004359, -87.57197292831799)",2014-07-08
90951,07/08/2014,Completed - Dup,07/09/2014,14-01070559,Alley Light Out,8928 S MERRILL AVE,60617.0,1192061.20370572,1846194.88272851,7.0,4.0,48.0,41.73294329004359,-87.57197292831799,"(41.73294329004359, -87.57197292831799)",2014-07-08
90952,07/08/2014,Completed - Dup,07/09/2014,14-01071026,Alley Light Out,8115 S MARQUETTE AVE,60617.0,1195582.91812452,1851683.43762544,7.0,4.0,46.0,41.74791812200553,-87.55889056035359,"(41.747918122005544, -87.55889056035359)",2014-07-08
90953,07/08/2014,Completed - Dup,07/09/2014,14-01071702,Alley Light Out,6145 S KILPATRICK AVE,60629.0,1146093.72176578,1863447.17990082,13.0,8.0,64.0,41.781279087527814,-87.73993865658557,"(41.781279087527814, -87.73993865658557)",2014-07-08
90954,07/08/2014,Completed,07/09/2014,14-01069059,Alley Light Out,10518 S AVENUE F,60617.0,1203491.9653703999,1835829.33561749,10.0,4.0,52.0,41.70421436824425,-87.53045189604923,"(41.70421436824425, -87.53045189604924)",2014-07-08
90955,07/09/2014,Completed - Dup,07/09/2014,14-01073051,Alley Light Out,10442 S AVENUE H,60617.0,1202827.14076569,1836332.22963,10.0,4.0,52.0,41.705611333212595,-87.53286919031851,"(41.70561133321259, -87.53286919031851)",2014-07-09
90956,07/09/2014,Completed - Dup,07/09/2014,14-01074337,Alley Light Out,6130 S KEELER AVE,60629.0,1149421.9360225,1863619.86298756,13.0,8.0,65.0,41.781689283361175,-87.72773206028542,"(41.781689283361175, -87.7277320602854)",2014-07-09
90957,07/09/2014,Completed - Dup,07/09/2014,14-01077525,Alley Light Out,10557 S EGGLESTON AVE,60628.0,1175154.36801935,1834897.39598611,34.0,22.0,49.0,41.70233512689463,-87.63424613149263,"(41.70233512689463, -87.63424613149262)",2014-07-09
90958,07/09/2014,Completed - Dup,07/09/2014,14-01077696,Alley Light Out,4635 W ARMITAGE AVE,60639.0,1145128.12709095,1912890.45889183,31.0,25.0,19.0,41.91697633335611,-87.74223105129661,"(41.91697633335611, -87.74223105129663)",2014-07-09
90959,07/09/2014,Completed - Dup,07/09/2014,14-01080426,Alley Light Out,7835 S ST LOUIS AVE,60652.0,1154412.58328786,1852309.12008872,18.0,8.0,70.0,41.750552913644526,-87.70973557322542,"(41.75055291364452, -87.70973557322542)",2014-07-09
90960,07/09/2014,Completed,07/09/2014,14-01071967,Alley Light Out,4024 N DRAKE AVE,60618.0,1152006.01940287,1926520.49292172,33.0,17.0,16.0,41.95424537389125,-87.71660127385715,"(41.95424537389124, -87.71660127385715)",2014-07-09
90961,07/09/2014,Completed,07/09/2014,14-01072075,Alley Light Out,11362 S INDIANA AVE,60628.0,1179598.8689022,1829641.79543185,9.0,5.0,49.0,41.6878128656464,-87.61813147898904,"(41.6878128656464, -87.61813147898904)",2014-07-09
90962,07/09/2014,Completed,07/09/2014,14-01078571,Alley Light Out,1044 W GEORGE ST,60657.0,1168819.41360371,1919428.36247678,44.0,19.0,6.0,41.93443561006856,-87.65499944802906,"(41.93443561006856, -87.65499944802906)",2014-07-09
90963,07/09/2014,Completed,07/09/2014,14-01079367,Alley Light Out,7900 S KEDZIE AVE,60652.0,1156418.2445803,1852027.44073207,18.0,8.0,70.0,41.74973981454153,-87.70239338780813,"(41.749739814541535, -87.70239338780814)",2014-07-09
90964,07/09/2014,Completed,07/09/2014,14-01081286,Alley Light Out,1909 S ASHLAND AVE,60608.0,1166023.43611816,1890783.29462604,25.0,12.0,31.0,41.8558917296321,-87.66609328652771,"(41.855891729632106, -87.66609328652771)",2014-07-09
90965,07/09/2014,Completed,07/09/2014,14-01081290,Alley Light Out,1919 S ASHLAND AVE,60608.0,1166024.23611816,1890749.79462604,25.0,12.0,31.0,41.855799785524404,-87.66609130566776,"(41.85579978552441, -87.66609130566776)",2014-07-09
90966,07/09/2014,Completed,07/09/2014,14-01081964,Alley Light Out,247 W 118TH ST,60628.0,1176657.93891281,1826688.31648117,34.0,5.0,53.0,41.67977456807506,-87.62898627807662,"(41.67977456807506, -87.62898627807662)",2014-07-09
91000,07/02/2014,Completed - Dup,07/10/2014,14-01033433,Alley Light Out,432 E 91ST PL,60619.0,1180733.0696699,1844404.26998309,6.0,6.0,44.0,41.7282971210488,-87.61352756035065,"(41.728297121048804, -87.61352756035066)",2014-07-02
91001,07/02/2014,Completed - Dup,07/10/2014,14-01036659,Alley Light Out,5723 N CLARK ST,60660.0,1164765.16349426,1938211.89008668,48.0,20.0,77.0,41.986065472838845,-87.66936387051108,"(41.98606547283884, -87.66936387051108)",2014-07-02
91002,07/02/2014,Completed - Dup,07/10/2014,14-01037046,Alley Light Out,1326 S SPAULDING AVE,60623.0,1154570.31930875,1893850.58489395,24.0,10.0,29.0,41.86454525194036,-87.7080500218956,"(41.86454525194037, -87.7080500218956)",2014-07-02
91003,07/02/2014,Completed,07/10/2014,14-01033017,Alley Light Out,2035 W 83RD ST,60620.0,1164112.24997862,1849602.34001056,18.0,6.0,71.0,41.742926695619175,-87.6742672155448,"(41.74292669561917, -87.67426721554479)",2014-07-02
91004,07/02/2014,Completed,07/10/2014,14-01036895,Alley Light Out,2955 W SHERWIN AVE,60645.0,1155449.50239536,1948580.7141733002,50.0,24.0,2.0,42.01471102002735,-87.70334601193113,"(42.01471102002735, -87.70334601193113)",2014-07-02
91005,07/02/2014,Completed,07/10/2014,14-01036896,Alley Light Out,2955 W SHERWIN AVE,60645.0,1155449.50239536,1948580.7141733002,50.0,24.0,2.0,42.01471102002735,-87.70334601193113,"(42.01471102002735, -87.70334601193113)",2014-07-02
91006,07/02/2014,Completed,07/10/2014,14-01036900,Alley Light Out,2955 W SHERWIN AVE,60645.0,1155449.50239536,1948580.7141733002,50.0,24.0,2.0,42.01471102002735,-87.70334601193113,"(42.01471102002735, -87.70334601193113)",2014-07-02
91007,07/02/2014,Completed,07/10/2014,14-01037185,Alley Light Out,6047 N KIMBALL AVE,60659.0,1152613.75378866,1939969.60711398,50.0,17.0,13.0,41.99113853903889,-87.71400972598897,"(41.991138539038886, -87.71400972598899)",2014-07-02
91008,07/03/2014,Completed,07/10/2014,14-01043392,Alley Light Out,6615 N MAPLEWOOD AVE,60645.0,1158121.41477526,1943815.08338657,50.0,24.0,2.0,42.001579590621404,-87.69364541003357,"(42.00157959062141, -87.69364541003357)",2014-07-03
91009,07/03/2014,Completed,07/10/2014,14-01045246,Alley Light Out,9817 S THROOP ST,60643.0,1169389.83488021,1839595.3901957,21.0,22.0,73.0,41.71535362293156,-87.65521879602751,"(41.71535362293156, -87.6552187960275)",2014-07-03
91010,07/04/2014,Completed - Dup,07/10/2014,14-01046957,Alley Light Out,6224 N WAYNE AVE,60660.0,1166168.52001164,1941462.23912383,48.0,24.0,77.0,41.994954543418366,-87.6641089753533,"(41.99495454341837, -87.66410897535329)",2014-07-04
91011,07/04/2014,Completed,07/10/2014,14-01046952,Alley Light Out,6224 N WAYNE AVE,60660.0,1166168.52001164,1941462.23912383,48.0,24.0,77.0,41.994954543418366,-87.6641089753533,"(41.99495454341837, -87.66410897535329)",2014-07-04
91012,07/04/2014,Completed,07/10/2014,14-01047012,Alley Light Out,2500 W LELAND AVE,60625.0,1158855.32379867,1931132.82487215,47.0,19.0,4.0,41.966763847851375,-87.69129519820477,"(41.966763847851375, -87.69129519820476)",2014-07-04
91013,07/05/2014,Completed,07/10/2014,14-01047857,Alley Light Out,1757 W GRANVILLE AVE,60660.0,1163526.60138712,1941230.35130844,40.0,24.0,77.0,41.994374481108,-87.67383375406246,"(41.994374481108004, -87.67383375406247)",2014-07-05
91014,07/05/2014,Completed,07/10/2014,14-01049679,Alley Light Out,8500 S WOLCOTT AVE,60620.0,1165163.8225681002,1848300.84452798,18.0,6.0,71.0,41.739333033385726,-87.67045093734299,"(41.73933303338573, -87.67045093734298)",2014-07-05
91015,07/07/2014,Completed - Dup,07/10/2014,14-01054581,Alley Light Out,8500 S WOLCOTT AVE,60620.0,1165163.8225681002,1848300.84452798,18.0,6.0,71.0,41.739333033385726,-87.67045093734299,"(41.73933303338573, -87.67045093734298)",2014-07-07
91016,07/07/2014,Completed - Dup,07/10/2014,14-01061961,Alley Light Out,8500 S WOLCOTT AVE,60620.0,1165163.8225681002,1848300.84452798,18.0,6.0,71.0,41.739333033385726,-87.67045093734299,"(41.73933303338573, -87.67045093734298)",2014-07-07
91017,07/07/2014,Completed,07/10/2014,14-01055319,Alley Light Out,2112 W 119TH ST,60643.0,1164458.77997245,1825695.12009087,19.0,22.0,75.0,41.67731405257851,-87.67366858361727,"(41.67731405257851, -87.67366858361726)",2014-07-07
91018,07/07/2014,Completed,07/10/2014,14-01056387,Alley Light Out,5709 N HERMITAGE AVE,60660.0,1163760.49522631,1937932.22989757,40.0,20.0,77.0,41.98531938894778,-87.6730669251557,"(41.98531938894778, -87.67306692515571)",2014-07-07
91019,07/07/2014,Completed,07/10/2014,14-01057200,Alley Light Out,2634 W 83RD PL,60652.0,1160248.57479577,1849172.79011889,18.0,8.0,70.0,41.74182827378597,-87.68843573468624,"(41.74182827378597, -87.68843573468625)",2014-07-07
91020,07/07/2014,Completed,07/10/2014,14-01059021,Alley Light Out,1343 W PRATT BLVD,60626.0,1165819.9041246,1945292.77330585,49.0,24.0,1.0,42.00547307983637,-87.66528140816412,"(42.005473079836364, -87.66528140816412)",2014-07-07
91021,07/08/2014,Completed - Dup,07/10/2014,14-01071768,Alley Light Out,1324 S SPAULDING AVE,60623.0,1154577.61930875,1893584.78489395,24.0,10.0,29.0,41.86381572167583,-87.70803033059906,"(41.86381572167583, -87.70803033059907)",2014-07-08
91022,07/08/2014,Completed,07/10/2014,14-01066099,Alley Light Out,2126 W GREENLEAF AVE,60645.0,1160576.38991374,1946925.60597959,50.0,24.0,2.0,42.01006427064815,-87.68452718104332,"(42.010064270648144, -87.68452718104332)",2014-07-08
91023,07/08/2014,Completed,07/10/2014,14-01067404,Alley Light Out,4359 W LAKE ST,60624.0,1147269.76232955,1901605.2232961003,28.0,11.0,26.0,41.885967682445006,-87.73465196503089,"(41.885967682445006, -87.7346519650309)",2014-07-08
91024,07/08/2014,Completed,07/10/2014,14-01071791,Alley Light Out,1717 W LELAND AVE,60640.0,1164211.59321361,1931269.63449515,47.0,19.0,3.0,41.967027430751955,-87.67159712016334,"(41.96702743075195, -87.67159712016334)",2014-07-08
91025,07/08/2014,Completed,07/10/2014,14-01071802,Alley Light Out,11300 S LOOMIS ST,60643.0,1169021.19632849,1829760.37610749,34.0,22.0,75.0,41.688372734828405,-87.65685186088487,"(41.688372734828405, -87.65685186088488)",2014-07-08
91026,07/09/2014,Completed - Dup,07/10/2014,14-01075010,Alley Light Out,432 E 91ST PL,60619.0,1180733.0696699,1844404.26998309,6.0,6.0,44.0,41.7282971210488,-87.61352756035065,"(41.728297121048804, -87.61352756035066)",2014-07-09
91027,07/09/2014,Completed - Dup,07/10/2014,14-01075068,Alley Light Out,7734 S LAFLIN ST,60620.0,1167457.13420737,1853442.13170793,17.0,6.0,71.0,41.75339266986867,-87.6619016314515,"(41.75339266986867, -87.6619016314515)",2014-07-09
91028,07/09/2014,Completed - Dup,07/10/2014,14-01075880,Alley Light Out,1305 S HEATH AVE,60608.0,1161022.08987642,1893979.12430431,25.0,12.0,28.0,41.864766585089676,-87.68436202702686,"(41.86476658508967, -87.68436202702686)",2014-07-09
91029,07/09/2014,Completed - Dup,07/10/2014,14-01079064,Alley Light Out,1305 S HEATH AVE,60608.0,1161022.08987642,1893979.12430431,25.0,12.0,28.0,41.864766585089676,-87.68436202702686,"(41.86476658508967, -87.68436202702686)",2014-07-09
91030,07/09/2014,Completed - Dup,07/10/2014,14-01081591,Alley Light Out,6047 N KIMBALL AVE,60659.0,1152613.75378866,1939969.60711398,50.0,17.0,13.0,41.99113853903889,-87.71400972598897,"(41.991138539038886, -87.71400972598899)",2014-07-09
91031,07/09/2014,Completed - Dup,07/10/2014,14-01081838,Alley Light Out,430 W 97TH PL,60628.0,1175054.10761511,1840253.81991124,21.0,22.0,73.0,41.71703615285029,-87.63445406667488,"(41.717036152850284, -87.63445406667488)",2014-07-09
91032,07/09/2014,Completed,07/10/2014,14-01072047,Alley Light Out,10615 S SEELEY AVE,60643.0,1164617.93063364,1834234.87993318,19.0,22.0,72.0,41.70074530096407,-87.67284637543878,"(41.700745300964066, -87.67284637543878)",2014-07-09
91033,07/09/2014,Completed,07/10/2014,14-01072326,Alley Light Out,10817 S WOOD ST,60643.0,1166281.17230805,1832865.18008246,19.0,22.0,75.0,41.69695145195123,-87.66679498152796,"(41.69695145195123, -87.66679498152796)",2014-07-09
91034,07/10/2014,Completed - Dup,07/10/2014,14-01082228,Alley Light Out,6024 N NEWBURG AVE,60631.0,1131844.04299224,1939535.70607899,41.0,16.0,10.0,41.99033462165147,-87.79041737355922,"(41.99033462165147, -87.79041737355922)",2014-07-10
91035,07/10/2014,Completed - Dup,07/10/2014,14-01083733,Alley Light Out,1820 S LAFLIN ST,60608.0,1166659.35466644,1891276.70022044,25.0,12.0,31.0,41.857232094507154,-87.66374503563654,"(41.85723209450716, -87.66374503563655)",2014-07-10
91036,07/10/2014,Completed - Dup,07/10/2014,14-01084900,Alley Light Out,2947 N MOODY AVE,60634.0,1134890.14208729,1918947.04390159,29.0,25.0,19.0,41.933783776975105,-87.77970227850166,"(41.93378377697511, -87.77970227850165)",2014-07-10
91037,07/10/2014,Completed - Dup,07/10/2014,14-01084940,Alley Light Out,1833 W MORSE AVE,60626.0,1162759.92981184,1946090.66740217,49.0,24.0,1.0,42.00772748806207,-87.67651675925093,"(42.00772748806208, -87.67651675925092)",2014-07-10
91038,07/10/2014,Completed - Dup,07/10/2014,14-01086287,Alley Light Out,1619 S CENTRAL PARK AVE,60623.0,1152639.09169011,1891678.09001582,24.0,10.0,29.0,41.85862205695523,-87.71519700271439,"(41.85862205695523, -87.71519700271439)",2014-07-10
91039,07/10/2014,Completed - Dup,07/10/2014,14-01086851,Alley Light Out,8235 S SAGINAW AVE,60617.0,1195269.17588989,1850878.70427756,7.0,4.0,46.0,41.745717613089965,-87.5600666871308,"(41.74571761308997, -87.5600666871308)",2014-07-10
91040,07/10/2014,Completed - Dup,07/10/2014,14-01086861,Alley Light Out,8259 S SAGINAW AVE,60617.0,1195272.48898016,1850718.10963322,7.0,4.0,46.0,41.74527684685142,-87.56005983564016,"(41.74527684685142, -87.56005983564016)",2014-07-10
91041,07/10/2014,Completed - Dup,07/10/2014,14-01088040,Alley Light Out,530 E 87TH PL,60619.0,1181307.5396762,1847084.86827501,6.0,6.0,44.0,41.73563979871864,-87.61134080993686,"(41.73563979871864, -87.61134080993686)",2014-07-10
91042,07/10/2014,Completed - Dup,07/10/2014,14-01088109,Alley Light Out,7809 S PEORIA ST,60620.0,1171659.98471004,1853062.41439936,17.0,6.0,71.0,41.752259637562055,-87.64651086224876,"(41.752259637562055, -87.64651086224877)",2014-07-10
91043,07/10/2014,Completed - Dup,07/10/2014,14-01088667,Alley Light Out,2531 S ALBANY AVE,60623.0,1156099.22437046,1887029.68939562,12.0,10.0,30.0,41.84579726176512,-87.7026213273908,"(41.845797261765114, -87.7026213273908)",2014-07-10
91044,07/10/2014,Completed - Dup,07/10/2014,14-01090613,Alley Light Out,8617 S TRIPP AVE,60652.0,1149588.09912322,1847068.24497447,18.0,8.0,70.0,41.736265615270476,-87.72755017623872,"(41.73626561527048, -87.72755017623874)",2014-07-10
91045,07/10/2014,Completed - Dup,07/10/2014,14-01090631,Alley Light Out,11655 S LOOMIS ST,60643.0,1169092.94490702,1827459.387228,34.0,5.0,53.0,41.68205688960901,-87.65665535943417,"(41.68205688960901, -87.65665535943417)",2014-07-10
91046,07/10/2014,Completed - Dup,07/10/2014,14-01090668,Alley Light Out,7528 S OGLESBY AVE,60649.0,1193177.13922432,1855503.72621779,7.0,4.0,43.0,41.75846038454611,-87.56758133156514,"(41.75846038454611, -87.56758133156512)",2014-07-10
91047,07/10/2014,Completed,07/10/2014,14-01082132,Alley Light Out,4617 S EVANS AVE,60653.0,1182030.40987713,1874561.83991105,4.0,2.0,38.0,41.811022598352,-87.6078433293113,"(41.811022598352004, -87.6078433293113)",2014-07-10
91048,07/10/2014,Completed,07/10/2014,14-01085012,Alley Light Out,2245 W 19TH ST,60608.0,1161701.03551344,1890702.18826963,25.0,12.0,31.0,41.855760241683676,-87.68196088159355,"(41.855760241683676, -87.68196088159355)",2014-07-10
91049,07/10/2014,Completed,07/10/2014,14-01086147,Alley Light Out,6331 W GRACE ST,60634.0,1133487.49289105,1924597.73591667,38.0,16.0,17.0,41.9493146387066,-87.78472414786388,"(41.9493146387066, -87.78472414786387)",2014-07-10
91050,07/10/2014,Completed,07/10/2014,14-01087341,Alley Light Out,10717 S CHRISTIANA AVE,60655.0,1155899.17991978,1833390.07430671,19.0,22.0,74.0,41.69860604918927,-87.70479413232106,"(41.69860604918927, -87.70479413232104)",2014-07-10
91051,07/01/2014,Completed - Dup,07/11/2014,14-01028015,Alley Light Out,920 N HOYNE AVE,60622.0,1162234.67080923,1906200.48009884,32.0,12.0,24.0,41.89827779943261,-87.67956887081036,"(41.89827779943261, -87.67956887081036)",2014-07-01
91052,07/01/2014,Completed,07/11/2014,14-01026534,Alley Light Out,9708 S DR MARTIN LUTHER KING JR DR,60628.0,1180622.32998884,1840687.82989783,6.0,5.0,49.0,41.71810128790814,-87.61404696991826,"(41.71810128790814, -87.61404696991826)",2014-07-01
91053,07/01/2014,Completed,07/11/2014,14-01026859,Alley Light Out,1235 W ERIE ST,60642.0,1168070.0946318002,1904499.29008085,27.0,12.0,24.0,41.89348559706578,-87.6581850644002,"(41.89348559706577, -87.65818506440021)",2014-07-01
91054,07/01/2014,Completed,07/11/2014,14-01027490,Alley Light Out,2457 N LINCOLN AVE,60614.0,1170065.46057773,1916616.0005826,43.0,19.0,7.0,41.92669121378182,-87.65050257146672,"(41.92669121378182, -87.65050257146672)",2014-07-01
91055,07/02/2014,Completed,07/11/2014,14-01030478,Alley Light Out,11504 S EGGLESTON AVE,60628.0,1175358.81221542,1828624.22330821,34.0,5.0,53.0,41.68511604297365,-87.63368409747022,"(41.68511604297365, -87.63368409747024)",2014-07-02
91056,07/02/2014,Completed,07/11/2014,14-01037098,Alley Light Out,1549 N OAKLEY BLVD,60622.0,1160791.44057043,1910254.84989808,1.0,14.0,24.0,41.909433364080364,-87.68475715525628,"(41.90943336408037, -87.68475715525626)",2014-07-02
91057,07/02/2014,Completed,07/11/2014,14-01037168,Alley Light Out,8849 S MICHIGAN AVE,60619.0,1178700.9428193,1846344.84213406,6.0,6.0,44.0,41.73366868384827,-87.62091275860796,"(41.73366868384827, -87.62091275860797)",2014-07-02
91090,07/03/2014,Completed,07/11/2014,14-01037477,Alley Light Out,1720 S WOOD ST,60608.0,1164647.38779877,1891706.21799478,25.0,12.0,31.0,41.85845354939506,-87.67111792576509,"(41.85845354939506, -87.67111792576509)",2014-07-03
91091,07/03/2014,Completed,07/11/2014,14-01038750,Alley Light Out,401 N STATE ST,60654.0,1176294.91801203,1903033.00770004,42.0,18.0,8.0,41.889280474419905,-87.62802274230035,"(41.889280474419905, -87.62802274230035)",2014-07-03
91092,07/03/2014,Completed,07/11/2014,14-01039498,Alley Light Out,10100 S PERRY AVE,60628.0,1177381.51489915,1837992.22201313,9.0,5.0,49.0,41.71077786087262,-87.62599788480402,"(41.71077786087262, -87.62599788480401)",2014-07-03
91093,07/03/2014,Completed,07/11/2014,14-01043899,Alley Light Out,4228 N KIMBALL AVE,60618.0,1152959.65232148,1928037.28000988,33.0,17.0,16.0,41.95838865568202,-87.71305521159479,"(41.95838865568202, -87.71305521159479)",2014-07-03
91094,07/03/2014,Completed,07/11/2014,14-01043911,Alley Light Out,4222 N KIMBALL AVE,60618.0,1152961.85232148,1927967.58000988,33.0,17.0,16.0,41.958197350500896,-87.71304897834032,"(41.958197350500896, -87.71304897834032)",2014-07-03
91095,07/03/2014,Completed,07/11/2014,14-01044889,Alley Light Out,10601 S EGGLESTON AVE,60628.0,1175163.46801935,1834609.19598611,34.0,22.0,49.0,41.70154406115482,-87.6342213765832,"(41.70154406115482, -87.63422137658321)",2014-07-03
91096,07/04/2014,Completed,07/11/2014,14-01047019,Alley Light Out,2115 W FLETCHER ST,60618.0,1161699.7278233,1920901.31992453,32.0,19.0,5.0,41.93862909321137,-87.6811230340308,"(41.93862909321137, -87.6811230340308)",2014-07-04
91097,07/07/2014,Completed,07/11/2014,14-01054351,Alley Light Out,1647 N FAIRFIELD AVE,60647.0,1157784.7781248002,1910839.81897419,1.0,14.0,24.0,41.91110042122274,-87.69578636284972,"(41.91110042122274, -87.6957863628497)",2014-07-07
91098,07/07/2014,Completed,07/11/2014,14-01056199,Alley Light Out,9128 S MICHIGAN AVE,60619.0,1178754.2298700002,1844489.78253188,6.0,6.0,49.0,41.72857695867335,-87.62077380375042,"(41.72857695867335, -87.62077380375042)",2014-07-07
91099,07/07/2014,Completed,07/11/2014,14-01061510,Alley Light Out,117 E 89TH ST,60619.0,1178787.6998816002,1846009.30128963,6.0,6.0,44.0,41.73274594727626,-87.6206051049885,"(41.732745947276264, -87.6206051049885)",2014-07-07
91100,07/07/2014,Completed,07/11/2014,14-01061874,Alley Light Out,3510 N SPAULDING AVE,60618.0,1153878.24998133,1923257.75997068,35.0,17.0,21.0,41.945255029539155,-87.70980592530451,"(41.945255029539155, -87.70980592530452)",2014-07-07
91101,07/07/2014,Completed,07/11/2014,14-01062028,Alley Light Out,3031 N ALLEN AVE,60618.0,1152950.88939769,1919798.0512757,35.0,14.0,21.0,41.93577978756361,-87.71330654573461,"(41.93577978756361, -87.71330654573461)",2014-07-07
91102,07/08/2014,Completed,07/11/2014,14-01067178,Alley Light Out,2926 N SAWYER AVE,60618.0,1154206.95522262,1919288.58530371,35.0,14.0,21.0,41.9343567536294,-87.70870402949326,"(41.9343567536294, -87.70870402949325)",2014-07-08
91103,07/08/2014,Completed,07/11/2014,14-01068563,Alley Light Out,4511 W SCHUBERT AVE,60639.0,1145854.39282842,1917497.43012255,31.0,25.0,20.0,41.92960454422247,-87.73944550133682,"(41.929604544222464, -87.73944550133683)",2014-07-08
91104,07/08/2014,Completed,07/11/2014,14-01070615,Alley Light Out,10501 S EGGLESTON AVE,60628.0,1175142.57409974,1835272.66478293,34.0,22.0,49.0,41.70336518201683,-87.6342781633699,"(41.703365182016825, -87.6342781633699)",2014-07-08
91105,07/08/2014,Completed,07/11/2014,14-01071363,Alley Light Out,111 W 104TH PL,60628.0,1177376.82997893,1835666.98118813,34.0,5.0,49.0,41.704397182441866,-87.6260849803763,"(41.70439718244187, -87.6260849803763)",2014-07-08
91106,07/08/2014,Completed,07/11/2014,14-01071571,Alley Light Out,1927 N WINCHESTER AVE,60622.0,1163053.02600185,1912832.02237499,32.0,14.0,22.0,41.91645807758787,-87.67637657217391,"(41.91645807758787, -87.67637657217391)",2014-07-08
91107,07/08/2014,Completed,07/11/2014,14-01071825,Alley Light Out,3400 N GREENVIEW AVE,60657.0,1165707.77001886,1922663.79849758,44.0,19.0,6.0,41.94338080181967,-87.66634216686441,"(41.94338080181967, -87.6663421668644)",2014-07-08
91108,07/09/2014,Completed - Dup,07/11/2014,14-01081532,Alley Light Out,2604 W 83RD PL,60652.0,1160423.97479577,1849177.99011889,18.0,8.0,70.0,41.74183893455198,-87.68779292676035,"(41.74183893455198, -87.68779292676034)",2014-07-09
91109,07/09/2014,Completed,07/11/2014,14-01081118,Alley Light Out,8513 S VERNON AVE,60619.0,1180841.15861934,1848649.01852852,6.0,6.0,44.0,41.739942733137774,-87.61300147405666,"(41.739942733137774, -87.61300147405666)",2014-07-09
91110,07/09/2014,Completed,07/11/2014,14-01081580,Alley Light Out,2034 W RICE ST,60622.0,1162687.77562777,1905672.12991047,32.0,12.0,24.0,41.896818478776154,-87.67791947856716,"(41.896818478776154, -87.67791947856715)",2014-07-09
91111,07/10/2014,Completed - Dup,07/11/2014,14-01082256,Alley Light Out,9133 S SAGINAW AVE,60617.0,1195468.34002464,1844920.45020739,7.0,4.0,48.0,41.7293627537824,-87.55953322297495,"(41.729362753782404, -87.55953322297496)",2014-07-10
91112,07/10/2014,Completed - Dup,07/11/2014,14-01082432,Alley Light Out,8131 S SAGINAW AVE,60617.0,1195253.46700447,1851567.85597827,7.0,4.0,46.0,41.74760908743265,-87.56010155464668,"(41.74760908743265, -87.56010155464669)",2014-07-10
91113,07/10/2014,Completed - Dup,07/11/2014,14-01084646,Alley Light Out,9136 S MARQUETTE AVE,60617.0,1195847.4201254998,1844859.31549607,7.0,4.0,48.0,41.72918563491482,-87.55814659915274,"(41.72918563491482, -87.55814659915274)",2014-07-10
91114,07/10/2014,Completed - Dup,07/11/2014,14-01085408,Alley Light Out,37 E 89TH ST,60619.0,1178218.27992344,1845990.88399118,6.0,6.0,44.0,41.732708328273226,-87.62269169247645,"(41.73270832827323, -87.62269169247645)",2014-07-10
91115,07/10/2014,Completed - Dup,07/11/2014,14-01086728,Alley Light Out,2638 S KILDARE AVE,60623.0,1148146.95996621,1886115.72002251,22.0,10.0,30.0,41.84344576367523,-87.73182921380086,"(41.843445763675234, -87.73182921380088)",2014-07-10
91116,07/10/2014,Completed - Dup,07/11/2014,14-01091316,Alley Light Out,10711 S KEDZIE AVE,60655.0,1156914.58429144,1833420.18946836,19.0,22.0,74.0,41.698668295823325,-87.7010753666133,"(41.698668295823325, -87.7010753666133)",2014-07-10
91117,07/10/2014,Completed - Dup,07/11/2014,14-01091317,Alley Light Out,10733 S KEDZIE AVE,60655.0,1156919.58429144,1833272.18946836,19.0,22.0,74.0,41.69826205564974,-87.70106103702798,"(41.69826205564974, -87.70106103702798)",2014-07-10
91118,07/10/2014,Completed - Dup,07/11/2014,14-01091415,Alley Light Out,7751 S MARSHFIELD AVE,60620.0,1166689.51851722,1853308.0575265,17.0,6.0,71.0,41.753041156169346,-87.66471848226294,"(41.75304115616934, -87.66471848226294)",2014-07-10
91119,07/10/2014,Completed,07/11/2014,14-01082170,Alley Light Out,549 N TROY ST,60612.0,1155278.50007764,1903535.51499462,27.0,12.0,23.0,41.891107501879745,-87.70519008025238,"(41.89110750187974, -87.70519008025238)",2014-07-10
91120,07/10/2014,Completed,07/11/2014,14-01084603,Alley Light Out,4501 W SCHUBERT AVE,60639.0,1145920.69282842,1917499.13012255,31.0,25.0,20.0,41.929607948758786,-87.73920182160627,"(41.92960794875878, -87.73920182160626)",2014-07-10
91121,07/10/2014,Completed,07/11/2014,14-01085154,Alley Light Out,2638 S KILDARE AVE,60623.0,1148146.95996621,1886115.72002251,22.0,10.0,30.0,41.84344576367523,-87.73182921380086,"(41.843445763675234, -87.73182921380088)",2014-07-10
91122,07/10/2014,Completed,07/11/2014,14-01086532,Alley Light Out,2140 S MARSHALL BLVD,60623.0,1157036.23997661,1889537.04570736,24.0,10.0,30.0,41.85265879372256,-87.69911458565674,"(41.85265879372256, -87.69911458565674)",2014-07-10
91123,07/11/2014,Completed - Dup,07/11/2014,14-01091581,Alley Light Out,2526 S WHIPPLE ST,60623.0,1156430.92529887,1887072.55000221,12.0,10.0,30.0,41.845908185009115,-87.7014028499959,"(41.845908185009115, -87.7014028499959)",2014-07-11
91124,07/11/2014,Completed - Dup,07/11/2014,14-01093013,Alley Light Out,10530 S AVENUE M,60617.0,1201512.36172168,1835739.64569175,10.0,4.0,52.0,41.70401866831383,-87.53770371937608,"(41.70401866831383, -87.53770371937608)",2014-07-11
91125,07/11/2014,Completed - Dup,07/11/2014,14-01093133,Alley Light Out,4946 W VAN BUREN ST,60644.0,1143615.7281201999,1897559.79262471,24.0,15.0,25.0,41.87493569641222,-87.74817181774706,"(41.87493569641222, -87.74817181774706)",2014-07-11
91126,07/11/2014,Completed - Dup,07/11/2014,14-01093517,Alley Light Out,8845 S WABASH AVE,60619.0,1178258.29147898,1846358.68430635,6.0,6.0,44.0,41.733716711540495,-87.62253398540695,"(41.733716711540495, -87.62253398540696)",2014-07-11
91127,07/11/2014,Completed - Dup,07/11/2014,14-01095477,Alley Light Out,600 W 129TH PL,60628.0,1174684.23357843,1818786.15790865,9.0,5.0,53.0,41.65813380239108,-87.63644480669858,"(41.65813380239108, -87.63644480669856)",2014-07-11
91128,07/11/2014,Completed - Dup,07/11/2014,14-01096112,Alley Light Out,6127 S TRIPP AVE,60629.0,1149088.88161377,1863632.73993047,13.0,8.0,65.0,41.78173105007856,-87.72895280360218,"(41.781731050078555, -87.72895280360217)",2014-07-11
91129,07/11/2014,Completed - Dup,07/11/2014,14-01096123,Alley Light Out,6146 S KEATING AVE,60629.0,1145760.05673329,1863433.53259853,13.0,8.0,64.0,41.781247949138425,-87.74116230995472,"(41.78124794913842, -87.74116230995472)",2014-07-11
91130,07/11/2014,Completed - Dup,07/11/2014,14-01096230,Alley Light Out,5812 S MERRIMAC AVE,60638.0,1135716.7321951,1865351.47737517,23.0,8.0,56.0,41.7866950370539,-87.77793866868247,"(41.78669503705391, -87.77793866868247)",2014-07-11
91131,07/11/2014,Completed - Dup,07/11/2014,14-01096289,Alley Light Out,6657 S KNOX AVE,60629.0,1146526.10001812,1860054.0705915,13.0,8.0,64.0,41.77195962940417,-87.73843949373156,"(41.77195962940417, -87.73843949373156)",2014-07-11
91132,07/11/2014,Completed - Dup,07/11/2014,14-01096658,Alley Light Out,12929 S MUSKEGON AVE,60633.0,1197092.3911161998,1819832.01228789,10.0,4.0,55.0,41.660477348058826,-87.55441513372546,"(41.660477348058826, -87.55441513372546)",2014-07-11
91133,07/11/2014,Completed - Dup,07/11/2014,14-01096754,Alley Light Out,4349 S SPAULDING AVE,60632.0,1155077.23009947,1875619.07737818,14.0,8.0,58.0,41.814505648445454,-87.7066774496805,"(41.814505648445454, -87.7066774496805)",2014-07-11
91134,07/11/2014,Completed - Dup,07/11/2014,14-01097406,Alley Light Out,4958 S LECLAIRE AVE,60638.0,1143197.43999977,1871271.68509594,23.0,8.0,56.0,41.80280518263892,-87.75036271843058,"(41.80280518263892, -87.75036271843058)",2014-07-11
91135,07/11/2014,Completed - Dup,07/11/2014,14-01098817,Alley Light Out,6225 S KEATING AVE,60629.0,1145776.62307714,1862909.232991,13.0,8.0,64.0,41.779808870544294,-87.74111481156773,"(41.779808870544294, -87.74111481156774)",2014-07-11
91136,07/11/2014,Completed,07/11/2014,14-01093886,Alley Light Out,9000 S LAFLIN ST,60620.0,1167912.80457222,1845055.30129266,21.0,22.0,73.0,41.73036824229876,-87.66047208049667,"(41.73036824229876, -87.66047208049667)",2014-07-11
91137,07/11/2014,Completed,07/11/2014,14-01094566,Alley Light Out,13401 S BURLEY AVE,60633.0,1199765.58660685,1816705.64847065,10.0,4.0,55.0,41.65183154467275,-87.54473785431198,"(41.65183154467275, -87.54473785431198)",2014-07-11
91138,07/11/2014,Completed,07/11/2014,14-01094625,Alley Light Out,13000 S SAGINAW AVE,60633.0,1196097.58188013,1819356.70491649,10.0,4.0,55.0,41.659197660404246,-87.55807106108139,"(41.65919766040425, -87.55807106108139)",2014-07-11
91139,07/11/2014,Completed,07/11/2014,14-01098415,Alley Light Out,8011 S CHAPPEL AVE,60617.0,1191255.68933322,1852258.63309105,8.0,4.0,46.0,41.74960229061932,-87.57472802653578,"(41.749602290619315, -87.57472802653578)",2014-07-11
91140,07/12/2014,Completed - Dup,07/12/2014,14-01102353,Alley Light Out,447 E 89TH PL,60619.0,1180795.88428723,1845737.53328403,6.0,6.0,44.0,41.73195431463706,-87.61325660137285,"(41.73195431463706, -87.61325660137285)",2014-07-12
91141,07/12/2014,Completed - Dup,07/12/2014,14-01102941,Alley Light Out,6817 S CHAPPEL AVE,60649.0,1191052.8569096,1860174.7056992,5.0,3.0,43.0,41.771329552217566,-87.5752156335513,"(41.77132955221756, -87.5752156335513)",2014-07-12
91142,07/12/2014,Completed,07/12/2014,14-01099441,Alley Light Out,3749 W 107TH ST,60655.0,1153157.41067249,1833390.40151086,19.0,22.0,74.0,41.69866141620749,-87.7148332743194,"(41.698661416207486, -87.7148332743194)",2014-07-12
91143,07/12/2014,Completed,07/12/2014,14-01101696,Alley Light Out,2250 W NORTH AVE,60647.0,1161024.48217266,1910598.36522818,1.0,14.0,24.0,41.91037115726728,-87.6838915076263,"(41.91037115726727, -87.68389150762629)",2014-07-12
91144,07/12/2014,Completed,07/12/2014,14-01101726,Alley Light Out,1549 N OAKLEY BLVD,60622.0,1160791.44057043,1910254.84989808,1.0,14.0,24.0,41.909433364080364,-87.68475715525628,"(41.90943336408037, -87.68475715525626)",2014-07-12
91145,07/11/2014,Completed - Dup,07/12/2014,14-01094320,Alley Light Out,6822 S CLYDE AVE,60649.0,1191386.97311303,1860149.5216072,5.0,3.0,43.0,41.771252356752,-87.57399171706038,"(41.771252356751994, -87.57399171706037)",2014-07-11
91146,07/11/2014,Completed - Dup,07/12/2014,14-01097966,Alley Light Out,7021 S CLYDE AVE,60649.0,1191427.83373248,1858740.66468272,5.0,3.0,43.0,41.76738535430097,-87.57388753975002,"(41.76738535430097, -87.57388753975003)",2014-07-11
91147,07/10/2014,Completed - Dup,07/12/2014,14-01090603,Alley Light Out,8617 S TRIPP AVE,60652.0,1149588.09912322,1847068.24497447,18.0,8.0,70.0,41.736265615270476,-87.72755017623872,"(41.73626561527048, -87.72755017623874)",2014-07-10
91148,07/08/2014,Completed - Dup,07/12/2014,14-01070632,Alley Light Out,6822 S CLYDE AVE,60649.0,1191386.97311303,1860149.5216072,5.0,3.0,43.0,41.771252356752,-87.57399171706038,"(41.771252356751994, -87.57399171706037)",2014-07-08
91149,07/13/2014,Completed,07/13/2014,14-01104656,Alley Light Out,11900 S ADA ST,60643.0,1169576.790025,1825850.801925,34.0,5.0,53.0,41.67763221759915,-87.65493056963389,"(41.67763221759915, -87.65493056963389)",2014-07-13
91150,07/12/2014,Completed - Dup,07/13/2014,14-01103078,Alley Light Out,3457 N KENTON AVE,60641.0,1145111.63192149,1922594.19002439,30.0,17.0,16.0,41.943604609234335,-87.74204578996097,"(41.943604609234335, -87.74204578996097)",2014-07-12
91151,07/11/2014,Completed,07/13/2014,14-01095036,Alley Light Out,2300 N KEDVALE AVE,60639.0,1148337.05193133,1914965.8454979,31.0,25.0,20.0,41.92261009399906,-87.73038775643906,"(41.92261009399906, -87.73038775643906)",2014-07-11
91152,07/10/2014,Completed,07/13/2014,14-01091036,Alley Light Out,3457 N LAVERGNE AVE,60641.0,1142421.11999327,1922604.42648082,38.0,16.0,15.0,41.94368320162834,-87.75193469470253,"(41.94368320162834, -87.75193469470253)",2014-07-10
91153,07/10/2014,Completed,07/13/2014,14-01091180,Alley Light Out,4246 N MENARD AVE,60634.0,1136918.22922104,1927644.90967933,38.0,16.0,15.0,41.95761543225428,-87.77203969895966,"(41.95761543225428, -87.77203969895966)",2014-07-10
91154,07/09/2014,Completed,07/13/2014,14-01076452,Alley Light Out,2951 N MELVINA AVE,60634.0,1134558.52461457,1918965.79721617,29.0,25.0,19.0,41.933841108001225,-87.78092053669388,"(41.93384110800123, -87.78092053669388)",2014-07-09
91155,07/09/2014,Completed,07/13/2014,14-01081400,Alley Light Out,4318 W SCHUBERT AVE,60639.0,1147134.4372273001,1917600.84688422,31.0,25.0,20.0,41.92986390315508,-87.7347389977919,"(41.92986390315508, -87.73473899779191)",2014-07-09
91156,07/06/2014,Completed,07/13/2014,14-01049770,Alley Light Out,5400 W WARWICK AVE,60641.0,1139688.97548031,1924456.01992242,38.0,16.0,15.0,41.948814566862886,-87.76193153866976,"(41.948814566862886, -87.76193153866977)",2014-07-06
91157,07/02/2014,Completed,07/13/2014,14-01032051,Alley Light Out,5300 W CUYLER AVE,60641.0,1140298.67271172,1926416.15149478,38.0,16.0,15.0,41.954182175916436,-87.75964213798996,"(41.95418217591644, -87.75964213798996)",2014-07-02
91165,07/14/2014,Completed - Dup,07/14/2014,14-01106850,Alley Light Out,3440 N CLAREMONT AVE,60618.0,1160096.80283153,1922791.00249327,32.0,19.0,5.0,41.943847811846155,-87.68696179705117,"(41.94384781184616, -87.68696179705117)",2014-07-14
91166,07/14/2014,Completed - Dup,07/14/2014,14-01107432,Alley Light Out,9138 S HALSTED ST,60620.0,1172580.86677384,1844253.27416632,21.0,22.0,73.0,41.72806595855521,-87.64339504502044,"(41.72806595855521, -87.64339504502044)",2014-07-14
91167,07/14/2014,Completed - Dup,07/14/2014,14-01113188,Alley Light Out,6224 S KILPATRICK AVE,60629.0,1146109.92442798,1862923.26087018,13.0,8.0,64.0,41.77984105986671,-87.73989250924808,"(41.779841059866705, -87.7398925092481)",2014-07-14
91168,07/14/2014,Completed - Dup,07/14/2014,14-01113249,Alley Light Out,11327 S AVENUE L,60617.0,1201892.68283401,1830465.63587816,10.0,4.0,52.0,41.68953667233521,-87.5364897565052,"(41.68953667233521, -87.5364897565052)",2014-07-14
91169,07/14/2014,Completed - Dup,07/14/2014,14-01114416,Alley Light Out,912 W 18TH PL,60608.0,1170741.93037931,1891379.00999077,25.0,12.0,31.0,41.85742449702328,-87.64875674252941,"(41.85742449702328, -87.6487567425294)",2014-07-14
91170,07/14/2014,Completed - Dup,07/14/2014,14-01114460,Alley Light Out,8527 S WINCHESTER AVE,60620.0,1164836.42647088,1848111.73856672,18.0,6.0,71.0,41.73882101222834,-87.67165579218731,"(41.73882101222834, -87.67165579218732)",2014-07-14
91171,07/14/2014,Completed - Dup,07/14/2014,14-01114660,Alley Light Out,13328 S CARONDOLET AVE,60633.0,1198439.55372149,1817180.78101412,10.0,4.0,55.0,41.65316854911856,-87.54957371225174,"(41.65316854911856, -87.54957371225174)",2014-07-14
91172,07/14/2014,Completed - Dup,07/14/2014,14-01115120,Alley Light Out,5528 S HOMAN AVE,60629.0,1154653.01219319,1867752.66088535,14.0,8.0,63.0,41.79292758791943,-87.70844332990035,"(41.79292758791943, -87.70844332990035)",2014-07-14
91173,07/14/2014,Completed,07/14/2014,14-01106611,Alley Light Out,1326 S SPAULDING AVE,60623.0,1154570.31930875,1893850.58489395,24.0,10.0,29.0,41.86454525194036,-87.7080500218956,"(41.86454525194037, -87.7080500218956)",2014-07-14
91174,07/14/2014,Completed,07/14/2014,14-01109094,Alley Light Out,6858 S CHAPPEL AVE,60649.0,1191060.80151187,1859898.70888297,5.0,3.0,43.0,41.77057200341186,-87.57519543005009,"(41.77057200341186, -87.5751954300501)",2014-07-14
91175,07/14/2014,Completed,07/14/2014,14-01114067,Alley Light Out,7900 S KEDZIE AVE,60652.0,1156418.2445803,1852027.44073207,18.0,8.0,70.0,41.74973981454153,-87.70239338780813,"(41.749739814541535, -87.70239338780814)",2014-07-14
91176,07/14/2014,Completed,07/14/2014,14-01114616,Alley Light Out,5015 N KOLMAR AVE,60630.0,1144788.56489934,1932974.32149171,39.0,17.0,14.0,41.97209465693743,-87.74297040156169,"(41.97209465693743, -87.7429704015617)",2014-07-14
91177,07/12/2014,Completed - Dup,07/14/2014,14-01099271,Alley Light Out,12825 S LOWE AVE,60628.0,1174323.39101509,1819730.58552163,9.0,5.0,53.0,41.660733469567255,-87.63773731640384,"(41.660733469567255, -87.63773731640384)",2014-07-12
91178,07/13/2014,Completed - Dup,07/14/2014,14-01106242,Alley Light Out,9306 S FOREST AVE,60619.0,1179888.19917286,1843339.13358141,6.0,6.0,49.0,41.72539360034708,-87.61665495218504,"(41.725393600347076, -87.61665495218503)",2014-07-13
91179,07/13/2014,Completed - Dup,07/14/2014,14-01106340,Alley Light Out,10808 S LAWNDALE AVE,60655.0,1153605.26960365,1832623.56001709,19.0,22.0,74.0,41.69654821829986,-87.713213626318,"(41.69654821829986, -87.713213626318)",2014-07-13
91180,07/11/2014,Completed,07/14/2014,14-01096772,Alley Light Out,2411 N ST LOUIS AVE,60647.0,1152639.40993391,1915807.17261925,26.0,14.0,22.0,41.9248346676962,-87.71455711187092,"(41.924834667696196, -87.71455711187092)",2014-07-11
91181,07/11/2014,Completed,07/14/2014,14-01097518,Alley Light Out,4924 W WAVELAND AVE,60641.0,1142860.58632213,1924149.60241996,45.0,16.0,15.0,41.94791511562588,-87.75028077093025,"(41.94791511562588, -87.75028077093025)",2014-07-11
91182,07/11/2014,Completed,07/14/2014,14-01098204,Alley Light Out,5130 N RUTHERFORD AVE,60656.0,1130588.59127178,1933695.16390797,41.0,16.0,10.0,41.97432936338479,-87.79517025925942,"(41.97432936338479, -87.7951702592594)",2014-07-11
91183,07/10/2014,Completed,07/14/2014,14-01084161,Alley Light Out,5640 W BRYN MAWR AVE,60646.0,1137493.95338974,1936875.67358841,45.0,16.0,11.0,41.98293510805605,-87.7696998559918,"(41.98293510805605, -87.76969985599179)",2014-07-10
91184,07/10/2014,Completed,07/14/2014,14-01088605,Alley Light Out,6627 N OKETO AVE,60631.0,1126055.73037518,1943389.29048924,41.0,16.0,9.0,42.00100794832958,-87.8116221103266,"(42.00100794832958, -87.8116221103266)",2014-07-10
91185,07/10/2014,Completed,07/14/2014,14-01091158,Alley Light Out,912 N HOYNE AVE,60622.0,1162237.14610695,1906114.67106573,32.0,12.0,24.0,41.89804228097863,-87.67956218093984,"(41.89804228097863, -87.67956218093984)",2014-07-10
91186,07/09/2014,Completed,07/14/2014,14-01080141,Alley Light Out,8156 S BURNHAM AVE,60617.0,1196250.3700306,1851427.30827345,7.0,4.0,46.0,41.74719877241567,-87.55645333096456,"(41.747198772415665, -87.55645333096457)",2014-07-09
91187,07/08/2014,Completed,07/14/2014,14-01070603,Alley Light Out,5696 N NORTHWEST HWY,60646.0,1132963.10003355,1937671.52078956,45.0,16.0,10.0,41.985199590556064,-87.78634496258303,"(41.98519959055606, -87.78634496258303)",2014-07-08
91188,07/07/2014,Completed - Dup,07/14/2014,14-01062027,Alley Light Out,4300 W 78TH ST,60652.0,1149078.95529835,1852673.88988497,13.0,8.0,70.0,41.75165832358133,-87.7292713635088,"(41.75165832358133, -87.72927136350879)",2014-07-07
91189,07/02/2014,Completed - Dup,07/14/2014,14-01033205,Alley Light Out,4300 W 78TH ST,60652.0,1149078.95529835,1852673.88988497,13.0,8.0,70.0,41.75165832358133,-87.7292713635088,"(41.75165832358133, -87.72927136350879)",2014-07-02
91222,07/02/2014,Completed - Dup,07/15/2014,14-01032158,Alley Light Out,8146 S MAPLEWOOD AVE,60652.0,1160782.04569247,1850435.36986924,18.0,8.0,70.0,41.745282002311214,-87.6864463234495,"(41.74528200231121, -87.6864463234495)",2014-07-02
91223,07/02/2014,Completed,07/15/2014,14-01036071,Alley Light Out,4759 S LAFLIN ST,60609.0,1167138.09097973,1873175.18661838,20.0,9.0,61.0,41.80754947116167,-87.66250666652552,"(41.80754947116167, -87.66250666652552)",2014-07-02
91224,07/03/2014,Completed,07/15/2014,14-01037481,Alley Light Out,914 W 18TH PL,60608.0,1170719.83037931,1891378.20999077,25.0,12.0,31.0,41.85742278525307,-87.64883788527149,"(41.85742278525307, -87.64883788527148)",2014-07-03
91225,07/03/2014,Completed,07/15/2014,14-01037484,Alley Light Out,1834 S PEORIA ST,60608.0,1170875.63037931,1891340.00999077,25.0,12.0,31.0,41.85731455164476,-87.64826713114445,"(41.857314551644755, -87.64826713114445)",2014-07-03
91226,07/03/2014,Completed,07/15/2014,14-01037485,Alley Light Out,4709 S RACINE AVE,60609.0,1169117.68646858,1873531.83608252,3.0,9.0,61.0,41.80848552578667,-87.65523575130331,"(41.80848552578667, -87.65523575130332)",2014-07-03
91227,07/03/2014,Completed,07/15/2014,14-01037488,Alley Light Out,1145 W 47TH ST,60609.0,1169476.01987509,1873631.16000929,3.0,9.0,61.0,41.80875031533854,-87.65391858782152,"(41.80875031533854, -87.65391858782152)",2014-07-03
91228,07/03/2014,Completed,07/15/2014,14-01040810,Alley Light Out,1600 S CENTRAL PARK AVE,60623.0,1152635.59169011,1891806.49001582,24.0,10.0,29.0,41.85897447059767,-87.71520645693369,"(41.858974470597666, -87.71520645693369)",2014-07-03
91229,07/04/2014,Completed,07/15/2014,14-01047034,Alley Light Out,1506 S CENTRAL PARK AVE,60623.0,1152617.13532606,1892432.26958632,24.0,10.0,29.0,41.860692046651984,-87.71525766849675,"(41.860692046651984, -87.71525766849675)",2014-07-04
91230,07/07/2014,Completed - Dup,07/15/2014,14-01059828,Alley Light Out,8146 S MAPLEWOOD AVE,60652.0,1160782.04569247,1850435.36986924,18.0,8.0,70.0,41.745282002311214,-87.6864463234495,"(41.74528200231121, -87.6864463234495)",2014-07-07
91231,07/09/2014,Completed - Dup,07/15/2014,14-01076793,Alley Light Out,914 W 18TH PL,60608.0,1170719.83037931,1891378.20999077,25.0,12.0,31.0,41.85742278525307,-87.64883788527149,"(41.85742278525307, -87.64883788527148)",2014-07-09
91232,07/10/2014,Completed - Dup,07/15/2014,14-01091293,Alley Light Out,835 S MILLER ST,60607.0,1169745.819275,1896397.8390000002,25.0,12.0,28.0,41.87121829670233,-87.65226688158411,"(41.87121829670233, -87.65226688158411)",2014-07-10
91233,07/10/2014,Completed,07/15/2014,14-01091080,Alley Light Out,3715 W FERDINAND ST,60624.0,1151480.52567783,1903074.1276123002,27.0,11.0,23.0,41.88991685566908,-87.71915039985794,"(41.88991685566908, -87.71915039985794)",2014-07-10
91234,07/10/2014,Completed,07/15/2014,14-01091096,Alley Light Out,3758 W FERDINAND ST,60624.0,1151176.41950794,1903068.38840562,27.0,11.0,23.0,41.88990707436218,-87.72026737100781,"(41.88990707436218, -87.72026737100782)",2014-07-10
91235,07/11/2014,Completed - Dup,07/15/2014,14-01094332,Alley Light Out,3715 W FERDINAND ST,60624.0,1151480.52567783,1903074.1276123002,27.0,11.0,23.0,41.88991685566908,-87.71915039985794,"(41.88991685566908, -87.71915039985794)",2014-07-11
91236,07/12/2014,Completed - Dup,07/15/2014,14-01102712,Alley Light Out,3715 W FERDINAND ST,60624.0,1151480.52567783,1903074.1276123002,27.0,11.0,23.0,41.88991685566908,-87.71915039985794,"(41.88991685566908, -87.71915039985794)",2014-07-12
91237,07/14/2014,Completed - Dup,07/15/2014,14-01110055,Alley Light Out,3715 W FERDINAND ST,60624.0,1151480.52567783,1903074.1276123002,27.0,11.0,23.0,41.88991685566908,-87.71915039985794,"(41.88991685566908, -87.71915039985794)",2014-07-14
91238,07/14/2014,Completed - Dup,07/15/2014,14-01115783,Alley Light Out,10810 S LAWNDALE AVE,60655.0,1153605.76960365,1832609.26001709,19.0,22.0,74.0,41.69650896646471,-87.71321217256201,"(41.696508966464705, -87.71321217256202)",2014-07-14
91239,07/14/2014,Completed,07/15/2014,14-01106712,Alley Light Out,5624 W GRACE ST,60634.0,1138180.05048734,1924704.02290124,38.0,16.0,15.0,41.94952258203191,-87.76747214450188,"(41.94952258203191, -87.76747214450188)",2014-07-14
91240,07/14/2014,Completed,07/15/2014,14-01109208,Alley Light Out,600 W 129TH PL,60628.0,1174684.23357843,1818786.15790865,9.0,5.0,53.0,41.65813380239108,-87.63644480669858,"(41.65813380239108, -87.63644480669856)",2014-07-14
91241,07/14/2014,Completed,07/15/2014,14-01110572,Alley Light Out,1124 W 17TH ST,60608.0,1169269.0108752,1891901.9500231002,25.0,12.0,31.0,41.858891586517096,-87.65414799941006,"(41.85889158651709, -87.65414799941006)",2014-07-14
91242,07/14/2014,Completed,07/15/2014,14-01114449,Alley Light Out,1852 S BLUE ISLAND AVE,60608.0,1167122.24921174,1891130.7641878002,25.0,12.0,31.0,41.856821714758844,-87.66205014258048,"(41.85682171475884, -87.66205014258048)",2014-07-14
91243,07/15/2014,Completed - Dup,07/15/2014,14-01119342,Alley Light Out,7734 S LAFLIN ST,60620.0,1167457.13420737,1853442.13170793,17.0,6.0,71.0,41.75339266986867,-87.6619016314515,"(41.75339266986867, -87.6619016314515)",2014-07-15
91244,07/15/2014,Completed - Dup,07/15/2014,14-01119439,Alley Light Out,7734 S LAFLIN ST,60620.0,1167457.13420737,1853442.13170793,17.0,6.0,71.0,41.75339266986867,-87.6619016314515,"(41.75339266986867, -87.6619016314515)",2014-07-15
91245,07/15/2014,Completed - Dup,07/15/2014,14-01120479,Alley Light Out,11730 S PARNELL AVE,60628.0,1174744.45896859,1827106.59310135,34.0,5.0,53.0,41.68096509755665,-87.6359780528541,"(41.68096509755665, -87.6359780528541)",2014-07-15
91246,07/15/2014,Completed - Dup,07/15/2014,14-01122023,Alley Light Out,11652 S ADA ST,60643.0,1169424.6801172,1827488.21682358,34.0,5.0,53.0,41.6821288465304,-87.6554401857543,"(41.682128846530404, -87.6554401857543)",2014-07-15
91247,07/15/2014,Completed - Dup,07/15/2014,14-01122279,Alley Light Out,1820 S LAFLIN ST,60608.0,1166659.35466644,1891276.70022044,25.0,12.0,31.0,41.857232094507154,-87.66374503563654,"(41.85723209450716, -87.66374503563655)",2014-07-15
91248,07/15/2014,Completed - Dup,07/15/2014,14-01122764,Alley Light Out,12214 S PRINCETON AVE,60628.0,1176485.88232528,1823934.61253402,34.0,5.0,53.0,41.67222183221089,-87.6296983914082,"(41.67222183221088, -87.6296983914082)",2014-07-15
91249,07/15/2014,Completed,07/15/2014,14-01115993,Alley Light Out,4024 N DRAKE AVE,60618.0,1152006.01940287,1926520.49292172,33.0,17.0,16.0,41.95424537389125,-87.71660127385715,"(41.95424537389124, -87.71660127385715)",2014-07-15
91250,07/15/2014,Completed,07/15/2014,14-01118000,Alley Light Out,8617 S TRIPP AVE,60652.0,1149588.09912322,1847068.24497447,18.0,8.0,70.0,41.736265615270476,-87.72755017623872,"(41.73626561527048, -87.72755017623874)",2014-07-15
91292,07/01/2014,Completed - Dup,07/16/2014,14-01020275,Alley Light Out,6331 W GRACE ST,60634.0,1133487.49289105,1924597.73591667,38.0,16.0,17.0,41.9493146387066,-87.78472414786388,"(41.9493146387066, -87.78472414786387)",2014-07-01
91293,07/01/2014,Completed - Dup,07/16/2014,14-01028221,Alley Light Out,5008 W ERIE ST,60644.0,1142855.77368732,1903854.78757906,28.0,15.0,25.0,41.89222411438328,-87.75080520146636,"(41.89222411438328, -87.75080520146638)",2014-07-01
91294,07/01/2014,Completed,07/16/2014,14-01021216,Alley Light Out,1009 W GRAND AVE,60642.0,1169588.18999599,1903652.61032241,27.0,12.0,24.0,41.89112933709417,-87.65263433685236,"(41.89112933709417, -87.65263433685236)",2014-07-01
91295,07/01/2014,Completed,07/16/2014,14-01021741,Alley Light Out,10723 S WASHTENAW AVE,60655.0,1160277.8399679,1833416.07001596,19.0,22.0,75.0,41.69858857935258,-87.68876075467917,"(41.69858857935258, -87.68876075467915)",2014-07-01
91296,07/02/2014,Completed - Dup,07/16/2014,14-01030300,Alley Light Out,2515 W AUGUSTA BLVD,60622.0,1159454.51357182,1906570.48907416,26.0,12.0,24.0,41.899350815796424,-87.68976998506349,"(41.89935081579642, -87.6897699850635)",2014-07-02
91297,07/02/2014,Completed,07/16/2014,14-01032952,Alley Light Out,932 N KILBOURN AVE,60651.0,1146197.15509732,1905944.7199253999,37.0,11.0,23.0,41.89789621392955,-87.73848037458387,"(41.89789621392955, -87.73848037458387)",2014-07-02
91298,07/02/2014,Completed,07/16/2014,14-01033635,Alley Light Out,3530 N CLARK ST,60657.0,1168542.58988676,1923794.32997468,44.0,19.0,6.0,41.946422025923255,-87.65588996975994,"(41.94642202592325, -87.65588996975994)",2014-07-02
91299,07/02/2014,Completed,07/16/2014,14-01037109,Alley Light Out,1513 W SUPERIOR ST,60642.0,1165979.17840469,1905099.65681755,27.0,12.0,24.0,41.89517793837543,-87.6658470793067,"(41.895177938375426, -87.6658470793067)",2014-07-02
91300,07/02/2014,Completed,07/16/2014,14-01037133,Alley Light Out,537 N TROY ST,60612.0,1155280.50007764,1903465.41499462,27.0,12.0,23.0,41.89091510061913,-87.70518461985372,"(41.89091510061913, -87.70518461985374)",2014-07-02
91301,07/05/2014,Completed - Dup,07/16/2014,14-01049534,Alley Light Out,5842 S ALBANY AVE,60629.0,1156714.01881086,1865729.27437797,14.0,8.0,63.0,41.78733377068899,-87.70094036757817,"(41.78733377068899, -87.70094036757817)",2014-07-05
91302,07/05/2014,Completed - Dup,07/16/2014,14-01049635,Alley Light Out,5249 N SPAULDING AVE,60625.0,1153432.82767855,1934687.67393021,39.0,17.0,13.0,41.97662833608676,-87.71113808058229,"(41.97662833608676, -87.7111380805823)",2014-07-05
91303,07/07/2014,Completed - Dup,07/16/2014,14-01060667,Alley Light Out,1649 N KEDVALE AVE,60639.0,1148466.27528349,1910640.54483117,30.0,25.0,23.0,41.910738560254615,-87.73002474367041,"(41.910738560254615, -87.7300247436704)",2014-07-07
91304,07/07/2014,Completed - Dup,07/16/2014,14-01061700,Alley Light Out,728 W 116TH PL,60628.0,1173488.35572173,1827813.26027315,34.0,5.0,53.0,41.68293211279993,-87.64055522563973,"(41.682932112799925, -87.64055522563972)",2014-07-07
91305,07/07/2014,Completed - Dup,07/16/2014,14-01061945,Alley Light Out,4848 W BYRON ST,60641.0,1143335.67062041,1925479.70943168,45.0,16.0,15.0,41.95155616630985,-87.74850108669712,"(41.95155616630985, -87.74850108669712)",2014-07-07
91306,07/07/2014,Completed,07/16/2014,14-01052600,Alley Light Out,851 E 88TH PL,60619.0,1183524.26569454,1846482.3199143996,8.0,6.0,44.0,41.733935021745616,-87.603238379491,"(41.73393502174562, -87.603238379491)",2014-07-07
91307,07/07/2014,Completed,07/16/2014,14-01054470,Alley Light Out,5514 N WAYNE AVE,60640.0,1166313.35759093,1936742.2056341,48.0,20.0,77.0,41.98199954142933,-87.66371194965544,"(41.98199954142933, -87.66371194965544)",2014-07-07
91308,07/07/2014,Completed,07/16/2014,14-01061370,Alley Light Out,3424 W 72ND PL,60629.0,1154799.34250402,1856325.31007978,18.0,8.0,66.0,41.761566287260415,-87.70821135182156,"(41.761566287260415, -87.70821135182155)",2014-07-07
91309,07/08/2014,Completed - Dup,07/16/2014,14-01063841,Alley Light Out,6331 W GRACE ST,60634.0,1133487.49289105,1924597.73591667,38.0,16.0,17.0,41.9493146387066,-87.78472414786388,"(41.9493146387066, -87.78472414786387)",2014-07-08
91310,07/08/2014,Completed - Dup,07/16/2014,14-01066751,Alley Light Out,2224 N KEYSTONE AVE,60639.0,1149018.922618,1914476.23159061,31.0,25.0,20.0,41.921253364722624,-87.72789502675039,"(41.921253364722624, -87.72789502675039)",2014-07-08
91311,07/08/2014,Completed - Dup,07/16/2014,14-01071523,Alley Light Out,3840 W 63RD PL,60629.0,1151862.57746904,1862217.53939507,13.0,8.0,65.0,41.77779357118136,-87.71882070592163,"(41.77779357118136, -87.71882070592163)",2014-07-08
91312,07/08/2014,Completed,07/16/2014,14-01070255,Alley Light Out,3444 N CLAREMONT AVE,60618.0,1160096.00283153,1922817.90249327,32.0,19.0,5.0,41.94392164362106,-87.68696399191316,"(41.94392164362106, -87.68696399191317)",2014-07-08
91313,07/09/2014,Completed - Dup,07/16/2014,14-01074449,Alley Light Out,10126 S PERRY AVE,60628.0,1177385.71489915,1837818.12201313,9.0,5.0,49.0,41.710300011847345,-87.62598774121996,"(41.71030001184734, -87.62598774121997)",2014-07-09
91314,07/09/2014,Completed - Dup,07/16/2014,14-01079586,Alley Light Out,6042 N CHRISTIANA AVE,60659.0,1152946.36499611,1939946.23592479,50.0,17.0,13.0,41.99106780026731,-87.71278691272249,"(41.99106780026731, -87.71278691272249)",2014-07-09
91315,07/09/2014,Completed - Dup,07/16/2014,14-01081466,Alley Light Out,5511 W HIRSCH ST,60651.0,1139147.10987743,1908768.25341531,37.0,25.0,25.0,41.90577554490762,-87.764306057969,"(41.90577554490762, -87.764306057969)",2014-07-09
91316,07/09/2014,Completed - Dup,07/16/2014,14-01081622,Alley Light Out,2333 W WASHINGTON BLVD,60612.0,1160842.5299683998,1900628.84408323,2.0,12.0,28.0,41.88301775562104,-87.68483675916706,"(41.88301775562104, -87.68483675916706)",2014-07-09
91317,07/09/2014,Completed,07/16/2014,14-01073254,Alley Light Out,8606 S INGLESIDE AVE,60619.0,1184058.19903287,1848120.06460135,8.0,6.0,44.0,41.7384167284386,-87.60123128664759,"(41.7384167284386, -87.60123128664758)",2014-07-09
91318,07/09/2014,Completed,07/16/2014,14-01075904,Alley Light Out,932 S LAVERGNE AVE,60644.0,1143399.11208902,1895461.39997017,24.0,15.0,25.0,41.869181490851744,-87.74901959827162,"(41.869181490851744, -87.74901959827162)",2014-07-09
91319,07/09/2014,Completed,07/16/2014,14-01081979,Alley Light Out,3546 W 115TH PL,60655.0,1154804.94301443,1827776.56031733,19.0,22.0,74.0,41.683223326055284,-87.70894972702247,"(41.68322332605528, -87.70894972702247)",2014-07-09
91320,07/10/2014,Completed - Dup,07/16/2014,14-01082074,Alley Light Out,6331 W GRACE ST,60634.0,1133487.49289105,1924597.73591667,38.0,16.0,17.0,41.9493146387066,-87.78472414786388,"(41.9493146387066, -87.78472414786387)",2014-07-10
91321,07/10/2014,Completed - Dup,07/16/2014,14-01083690,Alley Light Out,1824 S LAFLIN ST,60608.0,1166660.65466644,1891232.80022044,25.0,12.0,31.0,41.85711160117835,-87.66374152054685,"(41.85711160117835, -87.66374152054686)",2014-07-10
91322,07/10/2014,Completed - Dup,07/16/2014,14-01084210,Alley Light Out,7144 S RACINE AVE,60636.0,1169559.02558311,1857313.68987497,17.0,7.0,67.0,41.763971460536865,-87.65408695154709,"(41.763971460536865, -87.6540869515471)",2014-07-10
91323,07/10/2014,Completed - Dup,07/16/2014,14-01086036,Alley Light Out,1832 S TRUMBULL AVE,60623.0,1153666.25708039,1890811.35592883,24.0,10.0,29.0,41.85622328462788,-87.71144965758074,"(41.85622328462788, -87.71144965758074)",2014-07-10
91324,07/10/2014,Completed - Dup,07/16/2014,14-01087124,Alley Light Out,8847 S WABASH AVE,60619.0,1178258.69147898,1846345.08430635,6.0,6.0,44.0,41.7336793823836,-87.6225329314838,"(41.7336793823836, -87.6225329314838)",2014-07-10
91325,07/10/2014,Completed - Dup,07/16/2014,14-01088012,Alley Light Out,5148 S NATCHEZ AVE,60638.0,1133913.59013187,1869738.22512769,23.0,8.0,56.0,41.79876484183293,-87.7844474006233,"(41.79876484183293, -87.7844474006233)",2014-07-10
91326,07/10/2014,Completed - Dup,07/16/2014,14-01088533,Alley Light Out,8516 S VERNON AVE,60619.0,1180841.75861934,1848628.81852852,6.0,6.0,44.0,41.739887288218895,-87.61299989524453,"(41.7398872882189, -87.61299989524451)",2014-07-10
91327,07/10/2014,Completed - Dup,07/16/2014,14-01091091,Alley Light Out,1508 W 17TH ST,60608.0,1166591.84681403,1891824.99380115,25.0,12.0,31.0,41.85873810516143,-87.66397713754282,"(41.85873810516143, -87.66397713754282)",2014-07-10
91328,07/10/2014,Completed - Dup,07/16/2014,14-01091298,Alley Light Out,1534 W JACKSON BLVD,60607.0,1166222.93769272,1898715.02452119,2.0,12.0,28.0,41.87765281638275,-87.66513440851357,"(41.87765281638275, -87.66513440851357)",2014-07-10
91329,07/10/2014,Completed - Dup,07/16/2014,14-01091347,Alley Light Out,530 N ALBANY AVE,60612.0,1155617.58037331,1903432.31461524,27.0,12.0,23.0,41.89081749193416,-87.70394757889315,"(41.89081749193416, -87.70394757889314)",2014-07-10
91330,07/10/2014,Completed - Dup,07/16/2014,14-01091396,Alley Light Out,4159 W 25TH ST,60623.0,1149105.16688687,1887064.66748632,22.0,10.0,30.0,41.846031328965005,-87.72828823571234,"(41.846031328965005, -87.72828823571234)",2014-07-10
91331,07/10/2014,Completed - Dup,07/16/2014,14-01091419,Alley Light Out,7740 S ASHLAND AVE,60620.0,1167019.32998,1853390.05349572,17.0,6.0,71.0,41.75325912468762,-87.66350751035587,"(41.75325912468762, -87.66350751035587)",2014-07-10
91332,07/10/2014,Completed,07/16/2014,14-01086955,Alley Light Out,1225 N CALIFORNIA AVE,60622.0,1157502.38901984,1908119.12001792,26.0,14.0,24.0,41.9036403524238,-87.69689792465047,"(41.9036403524238, -87.69689792465049)",2014-07-10
91333,07/10/2014,Completed,07/16/2014,14-01089921,Alley Light Out,435 E ILLINOIS ST,60611.0,1179348.81819253,1903709.54248357,42.0,18.0,8.0,41.89106748765587,-87.61678697889316,"(41.891067487655874, -87.61678697889315)",2014-07-10
91334,07/11/2014,Completed - Dup,07/16/2014,14-01094823,Alley Light Out,4533 N LAWNDALE AVE,60625.0,1150906.48809476,1929872.64291375,33.0,17.0,14.0,41.963465552667905,-87.72055520526855,"(41.96346555266791, -87.72055520526855)",2014-07-11
91335,07/11/2014,Completed - Dup,07/16/2014,14-01096208,Alley Light Out,5824 S MERRIMAC AVE,60638.0,1135719.4321951,1865270.37737517,23.0,8.0,56.0,41.78647243607573,-87.77793068967851,"(41.78647243607573, -87.77793068967851)",2014-07-11
91336,07/11/2014,Completed - Dup,07/16/2014,14-01099088,Alley Light Out,9118 S BALTIMORE AVE,60617.0,1198481.33007722,1845097.04112386,10.0,4.0,46.0,41.72977247579197,-87.54849020159666,"(41.72977247579197, -87.54849020159666)",2014-07-11
91337,07/11/2014,Completed - Dup,07/16/2014,14-01099145,Alley Light Out,7715 S PAULINA ST,60620.0,1166351.25787356,1853540.29756927,17.0,6.0,71.0,41.753685662312044,-87.66595147641682,"(41.75368566231205, -87.66595147641681)",2014-07-11
91338,07/12/2014,Completed - Dup,07/16/2014,14-01100669,Alley Light Out,1540 W 17TH ST,60608.0,1166380.94681403,1891818.49380115,25.0,12.0,31.0,41.858724777755754,-87.66475146237677,"(41.858724777755754, -87.66475146237676)",2014-07-12
91339,07/12/2014,Completed - Dup,07/16/2014,14-01103475,Alley Light Out,1924 W BRADLEY PL,60613.0,1162847.11780096,1924916.22987363,47.0,19.0,5.0,41.949622193801524,-87.67679308779091,"(41.94962219380152, -87.6767930877909)",2014-07-12
91340,07/12/2014,Completed,07/16/2014,14-01100297,Alley Light Out,5652 N WESTERN AVE,60659.0,1159303.91537205,1937462.96989521,40.0,20.0,2.0,41.98412482424176,-87.68947085285609,"(41.98412482424176, -87.68947085285608)",2014-07-12
91341,07/12/2014,Completed,07/16/2014,14-01103346,Alley Light Out,5015 W WEST END AVE,60644.0,1142923.41498607,1900516.62558002,28.0,15.0,25.0,41.88306253687797,-87.75064002959101,"(41.88306253687797, -87.750640029591)",2014-07-12
91342,07/13/2014,Completed - Dup,07/16/2014,14-01103519,Alley Light Out,4721 S LA CROSSE AVE,60638.0,1144820.7548966003,1872889.91698922,23.0,8.0,56.0,41.80721549687326,-87.74436852900627,"(41.80721549687326, -87.74436852900627)",2014-07-13
91343,07/13/2014,Completed - Dup,07/16/2014,14-01106278,Alley Light Out,4825 N TRIPP AVE,60630.0,1147178.65443373,1931729.74960272,39.0,17.0,14.0,41.96863392961754,-87.73421357486424,"(41.96863392961754, -87.73421357486424)",2014-07-13
91344,07/13/2014,Completed,07/16/2014,14-01103551,Alley Light Out,2208 W ERIE ST,60612.0,1161568.53781057,1904307.27179208,1.0,12.0,24.0,41.89309658626229,-87.68206830773754,"(41.89309658626229, -87.68206830773754)",2014-07-13
91345,07/13/2014,Completed,07/16/2014,14-01106257,Alley Light Out,7836 S LUELLA AVE,60649.0,1192561.83538798,1853373.46122101,7.0,4.0,43.0,41.752629771414455,-87.56990560668969,"(41.752629771414455, -87.56990560668969)",2014-07-13
91346,07/13/2014,Completed,07/16/2014,14-01106258,Alley Light Out,7847 S PAXTON AVE,60649.0,1192229.22127485,1853367.67001663,7.0,4.0,43.0,41.752621972345956,-87.57112466527259,"(41.75262197234595, -87.5711246652726)",2014-07-13
91347,07/13/2014,Completed,07/16/2014,14-01106435,Alley Light Out,1917 W RACE AVE,60622.0,1163523.04359913,1903769.1332106998,26.0,12.0,24.0,41.89157895784557,-87.674905315465,"(41.891578957845574, -87.674905315465)",2014-07-13
91348,07/13/2014,Completed,07/16/2014,14-01106436,Alley Light Out,1911 W RACE AVE,60622.0,1163563.34359913,1903770.2332106999,26.0,12.0,24.0,41.89158112763689,-87.67475728140785,"(41.89158112763689, -87.67475728140784)",2014-07-13
91349,07/14/2014,Completed - Dup,07/16/2014,14-01107270,Alley Light Out,2511 W AUGUSTA BLVD,60622.0,1159481.71357182,1906571.08907416,26.0,12.0,24.0,41.899351902296566,-87.68967006324442,"(41.89935190229656, -87.68967006324442)",2014-07-14
91350,07/14/2014,Completed - Dup,07/16/2014,14-01107280,Alley Light Out,4913 W BLOOMINGDALE AVE,60639.0,1143144.08741615,1911514.75150014,37.0,25.0,25.0,41.91323853937292,-87.74955489365513,"(41.91323853937292, -87.74955489365513)",2014-07-14
91351,07/14/2014,Completed - Dup,07/16/2014,14-01107618,Alley Light Out,1255 W 74TH ST,60636.0,1169112.56488414,1855705.9102993999,17.0,7.0,67.0,41.75956916679834,-87.6557697500774,"(41.75956916679834, -87.6557697500774)",2014-07-14
91352,07/14/2014,Completed - Dup,07/16/2014,14-01107799,Alley Light Out,6134 S KEATING AVE,60629.0,1145757.45673329,1863514.13259853,13.0,8.0,64.0,41.781469178076726,-87.74116980730349,"(41.781469178076726, -87.74116980730349)",2014-07-14
91353,07/14/2014,Completed - Dup,07/16/2014,14-01108901,Alley Light Out,367 E 117TH ST,60628.0,1180679.63993354,1827304.84198168,9.0,5.0,53.0,41.6813752403999,-87.61424632125807,"(41.68137524039991, -87.61424632125807)",2014-07-14
91354,07/14/2014,Completed - Dup,07/16/2014,14-01110684,Alley Light Out,3338 S ARCHER AVE,60608.0,1164211.29000032,1882519.30003116,11.0,9.0,59.0,41.833252950734476,-87.6729779770978,"(41.83325295073448, -87.67297797709779)",2014-07-14
91355,07/14/2014,Completed - Dup,07/16/2014,14-01111029,Alley Light Out,1408 N GREENVIEW AVE,60642.0,1166132.58259499,1909471.88119589,1.0,14.0,24.0,41.90717234647792,-87.6651585960005,"(41.90717234647792, -87.6651585960005)",2014-07-14
91356,07/14/2014,Completed - Dup,07/16/2014,14-01112066,Alley Light Out,6842 W DICKENS AVE,60707.0,1130352.46003268,1913208.89061953,36.0,25.0,25.0,41.91811677524535,-87.7965104220553,"(41.918116775245345, -87.79651042205529)",2014-07-14
91357,07/15/2014,Completed - Dup,07/16/2014,14-01116651,Alley Light Out,8516 S VERNON AVE,60619.0,1180841.75861934,1848628.81852852,6.0,6.0,44.0,41.739887288218895,-87.61299989524453,"(41.7398872882189, -87.61299989524451)",2014-07-15
91358,07/15/2014,Completed - Dup,07/16/2014,14-01119763,Alley Light Out,5119 W WASHINGTON BLVD,60644.0,1142176.19500478,1900021.45761552,28.0,15.0,25.0,41.88171762410367,-87.75339618241141,"(41.881717624103665, -87.7533961824114)",2014-07-15
91359,07/15/2014,Completed - Dup,07/16/2014,14-01120309,Alley Light Out,142 W 116TH ST,60628.0,1177293.17860954,1827685.23417879,34.0,5.0,53.0,41.682495987715264,-87.62663109621367,"(41.682495987715264, -87.62663109621367)",2014-07-15
91360,07/15/2014,Completed - Dup,07/16/2014,14-01122262,Alley Light Out,1824 S LAFLIN ST,60608.0,1166660.65466644,1891232.80022044,25.0,12.0,31.0,41.85711160117835,-87.66374152054685,"(41.85711160117835, -87.66374152054686)",2014-07-15
91361,07/15/2014,Completed - Dup,07/16/2014,14-01124147,Alley Light Out,9053 S CHAPPEL AVE,60617.0,1191421.63836697,1845344.30548033,8.0,4.0,48.0,41.7306247257614,-87.57434339080402,"(41.730624725761395, -87.57434339080402)",2014-07-15
91362,07/15/2014,Completed - Dup,07/16/2014,14-01124291,Alley Light Out,8818 S WINCHESTER AVE,60620.0,1165479.57977319,1846123.21549436,21.0,22.0,71.0,41.73335061244926,-87.66935560643402,"(41.73335061244926, -87.66935560643402)",2014-07-15
91363,07/15/2014,Completed - Dup,07/16/2014,14-01124928,Alley Light Out,8617 S TRIPP AVE,60652.0,1149588.09912322,1847068.24497447,18.0,8.0,70.0,41.736265615270476,-87.72755017623872,"(41.73626561527048, -87.72755017623874)",2014-07-15
91364,07/15/2014,Completed - Dup,07/16/2014,14-01124953,Alley Light Out,4422 S ROCKWELL ST,60632.0,1159772.58641812,1875251.60331217,12.0,9.0,58.0,41.813402003245,-87.68946432392187,"(41.813402003244995, -87.68946432392187)",2014-07-15
91365,07/15/2014,Completed,07/16/2014,14-01119633,Alley Light Out,10601 S BELL AVE,60643.0,1163262.53480328,1834293.46530962,19.0,22.0,72.0,41.700934486536106,-87.67780773480591,"(41.7009344865361, -87.67780773480591)",2014-07-15
91366,07/15/2014,Completed,07/16/2014,14-01122709,Alley Light Out,5946 S NORMANDY AVE,60638.0,1132758.46998648,1864187.59000149,23.0,8.0,64.0,41.78355303880129,-87.78881250393894,"(41.78355303880129, -87.78881250393894)",2014-07-15
91367,07/15/2014,Completed,07/16/2014,14-01124386,Alley Light Out,11719 S SANGAMON ST,60643.0,1172096.42289814,1827115.87267871,34.0,5.0,53.0,41.681048969592965,-87.64567094017929,"(41.681048969592965, -87.6456709401793)",2014-07-15
91368,07/15/2014,Completed,07/16/2014,14-01124401,Alley Light Out,1350 W 115TH ST,60643.0,1169304.56611305,1828496.60037066,34.0,22.0,75.0,41.68489861286171,-87.65585084607163,"(41.68489861286171, -87.65585084607163)",2014-07-15
91369,07/16/2014,Completed - Dup,07/16/2014,14-01126287,Alley Light Out,2331 W WASHINGTON BLVD,60612.0,1160856.1299683999,1900629.14408323,2.0,12.0,28.0,41.88301829682649,-87.68478681097133,"(41.883018296826485, -87.68478681097133)",2014-07-16
91370,07/16/2014,Completed - Dup,07/16/2014,14-01128920,Alley Light Out,511 E 89TH ST,60619.0,1181208.23800848,1846082.62357338,6.0,6.0,44.0,41.73289180672936,-87.61173539520075,"(41.732891806729356, -87.61173539520075)",2014-07-16
91371,07/16/2014,Completed - Dup,07/16/2014,14-01128926,Alley Light Out,1820 S LAFLIN ST,,1166659.35466644,1891276.70022044,25.0,12.0,31.0,41.857232094507154,-87.66374503563654,"(41.85723209450716, -87.66374503563655)",2014-07-16
91372,07/16/2014,Completed - Dup,07/16/2014,14-01128950,Alley Light Out,1824 S LAFLIN ST,60608.0,1166660.65466644,1891232.80022044,25.0,12.0,31.0,41.85711160117835,-87.66374152054685,"(41.85711160117835, -87.66374152054686)",2014-07-16
91373,07/16/2014,Completed - Dup,07/16/2014,14-01129633,Alley Light Out,10031 S PERRY AVE,60628.0,1177370.47310667,1838447.24836644,9.0,5.0,49.0,41.712026764497224,-87.62602463344291,"(41.71202676449723, -87.62602463344292)",2014-07-16
91374,07/16/2014,Completed - Dup,07/16/2014,14-01130819,Alley Light Out,4420 S ROCKWELL ST,60632.0,1159772.28641812,1875264.90331217,12.0,9.0,58.0,41.813438506264575,-87.68946505881861,"(41.81343850626457, -87.68946505881861)",2014-07-16
91375,07/16/2014,Completed - Dup,07/16/2014,14-01132394,Alley Light Out,3540 S MAPLEWOOD AVE,60632.0,1159937.73002294,1881109.42048402,12.0,9.0,58.0,41.829473159225735,-87.68869735685158,"(41.829473159225735, -87.68869735685158)",2014-07-16
91376,07/16/2014,Completed - Dup,07/16/2014,14-01132450,Alley Light Out,844 N KOLIN AVE,60651.0,1147221.08013439,1905268.96789215,37.0,11.0,23.0,41.89602233452587,-87.73473687920391,"(41.896022334525874, -87.73473687920391)",2014-07-16
91377,07/16/2014,Completed - Dup,07/16/2014,14-01132788,Alley Light Out,432 E 91ST PL,60619.0,1180733.0696699,1844404.26998309,6.0,6.0,44.0,41.7282971210488,-87.61352756035065,"(41.728297121048804, -87.61352756035066)",2014-07-16
91378,07/16/2014,Completed - Dup,07/16/2014,14-01133502,Alley Light Out,926 N LAVERGNE AVE,60651.0,1142853.32100547,1905798.23000714,37.0,15.0,25.0,41.89755719272273,-87.75076574615187,"(41.89755719272273, -87.75076574615186)",2014-07-16
91379,07/16/2014,Completed,07/16/2014,14-01125326,Alley Light Out,8000 S RHODES AVE,60619.0,1181292.81611632,1852082.25442053,6.0,6.0,44.0,41.7493535322068,-87.61124112104449,"(41.749353532206804, -87.61124112104449)",2014-07-16
91380,07/16/2014,Completed,07/16/2014,14-01125416,Alley Light Out,4024 N DRAKE AVE,60618.0,1152006.01940287,1926520.49292172,33.0,17.0,16.0,41.95424537389125,-87.71660127385715,"(41.95424537389124, -87.71660127385715)",2014-07-16
91381,07/16/2014,Completed,07/16/2014,14-01128480,Alley Light Out,11109 S AVENUE D,60617.0,1204130.74230788,1831917.63443439,10.0,4.0,52.0,41.693463976543256,-87.5282467610173,"(41.693463976543256, -87.52824676101731)",2014-07-16
91382,07/16/2014,Completed,07/16/2014,14-01129533,Alley Light Out,12944 S COMMERCIAL AVE,60633.0,1198090.75522578,1819735.81233035,10.0,4.0,55.0,41.66018854785085,-87.55076504303068,"(41.660188547850844, -87.55076504303068)",2014-07-16
91383,07/16/2014,Completed,07/16/2014,14-01131729,Alley Light Out,2122 W 51ST ST,60609.0,1162993.3086301,1870826.7585298999,16.0,9.0,61.0,41.8011928681496,-87.67777429851427,"(41.80119286814959, -87.67777429851427)",2014-07-16
91384,07/16/2014,Completed,07/16/2014,14-01132059,Alley Light Out,12944 S COMMERCIAL AVE,60633.0,1198090.75522578,1819735.81233035,10.0,4.0,55.0,41.66018854785085,-87.55076504303068,"(41.660188547850844, -87.55076504303068)",2014-07-16
91385,07/16/2014,Completed,07/16/2014,14-01132112,Alley Light Out,1336 W 115TH ST,60643.0,1169374.06611305,1828498.50037066,34.0,22.0,75.0,41.68490232669271,-87.65559636984726,"(41.6849023266927, -87.65559636984725)",2014-07-16
91386,07/16/2014,Completed,07/16/2014,14-01132561,Alley Light Out,7335 S CLYDE AVE,60649.0,1191491.19989004,1856742.50231408,5.0,3.0,43.0,41.76190070237711,-87.57371995910212,"(41.76190070237711, -87.57371995910212)",2014-07-16
91387,07/16/2014,Completed,07/16/2014,14-01133697,Alley Light Out,5033 W FLETCHER ST,60641.0,1142261.77301377,1920474.60829217,30.0,25.0,19.0,41.937841741523826,-87.75257342215643,"(41.93784174152383, -87.75257342215644)",2014-07-16
91388,07/16/2014,Completed,07/16/2014,14-01134387,Alley Light Out,8524 S WOLCOTT AVE,60620.0,1165167.8225681002,1848140.14452798,18.0,6.0,71.0,41.73889196403214,-87.67044081718281,"(41.73889196403214, -87.67044081718281)",2014-07-16
