,CREATION DATE,STATUS,COMPLETION DATE,SERVICE REQUEST NUMBER,TYPE OF SERVICE REQUEST,CURRENT ACTIVITY,MOST RECENT ACTION,NUMBER OF POTHOLES FILLED ON BLOCK,STREET ADDRESS,ZIP,X COORDINATE,Y COORDINATE,Ward,Police District,Community Area,SSA,LATITUDE,LONGITUDE,LOCATION,date
142746,12/01/2012,Completed - Dup,12/18/2012,12-01952505,Pot Hole in Street,,,,3501 W 63RD ST,60629.0,1154143.11039086,1862620.11319285,15.0,8.0,66.0,3.0,41.778742106033896,-87.710523012264,"(41.77874210603389, -87.710523012264)",2012-12-01
142747,12/01/2012,Completed,01/10/2013,12-01953142,Pot Hole in Street,Final Outcome,Pothole Patched,3.0,4800 N SB OUTER LAKE SHORE DR,60640.0,1170579.80280838,1932168.50746628,48.0,20.0,3.0,,41.96940861791894,-87.64831726369918,"(41.96940861791894, -87.64831726369918)",2012-12-01
142748,12/01/2012,Completed,12/06/2012,12-01951903,Pot Hole in Street,Final Outcome,Pothole Patched,15.0,1031 W 104TH ST,60643.0,1171280.64340738,1835854.49961987,34.0,22.0,73.0,,41.704932309451436,-87.64889246485235,"(41.70493230945144, -87.64889246485235)",2012-12-01
142749,12/01/2012,Completed,12/10/2012,12-01952737,Pot Hole in Street,Final Outcome,No Potholes Found,0.0,9800 S MARQUETTE AVE,60617.0,1195949.2784291,1840520.64247637,10.0,4.0,51.0,,41.71718351561565,-87.55805592520483,"(41.71718351561565, -87.55805592520483)",2012-12-01
142750,12/01/2012,Completed,12/17/2012,12-01953101,Pot Hole in Street,Final Outcome,Pothole Patched,8.0,4000 W BELMONT AVE,60641.0,1149166.09367639,1920979.16587567,31.0,17.0,16.0,,41.939203749865534,-87.72731013414392,"(41.93920374986553, -87.72731013414392)",2012-12-01
142751,12/01/2012,Completed,12/26/2012,12-01953082,Pot Hole in Street,Final Outcome,Pothole Patched,1.0,4800 W HURON ST,60644.0,1144230.91221174,1904206.09116635,28.0,15.0,25.0,,41.893270297436814,-87.74587130511225,"(41.893270297436814, -87.74587130511225)",2012-12-01
142892,12/02/2012,Completed - Dup,12/02/2012,12-01953544,Pot Hole in Street,Final Outcome,CDOT Pavement Cave-In Survey Transfer Outcome,,3920 W 68TH ST,60629.0,1151405.90859136,1859222.85539474,13.0,8.0,65.0,3.0,41.769688260272886,-87.72096426297972,"(41.769688260272886, -87.72096426297972)",2012-12-02
142893,12/02/2012,Completed,12/02/2012,12-01953253,Pot Hole in Street,Final Outcome,CDOT Pavement Cave-In Survey Transfer Outcome,,900 E 42ND PL,60653.0,1183007.5277105,1877104.18992622,4.0,2.0,36.0,,41.81808731283918,-87.6040677485589,"(41.81808731283918, -87.6040677485589)",2012-12-02
142894,12/02/2012,Completed,12/02/2012,12-01953499,Pot Hole in Street,Final Outcome,CDOT Street Cut Complaints Transfer Outcome,,2838 E 106TH ST,60617.0,1196827.97012219,1835240.75646969,10.0,4.0,51.0,,41.702876759138064,-87.55475151103245,"(41.702876759138064, -87.55475151103245)",2012-12-02
142895,12/02/2012,Completed,12/02/2012,12-01953540,Pot Hole in Street,Final Outcome,CDOT Pavement Cave-In Survey Transfer Outcome,,2152 W ROSCOE ST,60618.0,1161325.78051354,1922552.3994842,32.0,19.0,5.0,,41.943271893320116,-87.68299071690457,"(41.943271893320116, -87.68299071690457)",2012-12-02
142896,12/02/2012,Completed,12/02/2012,12-01953543,Pot Hole in Street,Final Outcome,CDOT Pavement Cave-In Survey Transfer Outcome,,3921 W 68TH ST,60629.0,1151399.20859136,1859222.75539474,13.0,8.0,65.0,3.0,41.76946878173281,-87.72095740930331,"(41.769468781732805, -87.7209574093033)",2012-12-02
142897,12/02/2012,Completed,12/02/2012,12-01953613,Pot Hole in Street,Final Outcome,CDOT Pavement Cave-In Survey Transfer Outcome,,4807 N ST LOUIS AVE,60625.0,1152183.30150515,1931718.26207304,39.0,17.0,14.0,,41.96863909875532,-87.71566903264879,"(41.96863909875532, -87.7156690326488)",2012-12-02
142898,12/02/2012,Completed,12/02/2012,12-01954267,Pot Hole in Street,Final Outcome,CDOT Pavement Cave-In Survey Transfer Outcome,,1045 W DIVISION ST,60642.0,1169139.54759998,1908175.89913287,32.0,18.0,8.0,,41.90343987324909,-87.65425270702556,"(41.903439873249084, -87.65425270702556)",2012-12-02
142899,12/02/2012,Completed,12/03/2012,12-01953647,Pot Hole in Street,Final Outcome,Pothole Patched,15.0,4737 N LONG AVE,60630.0,1139480.3995198,1930922.43828353,45.0,16.0,15.0,,41.96664934617089,-87.76239366956457,"(41.96664934617089, -87.76239366956457)",2012-12-02
142900,12/02/2012,Completed,12/03/2012,12-01953648,Pot Hole in Street,Final Outcome,Pothole Patched,7.0,4713 N LONG AVE,60630.0,1139488.34100611,1930697.40331308,45.0,16.0,15.0,,41.96599019520344,-87.76236981090649,"(41.96599019520344, -87.76236981090648)",2012-12-02
142901,12/02/2012,Completed,12/03/2012,12-01953651,Pot Hole in Street,Final Outcome,Pothole Patched,17.0,4610 N LONG AVE,60630.0,1139500.41480016,1930247.8769278,45.0,16.0,15.0,,41.964989329068686,-87.76263603543806,"(41.964989329068686, -87.76263603543806)",2012-12-02
142902,12/02/2012,Completed,12/03/2012,12-01953653,Pot Hole in Street,Final Outcome,Pothole Patched,12.0,4545 N LONG AVE,60630.0,1139512.33733099,1929848.27419153,45.0,16.0,15.0,,41.963806026551325,-87.76230847472358,"(41.96380602655133, -87.76230847472358)",2012-12-02
142903,12/02/2012,Completed,12/03/2012,12-01953812,Pot Hole in Street,Final Outcome,No Potholes Found,0.0,8700 S STATE ST,60619.0,1177806.56787586,1847296.13788419,21.0,6.0,44.0,,41.7362094694489,-87.624305519124,"(41.73620946944891, -87.624305519124)",2012-12-02
142904,12/02/2012,Completed,12/03/2012,12-01954298,Pot Hole in Street,Final Outcome,Pothole Patched,46.0,6150 N SACRAMENTO AVE,60659.0,1155233.18672813,1940766.6198708,50.0,24.0,2.0,,41.993660472410944,-87.70451370326401,"(41.993660472410944, -87.70451370326401)",2012-12-02
142905,12/02/2012,Completed,12/04/2012,12-01954114,Pot Hole in Street,Final Outcome,Pothole Patched,60.0,11300 S ST LAWRENCE AVE,60628.0,1182269.13489562,1830158.23771862,9.0,5.0,50.0,,41.68907654796265,-87.60848455509633,"(41.68907654796265, -87.60848455509631)",2012-12-02
142906,12/02/2012,Completed,12/04/2012,12-01954387,Pot Hole in Street,Final Outcome,Pothole Patched,24.0,7448 W BARRY AVE,60707.0,1125801.85499593,1919774.43310487,36.0,25.0,17.0,,41.93631088523735,-87.81353395088993,"(41.93631088523735, -87.81353395088992)",2012-12-02
142907,12/02/2012,Completed,12/10/2012,12-01953322,Pot Hole in Street,Final Outcome,Pothole Patched,15.0,10604 S AVENUE M,60617.0,1201517.02183089,1835248.4996661998,10.0,4.0,52.0,,41.70254078811865,-87.53784977129835,"(41.70254078811865, -87.53784977129835)",2012-12-02
142908,12/02/2012,Completed,12/10/2012,12-01953765,Pot Hole in Street,Final Outcome,No Potholes Found,0.0,116 N WELLS ST,60606.0,1174719.17910194,1900969.37098525,42.0,1.0,32.0,,41.88365624876198,-87.6340169858727,"(41.88365624876198, -87.6340169858727)",2012-12-02
142909,12/02/2012,Completed,12/10/2012,12-01953785,Pot Hole in Street,Final Outcome,No Potholes Found,0.0,9754 S AVENUE L,60617.0,1201793.959799,1841035.83449175,10.0,4.0,52.0,,41.717927367503975,-87.53663647278026,"(41.71792736750398, -87.53663647278027)",2012-12-02
142910,12/02/2012,Completed,12/11/2012,12-01953776,Pot Hole in Street,Final Outcome,Pothole Patched,16.0,1160 W EXCHANGE AVE,60609.0,1169280.42299341,1877223.5554966,11.0,9.0,61.0,13.0,41.81870707274229,-87.65530317398253,"(41.818707072742285, -87.65530317398252)",2012-12-02
142911,12/02/2012,Completed,12/13/2012,12-01953255,Pot Hole in Street,Final Outcome,Pothole Patched,3.0,4200 S DREXEL BLVD,60653.0,1182877.93948885,1877101.06672587,4.0,2.0,36.0,47.0,41.81790477255298,-87.60479537045453,"(41.81790477255298, -87.60479537045451)",2012-12-02
142912,12/02/2012,Completed,12/13/2012,12-01953727,Pot Hole in Street,Final Outcome,Pothole Patched,5.0,2203 W FULLERTON AVE,60647.0,1161037.06382905,1915912.76008042,32.0,14.0,22.0,,41.924844158544154,-87.68371187618006,"(41.924844158544154, -87.68371187618006)",2012-12-02
142913,12/02/2012,Completed,12/13/2012,12-01954473,Pot Hole in Street,Final Outcome,Pothole Patched,20.0,2116 N MAGNOLIA AVE,60614.0,1167633.95822748,1914205.48249488,32.0,18.0,7.0,,41.92037531870479,-87.65966093036572,"(41.920375318704785, -87.65966093036572)",2012-12-02
142914,12/02/2012,Completed,12/17/2012,12-01953743,Pot Hole in Street,Final Outcome,Pothole Patched,2.0,5200 W JACKSON BLVD,60644.0,1141771.09379679,1898175.43832862,29.0,15.0,25.0,,41.876767373839314,-87.75506335969071,"(41.87676737383931, -87.75506335969071)",2012-12-02
142916,12/02/2012,Completed,12/19/2012,12-01953677,Pot Hole in Street,Final Outcome,Pothole Patched,17.0,4941 S HERMITAGE AVE,60609.0,1165513.77290787,1871910.62441171,16.0,9.0,61.0,,41.80369363272639,-87.66834041341791,"(41.80369363272639, -87.66834041341791)",2012-12-02
142917,12/02/2012,Completed,12/21/2012,12-01953873,Pot Hole in Street,Final Outcome,Pothole Patched,1.0,4638 W FULLERTON AVE,60639.0,1144927.44001865,1915552.25073248,31.0,25.0,19.0,,41.9243881487974,-87.74333832430544,"(41.9243881487974, -87.74333832430543)",2012-12-02
142918,12/02/2012,Completed,12/24/2012,12-01954064,Pot Hole in Street,Final Outcome,Pothole Patched,13.0,3900 S ASHLAND AVE,60609.0,1166251.36359693,1878852.7796125999,12.0,9.0,61.0,,41.82302765703953,-87.66574403109463,"(41.82302765703953, -87.66574403109463)",2012-12-02
142919,12/02/2012,Completed,12/26/2012,12-01953778,Pot Hole in Street,Final Outcome,Pothole Patched,4.0,3203 S KEDVALE AVE,60623.0,1149223.33592626,1883032.89720431,22.0,10.0,30.0,,41.83487585461771,-87.72781012083378,"(41.8348758546177, -87.72781012083378)",2012-12-02
142946,12/03/2012,Completed - Dup,12/03/2012,12-01959469,Pot Hole in Street,Final Outcome,CDOT Pavement Cave-In Survey Transfer Outcome,,3506 N LINCOLN AVE,60657.0,1164018.24681556,1923321.90437988,32.0,19.0,6.0,27.0,41.945315538796756,-87.67276466123155,"(41.94531553879676, -87.67276466123157)",2012-12-03
142947,12/03/2012,Completed - Dup,12/13/2012,12-01957762,Pot Hole in Street,,,,2400 N DAMEN AVE,60647.0,1162614.70988649,1915951.04987793,32.0,14.0,22.0,,41.925038006410325,-87.67804719101315,"(41.925038006410325, -87.67804719101314)",2012-12-03
142948,12/03/2012,Completed,03/07/2013,12-01956739,Pot Hole in Street,Final Outcome,No Potholes Found,0.0,1500 S CLARK ST,60605.0,1175769.4197728997,1893054.14999976,2.0,1.0,33.0,,41.86183245605749,-87.63039721061467,"(41.861832456057485, -87.63039721061467)",2012-12-03
142949,12/03/2012,Completed,12/03/2012,12-01955323,Pot Hole in Street,Final Outcome,Pothole Patched,2.0,200 N NB OUTER LAKE SHORE DR,60601.0,1180195.9375969,1901688.53389844,42.0,1.0,32.0,,41.88547712866709,-87.61375670412977,"(41.88547712866709, -87.61375670412978)",2012-12-03
142950,12/03/2012,Completed,12/03/2012,12-01955345,Pot Hole in Street,Final Outcome,Pothole Patched,1.0,1500 N NB OUTER LAKE SHORE DR,60610.0,1176871.50368125,1910417.9002327,43.0,18.0,8.0,,41.90961071719962,-87.62583364703184,"(41.90961071719962, -87.62583364703184)",2012-12-03
142951,12/03/2012,Completed,12/03/2012,12-01955359,Pot Hole in Street,Final Outcome,Pothole Patched,1.0,300 N NB OUTER LAKE SHORE DR,60601.0,1180158.26530377,1902263.01863411,42.0,1.0,32.0,,41.88704500525956,-87.6139864520668,"(41.88704500525956, -87.61398645206681)",2012-12-03
142952,12/03/2012,Completed,12/03/2012,12-01955371,Pot Hole in Street,Final Outcome,Pothole Patched,4.0,3500 S WESTERN AVE,60609.0,1160933.87590229,1881411.444377,12.0,9.0,59.0,,41.83018725526863,-87.68517792510231,"(41.83018725526863, -87.68517792510231)",2012-12-03
142953,12/03/2012,Completed,12/03/2012,12-01955384,Pot Hole in Street,Final Outcome,Pothole Patched,6.0,3200 S WESTERN AVE,60608.0,1160869.21591452,1883203.16637084,12.0,9.0,59.0,,41.835189744358175,-87.68536903536516,"(41.835189744358175, -87.68536903536516)",2012-12-03
142954,12/03/2012,Completed,12/03/2012,12-01955391,Pot Hole in Street,Final Outcome,Pothole Patched,10.0,2900 S WESTERN AVE,60608.0,1160855.63662684,1884726.3935034,25.0,10.0,31.0,,41.83936198697867,-87.68537576328144,"(41.83936198697867, -87.68537576328143)",2012-12-03
142955,12/03/2012,Completed,12/03/2012,12-01955409,Pot Hole in Street,Final Outcome,Pothole Patched,20.0,2800 S WESTERN AVE,60608.0,1160836.44469918,1885391.02008461,25.0,10.0,31.0,,41.84111017537837,-87.68542554468728,"(41.84111017537837, -87.68542554468726)",2012-12-03
142956,12/03/2012,Completed,12/03/2012,12-01955414,Pot Hole in Street,Final Outcome,Pothole Patched,12.0,2700 S WESTERN AVE,60608.0,1160808.41043185,1886199.67002766,25.0,10.0,31.0,,41.843307707458976,-87.68550216435803,"(41.843307707458976, -87.68550216435803)",2012-12-03
142957,12/03/2012,Completed,12/03/2012,12-01955426,Pot Hole in Street,Final Outcome,Pothole Patched,12.0,2600 S WESTERN AVE,60608.0,1160781.33259209,1886715.12421678,25.0,10.0,31.0,,41.84482037639013,-87.68559311409412,"(41.84482037639013, -87.68559311409413)",2012-12-03
142958,12/03/2012,Completed,12/03/2012,12-01955448,Pot Hole in Street,Final Outcome,Pothole Patched,1.0,2400 S WESTERN AVE,60608.0,1160747.22111062,1888012.61591,25.0,10.0,31.0,,41.84835204219205,-87.68568193449154,"(41.84835204219205, -87.68568193449154)",2012-12-03
142959,12/03/2012,Completed,12/03/2012,12-01955460,Pot Hole in Street,Final Outcome,Pothole Patched,40.0,2500 W 31ST ST,60608.0,1160239.20072799,1884354.41681527,12.0,10.0,30.0,,41.838480128018034,-87.68759653886005,"(41.838480128018034, -87.68759653886006)",2012-12-03
142960,12/03/2012,Completed,12/03/2012,12-01955468,Pot Hole in Street,Final Outcome,CDOT Pavement Cave-In Survey Transfer Outcome,,7700 S SOUTH CHICAGO AVE,60619.0,1187069.98182198,1854075.63101326,5.0,4.0,45.0,42.0,41.75456421583181,-87.5900471587293,"(41.754564215831806, -87.59004715872929)",2012-12-03
142961,12/03/2012,Completed,12/03/2012,12-01955476,Pot Hole in Street,Final Outcome,Pothole Patched,26.0,3500 S ARTESIAN AVE,60632.0,1160589.18998374,1881400.93999985,12.0,9.0,59.0,,41.83016572013869,-87.68644297516306,"(41.83016572013869, -87.68644297516306)",2012-12-03
142962,12/03/2012,Completed,12/03/2012,12-01955497,Pot Hole in Street,Final Outcome,Pothole Patched,44.0,2600 W 31ST ST,60608.0,1159680.77432488,1884270.97560433,12.0,10.0,30.0,,41.83806576411849,-87.68972021621781,"(41.838065764118504, -87.68972021621782)",2012-12-03
142963,12/03/2012,Completed,12/03/2012,12-01955817,Pot Hole in Street,Final Outcome,Pothole Patched,32.0,600 N HALSTED ST,60642.0,1170953.77908045,1904112.91649306,27.0,13.0,24.0,,41.892365986173026,-87.64775282419549,"(41.89236598617302, -87.6477528241955)",2012-12-03
142964,12/03/2012,Completed,12/03/2012,12-01955841,Pot Hole in Street,Final Outcome,Pothole Patched,0.0,5498 S WENTWORTH AVE,60609.0,1175898.82689054,1868384.85252762,3.0,2.0,68.0,,41.7942092237092,-87.63066690404557,"(41.794209223709196, -87.63066690404557)",2012-12-03
142965,12/03/2012,Completed,12/03/2012,12-01955855,Pot Hole in Street,Final Outcome,Pothole Patched,33.0,700 N HALSTED ST,60642.0,1170916.3139715,1905130.92012546,27.0,13.0,24.0,,41.89517817177649,-87.64786005448124,"(41.895178171776486, -87.64786005448123)",2012-12-03
142966,12/03/2012,Completed,12/03/2012,12-01955892,Pot Hole in Street,Final Outcome,Pothole Patched,0.0,1200 W ROOSEVELT RD,60608.0,1168555.64487118,1894849.95692583,2.0,12.0,28.0,,41.867105475025966,-87.6567450119244,"(41.867105475025966, -87.6567450119244)",2012-12-03
142967,12/03/2012,Completed,12/03/2012,12-01955898,Pot Hole in Street,Final Outcome,Pothole Patched,44.0,1400 W 16TH ST,60608.0,1167298.29978359,1892176.57988809,2.0,12.0,28.0,,41.85979543803608,-87.66149889094909,"(41.85979543803608, -87.66149889094909)",2012-12-03
142968,12/03/2012,Completed,12/03/2012,12-01955922,Pot Hole in Street,Final Outcome,Pothole Patched,44.0,1500 W 16TH ST,60608.0,1166635.43250835,1892156.47679164,2.0,12.0,28.0,,41.85975451755068,-87.66393049728704,"(41.85975451755067, -87.66393049728705)",2012-12-03
142969,12/03/2012,Completed,12/03/2012,12-01955942,Pot Hole in Street,Final Outcome,Pothole Patched,1.0,4200 S ARCHER AVE,60632.0,1157054.98327912,1876566.04159263,14.0,9.0,58.0,39.0,41.81710434630673,-87.69956371778528,"(41.81710434630673, -87.69956371778528)",2012-12-03
142970,12/03/2012,Completed,12/03/2012,12-01956415,Pot Hole in Street,Final Outcome,Pothole Patched,41.0,2900 E 80TH ST,60617.0,1196889.20942378,1852482.43738693,7.0,4.0,46.0,49.0,41.750188871859116,-87.5540196051367,"(41.750188871859116, -87.5540196051367)",2012-12-03
142971,12/03/2012,Completed,12/03/2012,12-01956422,Pot Hole in Street,Final Outcome,CDOT Street Cut Complaints Transfer Outcome,,517 W 43RD ST,60609.0,1173491.56010028,1876412.53563378,11.0,9.0,61.0,,41.816181381050185,-87.6392992284379,"(41.816181381050185, -87.6392992284379)",2012-12-03
142972,12/03/2012,Completed,12/03/2012,12-01956428,Pot Hole in Street,Final Outcome,Pothole Patched,11.0,2800 E 80TH ST,60617.0,1196228.12170728,1852464.41702105,7.0,4.0,46.0,49.0,41.750155839176095,-87.55644267424627,"(41.750155839176095, -87.55644267424626)",2012-12-03
142973,12/03/2012,Completed,12/03/2012,12-01956437,Pot Hole in Street,Final Outcome,Pothole Patched,15.0,2700 E 80TH ST,60617.0,1195566.28139993,1852445.87869357,7.0,4.0,46.0,49.0,41.750121341079826,-87.55886850867304,"(41.750121341079826, -87.55886850867304)",2012-12-03
142974,12/03/2012,Completed,12/03/2012,12-01956441,Pot Hole in Street,Final Outcome,Pothole Patched,8.0,8000 S MANISTEE AVE,60617.0,1195897.23737486,1852455.1479262002,7.0,4.0,46.0,,41.749935778562005,-87.55785847252352,"(41.749935778562005, -87.55785847252352)",2012-12-03
142975,12/03/2012,Completed,12/03/2012,12-01956450,Pot Hole in Street,Final Outcome,Pothole Patched,7.0,7900 S MANISTEE AVE,60617.0,1195882.82007641,1853117.35746805,7.0,4.0,46.0,49.0,41.751753132264845,-87.55788920971193,"(41.75175313226484, -87.55788920971194)",2012-12-03
142976,12/03/2012,Completed,12/03/2012,12-01956755,Pot Hole in Street,Final Outcome,Pothole Patched,0.0,820 S STATE ST,60605.0,1176485.11219525,1896572.99297277,2.0,1.0,32.0,,41.8715072100556,-87.6276638711726,"(41.871507210055604, -87.6276638711726)",2012-12-03
142977,12/03/2012,Completed,12/03/2012,12-01957027,Pot Hole in Street,Final Outcome,CDOT Street Cut Complaints Transfer Outcome,,707 S MICHIGAN AVE,60605.0,1177385.08898001,1897134.78293044,2.0,1.0,32.0,,41.87301057306094,-87.62404944221113,"(41.87301057306094, -87.62404944221113)",2012-12-03
142978,12/03/2012,Completed,12/03/2012,12-01957071,Pot Hole in Street,Final Outcome,CDOT Pavement Cave-In Survey Transfer Outcome,,737 E 84TH PL,60619.0,1182729.58518208,1848990.65860236,6.0,6.0,44.0,51.0,41.74079927162594,-87.60584531633127,"(41.74079927162594, -87.60584531633128)",2012-12-03
142979,12/03/2012,Completed,12/03/2012,12-01957622,Pot Hole in Street,Final Outcome,CDOT Pavement Cave-In Survey Transfer Outcome,,2915 W ARMITAGE AVE,60647.0,1156644.29998518,1913149.64079455,35.0,14.0,22.0,,41.91735238863295,-87.6998807079002,"(41.91735238863295, -87.6998807079002)",2012-12-03
142980,12/03/2012,Completed,12/03/2012,12-01957869,Pot Hole in Street,Final Outcome,Pothole Patched,106.0,8700 S MARQUETTE AVE,60617.0,1195763.92002251,1847814.14998666,7.0,4.0,46.0,,41.73720234359204,-87.55849888478512,"(41.73720234359204, -87.55849888478511)",2012-12-03
142981,12/03/2012,Completed,12/03/2012,12-01957900,Pot Hole in Street,Final Outcome,Pothole Patched,7.0,8200 S RACINE AVE,60620.0,1169748.47070721,1850415.12950719,21.0,6.0,71.0,,41.74494415883103,-87.65373715456344,"(41.74494415883103, -87.65373715456344)",2012-12-03
142982,12/03/2012,Completed,12/03/2012,12-01957915,Pot Hole in Street,Final Outcome,Pothole Patched,8.0,7900 S RACINE AVE,60620.0,1169693.20952857,1852404.57051478,21.0,6.0,71.0,32.0,41.75047492977839,-87.65388333439135,"(41.75047492977839, -87.65388333439135)",2012-12-03
142983,12/03/2012,Completed,12/03/2012,12-01957924,Pot Hole in Street,Final Outcome,Pothole Patched,39.0,7900 S THROOP ST,60620.0,1169031.05998733,1852386.23078862,21.0,6.0,71.0,32.0,41.750439064848216,-87.65631023585838,"(41.750439064848216, -87.65631023585837)",2012-12-03
142984,12/03/2012,Completed,12/03/2012,12-01957931,Pot Hole in Street,Final Outcome,Pothole Patched,21.0,1348 W 81ST ST,60620.0,1168658.16340069,1851048.62447458,21.0,6.0,71.0,,41.746903262967756,-87.65801460605721,"(41.74690326296776, -87.65801460605721)",2012-12-03
142985,12/03/2012,Completed,12/03/2012,12-01957958,Pot Hole in Street,Final Outcome,Pothole Patched,113.0,8759 S MARQUETTE AVE,60617.0,1195775.51787749,1847417.7477854,7.0,4.0,46.0,,41.73556334107462,-87.55816108828193,"(41.73556334107462, -87.55816108828193)",2012-12-03
142986,12/03/2012,Completed,12/03/2012,12-01957971,Pot Hole in Street,Final Outcome,CDOT Pavement Cave-In Survey Transfer Outcome,,4751 N TRIPP AVE,60630.0,1147188.98258571,1931304.71352717,39.0,17.0,14.0,,41.96788646411285,-87.73404562140762,"(41.967886464112844, -87.73404562140763)",2012-12-03
142987,12/03/2012,Completed,12/03/2012,12-01957972,Pot Hole in Street,Final Outcome,Pothole Patched,26.0,8400 S MARQUETTE AVE,60617.0,1195623.77396737,1849797.47940548,7.0,4.0,46.0,,41.74264957806529,-87.55894797389581,"(41.74264957806529, -87.55894797389581)",2012-12-03
142988,12/03/2012,Completed,12/03/2012,12-01957981,Pot Hole in Street,Final Outcome,Pothole Patched,5.0,2801 E 83RD ST,60617.0,1196284.4150007,1850477.93551121,10.0,4.0,46.0,,41.74448285793145,-87.55637342414282,"(41.74448285793145, -87.55637342414282)",2012-12-03
142989,12/03/2012,Completed,12/03/2012,12-01957986,Pot Hole in Street,Final Outcome,Pothole Patched,2.0,2724 E 83RD ST,60617.0,1195866.16532453,1850465.67619225,7.0,4.0,46.0,,41.744680987620534,-87.55776630753454,"(41.744680987620534, -87.55776630753455)",2012-12-03
142990,12/03/2012,Completed,12/03/2012,12-01958264,Pot Hole in Street,Final Outcome,Pothole Patched,4.0,4100 W EASTWOOD AVE,60630.0,1148226.90500839,1930646.57127674,39.0,17.0,14.0,,41.965751047354814,-87.7304250740926,"(41.965751047354814, -87.7304250740926)",2012-12-03
142991,12/03/2012,Completed,12/03/2012,12-01958280,Pot Hole in Street,Final Outcome,Pothole Patched,1.0,4658 N KENNICOTT AVE,60630.0,1147931.83010801,1930542.69550457,39.0,17.0,14.0,,41.9656931659791,-87.73125949171032,"(41.96569316597909, -87.73125949171032)",2012-12-03
142992,12/03/2012,Completed,12/03/2012,12-01958290,Pot Hole in Street,Final Outcome,Pothole Patched,2.0,4708 N KENNICOTT AVE,60630.0,1148080.84349683,1930703.62986624,39.0,17.0,14.0,,41.96588796844394,-87.7310144252087,"(41.96588796844394, -87.7310144252087)",2012-12-03
142993,12/03/2012,Completed,12/03/2012,12-01958476,Pot Hole in Street,Final Outcome,CDOT Pavement Cave-In Survey Transfer Outcome,,4645 S DRAKE AVE,60632.0,1153527.45897279,1873539.25282568,14.0,8.0,58.0,39.0,41.80851291309264,-87.71224987690071,"(41.808512913092635, -87.7122498769007)",2012-12-03
142994,12/03/2012,Completed,12/03/2012,12-01959468,Pot Hole in Street,Final Outcome,CDOT Pavement Cave-In Survey Transfer Outcome,,3506 N LINCOLN AVE,60657.0,1164018.24681556,1923321.90437988,32.0,19.0,6.0,27.0,41.945315538796756,-87.67276466123155,"(41.94531553879676, -87.67276466123157)",2012-12-03
142995,12/03/2012,Completed,12/04/2012,12-01954866,Pot Hole in Street,Final Outcome,Pothole Patched,46.0,8332 W ADDISON ST,60634.0,1119772.05642831,1922866.20747837,36.0,16.0,17.0,,41.94490090377502,-87.83524641433172,"(41.94490090377502, -87.83524641433172)",2012-12-03
142996,12/03/2012,Completed,12/04/2012,12-01956340,Pot Hole in Street,Final Outcome,No Potholes Found,0.0,4112 W MONTROSE AVE,60641.0,1148319.57447778,1928927.40198193,45.0,17.0,16.0,,41.96102845592857,-87.73032782091911,"(41.96102845592857, -87.73032782091911)",2012-12-03
142997,12/03/2012,Completed,12/04/2012,12-01956538,Pot Hole in Street,Final Outcome,Pothole Patched,6.0,6323 W EDDY ST,60634.0,1133595.19169774,1922942.57861877,36.0,16.0,17.0,,41.944657075126855,-87.78471515883324,"(41.94465707512685, -87.78471515883324)",2012-12-03
142998,12/03/2012,Completed,12/04/2012,12-01956540,Pot Hole in Street,Final Outcome,Pothole Patched,36.0,3202 N MOBILE AVE,60634.0,1133843.7840204,1920628.83796837,36.0,16.0,17.0,,41.93845613187747,-87.78365618236407,"(41.93845613187748, -87.78365618236406)",2012-12-03
142999,12/03/2012,Completed,12/04/2012,12-01956544,Pot Hole in Street,Final Outcome,Pothole Patched,9.0,3302 N MOBILE AVE,60634.0,1133818.91871838,1921297.66410982,36.0,16.0,17.0,,41.940290793640635,-87.78373237995724,"(41.94029079364063, -87.78373237995724)",2012-12-03
143000,12/03/2012,Completed,12/04/2012,12-01956550,Pot Hole in Street,Final Outcome,Pothole Patched,7.0,3402 N MOBILE AVE,60634.0,1133794.2508915002,1921967.10970746,36.0,16.0,17.0,,41.942128798100576,-87.7838068534033,"(41.942128798100576, -87.78380685340329)",2012-12-03
143001,12/03/2012,Completed,12/04/2012,12-01956553,Pot Hole in Street,Final Outcome,Pothole Patched,17.0,3502 N MOBILE AVE,60634.0,1133768.51386898,1922634.5415963002,36.0,16.0,17.0,,41.943965113662145,-87.78388624774685,"(41.94396511366214, -87.78388624774685)",2012-12-03
143002,12/03/2012,Completed,12/04/2012,12-01957601,Pot Hole in Street,Final Outcome,Pothole Patched,15.0,5648 N MANGO AVE,60646.0,1136878.04888907,1937190.83849097,45.0,16.0,11.0,,41.98437875057051,-87.77209199792664,"(41.98437875057051, -87.77209199792664)",2012-12-03
143003,12/03/2012,Completed,12/04/2012,12-01958268,Pot Hole in Street,Final Outcome,Pothole Patched,8.0,4751 N TRIPP AVE,60630.0,1147188.98258571,1931304.71352717,39.0,17.0,14.0,,41.96788646411285,-87.73404562140762,"(41.967886464112844, -87.73404562140763)",2012-12-03
143004,12/03/2012,Completed,12/04/2012,12-01958672,Pot Hole in Street,Final Outcome,Pothole Patched,7.0,5700 N DRAKE AVE,60659.0,1151687.32460656,1937643.94300337,39.0,17.0,13.0,,41.984863655495275,-87.7176286576528,"(41.98486365549527, -87.7176286576528)",2012-12-03
143005,12/03/2012,Completed,12/04/2012,12-01959045,Pot Hole in Street,Final Outcome,Pothole Patched,10.0,115 W 119TH ST,60628.0,1177565.48379596,1826045.63431708,9.0,5.0,53.0,,41.67788215544048,-87.62578917065336,"(41.67788215544048, -87.62578917065336)",2012-12-03
143006,12/03/2012,Completed,12/05/2012,12-01957301,Pot Hole in Street,Final Outcome,Pothole Patched,2.0,3850 W 109TH ST,60655.0,1152960.51970513,1832043.25259589,19.0,22.0,74.0,,41.69500615302258,-87.71760962134925,"(41.69500615302258, -87.71760962134927)",2012-12-03
143007,12/03/2012,Completed,12/06/2012,12-01956037,Pot Hole in Street,Final Outcome,Pothole Patched,22.0,11100 S RACINE AVE,60643.0,1170305.57317041,1831179.27740926,34.0,22.0,75.0,,41.692190976296246,-87.65225391250168,"(41.692190976296246, -87.65225391250168)",2012-12-03
143008,12/03/2012,Completed,12/06/2012,12-01956327,Pot Hole in Street,Final Outcome,Pothole Patched,21.0,6831 N MOSELLE AVE,60646.0,1134071.51981631,1945287.96021095,41.0,16.0,12.0,,42.00601997844308,-87.78194055732607,"(42.00601997844308, -87.78194055732607)",2012-12-03
143009,12/03/2012,Completed,12/06/2012,12-01956736,Pot Hole in Street,Final Outcome,Street Resurfaced,0.0,11500 S MARSHFIELD AVE,60643.0,1167430.75101927,1828446.71111645,34.0,22.0,75.0,,41.68470876286347,-87.66285575757462,"(41.684708762863465, -87.66285575757463)",2012-12-03
143010,12/03/2012,Completed,12/07/2012,12-01955430,Pot Hole in Street,Final Outcome,Pothole Patched,12.0,8100 S SPAULDING AVE,60652.0,1155791.09991648,1850701.49648945,18.0,8.0,70.0,,41.7460196476099,-87.70487044906227,"(41.7460196476099, -87.70487044906227)",2012-12-03
143011,12/03/2012,Completed,12/07/2012,12-01955432,Pot Hole in Street,Final Outcome,Pothole Patched,28.0,8100 S SAWYER AVE,60652.0,1156123.28311392,1850710.54542134,18.0,8.0,70.0,,41.746037957809406,-87.70365307928063,"(41.746037957809406, -87.70365307928063)",2012-12-03
143012,12/03/2012,Completed,12/07/2012,12-01956311,Pot Hole in Street,Final Outcome,Pothole Patched,32.0,8005 S SAWYER AVE,60652.0,1156105.29956954,1851342.64781136,18.0,8.0,70.0,,41.74775664899058,-87.70340790773248,"(41.747756648990574, -87.70340790773248)",2012-12-03
143013,12/03/2012,Completed,12/07/2012,12-01956659,Pot Hole in Street,Final Outcome,Pothole Patched,17.0,4622 N HAMLIN AVE,60625.0,1150222.03910966,1930534.98003246,39.0,17.0,14.0,,41.965294278536724,-87.72320144402326,"(41.96529427853673, -87.72320144402327)",2012-12-03
143014,12/03/2012,Completed,12/07/2012,12-01957364,Pot Hole in Street,Final Outcome,Pothole Patched,4.0,7200 S SPAULDING AVE,60629.0,1155616.23782726,1856679.78732825,18.0,8.0,66.0,,41.762431218255365,-87.7053523460969,"(41.76243121825537, -87.70535234609689)",2012-12-03
143015,12/03/2012,Completed,12/07/2012,12-01958361,Pot Hole in Street,Final Outcome,Pothole Patched,12.0,8400 S KOLIN AVE,60652.0,1148878.7546292,1848497.45239386,18.0,8.0,70.0,,41.74010723850626,-87.73025595072144,"(41.740107238506255, -87.73025595072143)",2012-12-03
143016,12/03/2012,Completed,12/07/2012,12-01958418,Pot Hole in Street,Final Outcome,Pothole Patched,22.0,7650 S HOYNE AVE,60620.0,1163681.73986985,1854242.46452533,18.0,6.0,71.0,,41.754250984838244,-87.67582493437071,"(41.754250984838244, -87.6758249343707)",2012-12-03
143017,12/03/2012,Completed,12/07/2012,12-01958452,Pot Hole in Street,Final Outcome,CDOT Pavement Cave-In Survey Transfer Outcome,0.0,8100 S MOZART ST,60652.0,1158799.90989748,1850272.37380454,18.0,8.0,70.0,,41.744852657423294,-87.69385969566414,"(41.74485265742329, -87.69385969566414)",2012-12-03
143018,12/03/2012,Completed,12/10/2012,12-01958841,Pot Hole in Street,Final Outcome,Pothole Patched,5.0,5961 N RIDGE AVE,60660.0,1164364.15997044,1939678.96002373,40.0,20.0,77.0,,41.99013026422491,-87.67059205397481,"(41.99013026422491, -87.67059205397483)",2012-12-03
143019,12/03/2012,Completed,12/10/2012,12-01959117,Pot Hole in Street,Final Outcome,Street Resurfaced,0.0,10600 S TORRENCE AVE,60617.0,1195536.44208565,1835232.78440388,10.0,4.0,51.0,,41.70268582664085,-87.55974770717656,"(41.702685826640845, -87.55974770717654)",2012-12-03
143020,12/03/2012,Completed,12/10/2012,12-01959295,Pot Hole in Street,Final Outcome,Pothole Patched,10.0,3905 W GRAND AVE,60651.0,1150090.28782028,1908650.4349868998,27.0,25.0,23.0,,41.905167916636096,-87.72422206718929,"(41.905167916636096, -87.72422206718929)",2012-12-03
143021,12/03/2012,Completed,12/11/2012,12-01954624,Pot Hole in Street,Final Outcome,Pothole Patched,1.0,1400 W HOWARD ST,60626.0,1165575.03097316,1950311.30950149,49.0,24.0,1.0,19.0,42.01935772774714,-87.66615094664895,"(42.01935772774714, -87.66615094664897)",2012-12-03
143022,12/03/2012,Completed,12/11/2012,12-01956072,Pot Hole in Street,Final Outcome,Pothole Patched,5.0,1127 W GEORGE ST,60657.0,1168272.48518407,1919412.50370776,44.0,19.0,6.0,,41.9342867389577,-87.65744563643334,"(41.9342867389577, -87.65744563643335)",2012-12-03
143023,12/03/2012,Completed,12/11/2012,12-01957825,Pot Hole in Street,Final Outcome,Pothole Patched,5.0,2800 W 46TH ST,60632.0,1158474.45668771,1874032.26426697,12.0,9.0,58.0,,41.810197260721075,-87.6943013908989,"(41.81019726072108, -87.69430139089889)",2012-12-03
143024,12/03/2012,Completed,12/11/2012,12-01958362,Pot Hole in Street,Final Outcome,Pothole Patched,1.0,6120 N BROADWAY,60660.0,1167191.95737529,1940801.21986849,48.0,24.0,77.0,26.0,41.99294413427923,-87.66050487502636,"(41.992944134279234, -87.66050487502636)",2012-12-03
143025,12/03/2012,Completed,12/12/2012,12-01954952,Pot Hole in Street,Final Outcome,Pothole Patched,2.0,1336 N SPRINGFIELD AVE,60651.0,1150133.78782028,1908696.8349869,30.0,25.0,23.0,,41.90543588284565,-87.72409502330014,"(41.90543588284566, -87.72409502330012)",2012-12-03
143026,12/03/2012,Completed,12/12/2012,12-01957506,Pot Hole in Street,Final Outcome,Pothole Patched,5.0,3420 W 63RD ST,60629.0,1154680.93339543,1862635.51790952,15.0,8.0,66.0,3.0,41.77898718896928,-87.70886381529701,"(41.778987188969275, -87.70886381529702)",2012-12-03
143027,12/03/2012,Completed,12/13/2012,12-01956973,Pot Hole in Street,Final Outcome,Street Resurfaced,0.0,10114 S WINSTON AVE,60643.0,1169168.29987657,1838011.18486905,21.0,22.0,73.0,,41.71088071995964,-87.65622541038141,"(41.71088071995964, -87.6562254103814)",2012-12-03
143028,12/03/2012,Completed,12/13/2012,12-01957462,Pot Hole in Street,Final Outcome,Pothole Patched,8.0,5700 S NARRAGANSETT AVE,60638.0,1134694.2225753001,1866067.00009191,23.0,8.0,56.0,,41.788580015023754,-87.78181413190977,"(41.788580015023754, -87.78181413190977)",2012-12-03
143029,12/03/2012,Completed,12/13/2012,12-01957686,Pot Hole in Street,Final Outcome,Pothole Patched,45.0,1332 W 90TH ST,60620.0,1168906.90426606,1845080.62802402,21.0,22.0,73.0,,41.73052512505132,-87.65689358965426,"(41.73052512505132, -87.65689358965425)",2012-12-03
143030,12/03/2012,Completed,12/14/2012,12-01958349,Pot Hole in Street,Final Outcome,Pothole Patched,33.0,10642 S LANGLEY AVE,60628.0,1182797.9225195,1834535.77952967,9.0,5.0,50.0,,41.700770858579695,-87.60640387671239,"(41.700770858579695, -87.6064038767124)",2012-12-03
143031,12/03/2012,Completed,12/18/2012,12-01956741,Pot Hole in Street,Final Outcome,No Potholes Found,0.0,655 E 50TH ST,60615.0,1181548.30792848,1872008.39112335,4.0,2.0,38.0,47.0,41.80392329815651,-87.60929107700234,"(41.80392329815651, -87.60929107700233)",2012-12-03
143032,12/03/2012,Completed,12/18/2012,12-01957993,Pot Hole in Street,Final Outcome,WM Sewer Cave In Inspection Transfer Outcome,0.0,5612 S LAFAYETTE AVE,60621.0,1176935.7123928003,1867771.6451047,3.0,2.0,40.0,,41.79230384633155,-87.62687552252861,"(41.79230384633155, -87.62687552252861)",2012-12-03
143033,12/03/2012,Completed,12/19/2012,12-01954864,Pot Hole in Street,Final Outcome,Pothole Patched,2.0,3300 W AUGUSTA BLVD,60651.0,1154270.74482214,1906466.54141195,27.0,11.0,23.0,,41.8992801915466,-87.7088841141954,"(41.899280191546595, -87.70888411419541)",2012-12-03
143034,12/03/2012,Completed,12/19/2012,12-01957649,Pot Hole in Street,Final Outcome,Pothole Patched,12.0,5500 S MASON AVE,60638.0,1137636.6800141002,1867503.33050214,23.0,8.0,56.0,,41.79247097522715,-87.77099036829489,"(41.79247097522715, -87.77099036829489)",2012-12-03
143035,12/03/2012,Completed,12/31/2012,12-01957995,Pot Hole in Street,Final Outcome,Pothole Patched,1.0,1225 N MILWAUKEE AVE,60642.0,1165540.78330894,1908283.15782437,1.0,14.0,24.0,33.0,41.90398223053985,-87.66723402005636,"(41.903982230539846, -87.66723402005636)",2012-12-03
143051,12/04/2012,Completed - Dup,12/05/2012,12-01960588,Pot Hole in Street,,,,3850 W 109TH ST,60655.0,1152960.51970513,1832043.25259589,19.0,22.0,74.0,,41.69500615302258,-87.71760962134925,"(41.69500615302258, -87.71760962134927)",2012-12-04
143052,12/04/2012,Completed - Dup,12/07/2012,12-01960595,Pot Hole in Street,,,,7650 S HOYNE AVE,60620.0,1163681.73986985,1854242.46452533,18.0,6.0,71.0,,41.754250984838244,-87.67582493437071,"(41.754250984838244, -87.6758249343707)",2012-12-04
143053,12/04/2012,Completed - Dup,12/24/2012,12-01963823,Pot Hole in Street,,,0.0,399 N SB OUTER LAKE SHORE DR,60601.0,1180054.82050103,1903174.22346727,42.0,18.0,8.0,,41.8895258573251,-87.61406229107675,"(41.88952585732509, -87.61406229107675)",2012-12-04
143054,12/04/2012,Completed,12/04/2012,12-01959828,Pot Hole in Street,Final Outcome,CDOT Street Cut Complaints Transfer Outcome,,3160 W 40TH ST,60632.0,1155927.28690156,1877921.92981479,14.0,9.0,58.0,,41.82090135622909,-87.70435103897991,"(41.82090135622909, -87.7043510389799)",2012-12-04
143055,12/04/2012,Completed,12/04/2012,12-01959864,Pot Hole in Street,Final Outcome,CDOT Street Cut Complaints Transfer Outcome,,4018 S KEELER AVE,60632.0,1149178.08550974,1877572.15027463,14.0,8.0,57.0,,41.819884577540215,-87.72841133592523,"(41.81988457754021, -87.72841133592523)",2012-12-04
143056,12/04/2012,Completed,12/04/2012,12-01959887,Pot Hole in Street,Final Outcome,CDOT Pavement Cave-In Survey Transfer Outcome,,1242 N MILWAUKEE AVE,60622.0,1165379.98330894,1908419.65782437,1.0,14.0,24.0,33.0,41.90425839047688,-87.66811128865896,"(41.904258390476876, -87.66811128865896)",2012-12-04
143057,12/04/2012,Completed,12/04/2012,12-01960239,Pot Hole in Street,Final Outcome,CDOT Street Cut Complaints Transfer Outcome,,3513 N CENTRAL AVE,60634.0,1138400.20417635,1922860.73131179,38.0,16.0,15.0,,41.944478829600726,-87.76656050340915,"(41.944478829600726, -87.76656050340915)",2012-12-04
143058,12/04/2012,Completed,12/04/2012,12-01960528,Pot Hole in Street,Final Outcome,CDOT Pavement Cave-In Survey Transfer Outcome,,1000 W HURON ST,60642.0,1169598.50177435,1904845.01978397,27.0,13.0,24.0,29.0,41.89451026220894,-87.65261376180166,"(41.89451026220894, -87.65261376180166)",2012-12-04
143059,12/04/2012,Completed,12/04/2012,12-01960859,Pot Hole in Street,Final Outcome,CDOT Pavement Cave-In Survey Transfer Outcome,,1124 S CENTRAL PARK AVE,60624.0,1152546.12399319,1894890.14160372,24.0,11.0,29.0,,41.86725588297427,-87.71559401184473,"(41.86725588297427, -87.71559401184474)",2012-12-04
143060,12/04/2012,Completed,12/04/2012,12-01961128,Pot Hole in Street,Final Outcome,Pothole Patched,18.0,158 W 119TH ST,60628.0,1177275.58171886,1826039.23957257,34.0,5.0,53.0,,41.67808211936304,-87.62740401192467,"(41.67808211936304, -87.62740401192467)",2012-12-04
143061,12/04/2012,Completed,12/04/2012,12-01961136,Pot Hole in Street,Final Outcome,Pothole Patched,3.0,200 W 119TH ST,60628.0,1177079.97671875,1826034.8599832,34.0,5.0,53.0,,41.67808120718608,-87.62752255334887,"(41.67808120718608, -87.62752255334887)",2012-12-04
143062,12/04/2012,Completed,12/04/2012,12-01961271,Pot Hole in Street,Final Outcome,CDOT Pavement Cave-In Survey Transfer Outcome,,1909 W 107TH ST,60643.0,1165369.86001542,1833692.52928022,19.0,22.0,75.0,,41.69912489415281,-87.67036568514219,"(41.69912489415281, -87.67036568514219)",2012-12-04
143063,12/04/2012,Completed,12/04/2012,12-01961285,Pot Hole in Street,Final Outcome,CDOT Street Cut Complaints Transfer Outcome,,10116 S EWING AVE,60617.0,1202148.54242368,1838530.57473386,10.0,4.0,52.0,,41.71144294648045,-87.53542665058302,"(41.711442946480446, -87.53542665058302)",2012-12-04
143064,12/04/2012,Completed,12/04/2012,12-01961424,Pot Hole in Street,Final Outcome,CDOT Street Cut Complaints Transfer Outcome,,2405 S KENNETH AVE,60623.0,1147136.04458894,1887644.3011877,22.0,10.0,29.0,,41.84747673386089,-87.73534869891365,"(41.84747673386089, -87.73534869891365)",2012-12-04
143065,12/04/2012,Completed,12/04/2012,12-01961441,Pot Hole in Street,Final Outcome,CDOT Street Cut Complaints Transfer Outcome,,4014 S LAKE SHORE DR NB,,,,,,,,41.82210992859419,-87.59883196802029,"(41.82210992859419, -87.59883196802028)",2012-12-04
143066,12/04/2012,Completed,12/04/2012,12-01961544,Pot Hole in Street,Final Outcome,CDOT Pavement Cave-In Survey Transfer Outcome,,7237 S RHODES AVE,60619.0,1181158.52039059,1857151.42501025,6.0,3.0,69.0,,41.76283975312593,-87.61142129057887,"(41.76283975312593, -87.61142129057887)",2012-12-04
143067,12/04/2012,Completed,12/04/2012,12-01961675,Pot Hole in Street,Final Outcome,CDOT Street Cut Complaints Transfer Outcome,,7013 W FARRAGUT AVE,60656.0,1128533.32479924,1934420.45529694,41.0,16.0,10.0,,41.97624349507706,-87.80298443601069,"(41.976243495077064, -87.80298443601069)",2012-12-04
143068,12/04/2012,Completed,12/04/2012,12-01961912,Pot Hole in Street,Final Outcome,CDOT Street Cut Complaints Transfer Outcome,,8238 S STONY ISLAND AVE,60617.0,1188358.64519786,1850679.83251325,8.0,4.0,45.0,50.0,41.744850239171306,-87.5859569756523,"(41.744850239171306, -87.5859569756523)",2012-12-04
143069,12/04/2012,Completed,12/04/2012,12-01962106,Pot Hole in Street,Final Outcome,CDOT Pavement Cave-In Survey Transfer Outcome,,5200 N SB OUTER LAKE SHORE DR,60640.0,1169890.50750477,1934794.3715323003,48.0,20.0,77.0,,41.976621627865406,-87.65079002624901,"(41.97662162786541, -87.650790026249)",2012-12-04
143070,12/04/2012,Completed,12/04/2012,12-01962394,Pot Hole in Street,Final Outcome,CDOT Pavement Cave-In Survey Transfer Outcome,,4322 S ARTESIAN AVE,60632.0,1160741.31092905,1875941.02759629,12.0,9.0,58.0,,41.814965142511824,-87.68603115593623,"(41.81496514251182, -87.68603115593623)",2012-12-04
143071,12/04/2012,Completed,12/04/2012,12-01962496,Pot Hole in Street,Final Outcome,No Potholes Found,0.0,100 E WACKER DR,60601.0,1177254.21152264,1902682.41978131,42.0,1.0,32.0,,41.88840303199289,-87.62439642277448,"(41.88840303199288, -87.62439642277448)",2012-12-04
143072,12/04/2012,Completed,12/04/2012,12-01962526,Pot Hole in Street,Final Outcome,Pothole Patched,1.0,500 W ROOSEVELT RD,60607.0,1173311.53102154,1894981.33462596,2.0,1.0,28.0,,41.867362692616666,-87.63929319464197,"(41.867362692616666, -87.63929319464197)",2012-12-04
143073,12/04/2012,Completed,12/04/2012,12-01962537,Pot Hole in Street,Final Outcome,Pothole Patched,17.0,600 W ROOSEVELT RD,60607.0,1172502.69790787,1894962.68539036,2.0,1.0,28.0,,41.867328391468575,-87.6422642382445,"(41.86732839146857, -87.6422642382445)",2012-12-04
143074,12/04/2012,Completed,12/04/2012,12-01962554,Pot Hole in Street,Final Outcome,Pothole Patched,30.0,3200 S ARCHER AVE,60608.0,1165396.13651252,1883504.23267506,11.0,9.0,59.0,,41.83595801848586,-87.66879026653764,"(41.83595801848586, -87.66879026653764)",2012-12-04
143075,12/04/2012,Completed,12/04/2012,12-01962638,Pot Hole in Street,Final Outcome,Pothole Patched,10.0,3300 S ARCHER AVE,60608.0,1164578.52436635,1882824.92309812,11.0,9.0,59.0,,41.834143923789675,-87.67175522517654,"(41.83414392378967, -87.67175522517654)",2012-12-04
143076,12/04/2012,Completed,12/04/2012,12-01962645,Pot Hole in Street,Final Outcome,Pothole Patched,1.0,3400 S ARCHER AVE,60608.0,1163731.46432202,1882119.54046769,11.0,9.0,59.0,,41.83223357562379,-87.67487116463238,"(41.83223357562379, -87.67487116463238)",2012-12-04
143077,12/04/2012,Completed,12/04/2012,12-01962650,Pot Hole in Street,Final Outcome,Pothole Patched,4.0,5700 S MASON AVE,60638.0,1137684.55732934,1866167.44682493,23.0,8.0,56.0,,41.78880366196266,-87.7708462781282,"(41.78880366196266, -87.7708462781282)",2012-12-04
143078,12/04/2012,Completed,12/04/2012,12-01963399,Pot Hole in Street,Final Outcome,CDOT Street Cut Complaints Transfer Outcome,,1700 N CENTRAL PARK AVE,60647.0,1152116.45059804,1911059.21420165,26.0,25.0,23.0,,41.91189926461185,-87.71675480136692,"(41.91189926461185, -87.71675480136692)",2012-12-04
143079,12/04/2012,Completed,12/04/2012,12-01963891,Pot Hole in Street,Final Outcome,CDOT Pavement Cave-In Survey Transfer Outcome,,1500 S RIDGEWAY AVE,60623.0,1151620.11180308,1892450.61492019,24.0,10.0,29.0,,41.860668448773744,-87.71906161726679,"(41.860668448773744, -87.7190616172668)",2012-12-04
143080,12/04/2012,Completed,12/04/2012,12-01964025,Pot Hole in Street,Final Outcome,CDOT Pavement Cave-In Survey Transfer Outcome,,4016 N CENTRAL AVE,60634.0,1138296.34747507,1926146.8148264,38.0,16.0,15.0,,41.95372655735031,-87.76716496584541,"(41.95372655735031, -87.7671649658454)",2012-12-04
143081,12/04/2012,Completed,12/04/2012,12-01964301,Pot Hole in Street,Final Outcome,CDOT Pavement Cave-In Survey Transfer Outcome,,4336 N ALBANY AVE,60618.0,1154938.26170053,1928654.96479881,33.0,17.0,16.0,60.0,41.96048812790446,-87.70592776380728,"(41.96048812790446, -87.70592776380728)",2012-12-04
143082,12/04/2012,Completed,12/04/2012,12-01964324,Pot Hole in Street,Final Outcome,CDOT Street Cut Complaints Transfer Outcome,,1932 W 118TH ST,60643.0,1165307.50218364,1826592.69147789,34.0,22.0,75.0,,41.67987815206823,-87.67053491595976,"(41.67987815206823, -87.67053491595975)",2012-12-04
143083,12/04/2012,Completed,12/05/2012,12-01961744,Pot Hole in Street,Final Outcome,Pothole Patched,3.0,10134 S LONGWOOD DR,60643.0,1165408.78222303,1837345.58039661,19.0,22.0,72.0,,41.70927502339489,-87.67003299450553,"(41.70927502339488, -87.67003299450553)",2012-12-04
143084,12/04/2012,Completed,12/06/2012,12-01959961,Pot Hole in Street,Final Outcome,Pothole Patched,8.0,2435 N NORDICA AVE,60707.0,1128682.75381601,1915409.21822707,36.0,25.0,18.0,,41.92464450658243,-87.80246571544123,"(41.92464450658243, -87.80246571544124)",2012-12-04
143085,12/04/2012,Completed,12/06/2012,12-01962190,Pot Hole in Street,Final Outcome,Pothole Patched,39.0,5700 N MENARD AVE,60646.0,1136551.7947181999,1937529.57482077,45.0,16.0,11.0,,41.98483883474493,-87.77329443297421,"(41.98483883474493, -87.77329443297421)",2012-12-04
143086,12/04/2012,Completed,12/07/2012,12-01961528,Pot Hole in Street,Final Outcome,Pothole Patched,15.0,8208 S SAWYER AVE,60652.0,1156143.27053388,1849991.44542446,18.0,8.0,70.0,,41.74398552530573,-87.70359814657141,"(41.743985525305725, -87.70359814657141)",2012-12-04
143087,12/04/2012,Completed,12/10/2012,12-01960063,Pot Hole in Street,Final Outcome,Pothole Patched,4.0,10332 S COMMERCIAL AVE,60617.0,1197159.88479888,1837018.83297504,10.0,4.0,51.0,,41.70743754880744,-87.55381156432037,"(41.70743754880744, -87.55381156432037)",2012-12-04
143088,12/04/2012,Completed,12/10/2012,12-01960311,Pot Hole in Street,Final Outcome,Pothole Patched,10.0,13400 S BURLEY AVE,60633.0,1199765.48660685,1816712.34847065,10.0,4.0,55.0,,41.65175690445607,-87.54488240023359,"(41.65175690445607, -87.54488240023359)",2012-12-04
143089,12/04/2012,Completed,12/10/2012,12-01960491,Pot Hole in Street,Final Outcome,Pothole Patched,2.0,7700 S SOUTH CHICAGO AVE,60619.0,1187069.98182198,1854075.63101326,5.0,4.0,45.0,42.0,41.75456421583181,-87.5900471587293,"(41.754564215831806, -87.59004715872929)",2012-12-04
143090,12/04/2012,Completed,12/10/2012,12-01961605,Pot Hole in Street,Final Outcome,Pothole Patched,19.0,13201 S AVENUE N,60633.0,1201409.72942793,1818016.53386684,10.0,4.0,55.0,,41.655318086761795,-87.53853171327962,"(41.655318086761795, -87.53853171327962)",2012-12-04
143091,12/04/2012,Completed,12/10/2012,12-01964290,Pot Hole in Street,Final Outcome,Pothole Patched,5.0,2836 E 106TH ST,60617.0,1196817.47012219,1835240.65646969,10.0,4.0,51.0,,41.70287684868596,-87.55485083185678,"(41.70287684868596, -87.55485083185678)",2012-12-04
143092,12/04/2012,Completed,12/10/2012,12-01964345,Pot Hole in Street,Final Outcome,Pothole Patched,24.0,1955 N CLARK ST,60614.0,1174148.52002394,1913347.30003192,43.0,18.0,7.0,,41.918254628314095,-87.63581940687786,"(41.918254628314095, -87.63581940687786)",2012-12-04
143093,12/04/2012,Completed,12/12/2012,12-01959802,Pot Hole in Street,Final Outcome,Pothole Patched,7.0,5300 S HONORE ST,60609.0,1164915.68926743,1869545.20880218,16.0,9.0,61.0,,41.797542294401595,-87.6709042554998,"(41.79754229440159, -87.6709042554998)",2012-12-04
143094,12/04/2012,Completed,12/12/2012,12-01961999,Pot Hole in Street,Final Outcome,Pothole Patched,1.0,5022 S ABERDEEN ST,60609.0,1169834.72850779,1871502.24780255,16.0,9.0,61.0,,41.80259072443295,-87.65280611211729,"(41.802590724432946, -87.65280611211728)",2012-12-04
143095,12/04/2012,Completed,12/12/2012,12-01962175,Pot Hole in Street,Final Outcome,Pothole Patched,2.0,8900 S LANGLEY AVE,60619.0,1182457.02317852,1846119.42679202,6.0,6.0,44.0,,41.73291636109806,-87.60730484636913,"(41.73291636109806, -87.60730484636913)",2012-12-04
143096,12/04/2012,Completed,12/13/2012,12-01959808,Pot Hole in Street,Final Outcome,Pothole Patched,2.0,5342 S HOYNE AVE,60609.0,1163269.6904318,1869118.75309397,16.0,9.0,61.0,,41.79627446605231,-87.67694808157532,"(41.79627446605231, -87.67694808157532)",2012-12-04
143097,12/04/2012,Completed,12/13/2012,12-01960378,Pot Hole in Street,Final Outcome,No Potholes Found,0.0,9500 S LAFAYETTE AVE,60628.0,1177612.81641084,1841960.9155671,21.0,5.0,49.0,,41.72156629257339,-87.62516951769949,"(41.72156629257339, -87.62516951769949)",2012-12-04
143099,12/04/2012,Completed,12/13/2012,12-01960596,Pot Hole in Street,Final Outcome,Pothole Patched,42.0,7300 S LUELLA AVE,60649.0,1192479.78847517,1856999.09822564,7.0,3.0,43.0,,41.76248829704551,-87.57023304577179,"(41.76248829704551, -87.57023304577179)",2012-12-04
143100,12/04/2012,Completed,12/13/2012,12-01964167,Pot Hole in Street,Final Outcome,Pothole Patched,1.0,3241 N DAMEN AVE,60618.0,1162439.49373004,1921628.04596851,32.0,19.0,5.0,,41.94078593602072,-87.6782430675856,"(41.940785936020724, -87.67824306758561)",2012-12-04
143101,12/04/2012,Completed,12/14/2012,12-01960685,Pot Hole in Street,Final Outcome,Pothole Patched,6.0,834 N SACRAMENTO BLVD,60622.0,1156066.14947522,1905557.45440331,26.0,13.0,23.0,,41.89670652044832,-87.70238515353941,"(41.89670652044832, -87.70238515353941)",2012-12-04
143102,12/04/2012,Completed,12/14/2012,12-01960708,Pot Hole in Street,Final Outcome,Pothole Patched,3.0,2915 W DIVISION ST,60622.0,1156682.32000726,1907842.57999156,26.0,13.0,24.0,,41.90278696694706,-87.70004420691211,"(41.90278696694706, -87.70004420691212)",2012-12-04
143103,12/04/2012,Completed,12/14/2012,12-01961652,Pot Hole in Street,Final Outcome,Completed Upon Arrival,0.0,4858 S SPRINGFIELD AVE,60632.0,1151187.92989988,1872126.86340833,14.0,8.0,57.0,,41.80433110319443,-87.72116345724739,"(41.80433110319443, -87.72116345724739)",2012-12-04
143104,12/04/2012,Completed,12/14/2012,12-01961701,Pot Hole in Street,Final Outcome,Pothole Patched,14.0,2359 S KENNETH AVE,60623.0,1147133.81000736,1887734.00000423,22.0,10.0,29.0,,41.84790140035506,-87.73535917013498,"(41.84790140035506, -87.73535917013498)",2012-12-04
143105,12/04/2012,Completed,12/14/2012,12-01962150,Pot Hole in Street,Final Outcome,Completed Upon Arrival,0.0,4645 S DRAKE AVE,60632.0,1153527.45897279,1873539.25282568,14.0,8.0,58.0,39.0,41.80851291309264,-87.71224987690071,"(41.808512913092635, -87.7122498769007)",2012-12-04
143106,12/04/2012,Completed,12/14/2012,12-01962704,Pot Hole in Street,Final Outcome,Completed Upon Arrival,0.0,3538 W FULLERTON AVE,60647.0,1152441.7101301001,1915729.00691532,26.0,14.0,22.0,,41.924726743703864,-87.71601738638563,"(41.92472674370386, -87.71601738638564)",2012-12-04
143107,12/04/2012,Completed,12/14/2012,12-01963558,Pot Hole in Street,Final Outcome,Pothole Patched,2.0,3444 W ALTGELD ST,60647.0,1152889.49032286,1916400.48530073,26.0,14.0,22.0,,41.92656359538915,-87.71398827162463,"(41.92656359538915, -87.71398827162463)",2012-12-04
143108,12/04/2012,Completed,12/18/2012,12-01959725,Pot Hole in Street,Final Outcome,Pothole Patched,7.0,1045 W DIVISION ST,60642.0,1169139.54759998,1908175.89913287,32.0,18.0,8.0,,41.90343987324909,-87.65425270702556,"(41.903439873249084, -87.65425270702556)",2012-12-04
143109,12/04/2012,Completed,12/18/2012,12-01962299,Pot Hole in Street,Final Outcome,No Potholes Found,0.0,6629 S CICERO AVE,60638.0,1145529.20739668,1860222.16989358,13.0,8.0,64.0,3.0,41.77207749190622,-87.7419334881871,"(41.77207749190622, -87.74193348818709)",2012-12-04
143110,12/04/2012,Completed,12/24/2012,12-01962661,Pot Hole in Street,Final Outcome,No Potholes Found,0.0,3200 S DAMEN AVE,60608.0,1163538.26167999,1883465.76160876,11.0,9.0,59.0,,41.835769938830104,-87.6755650067162,"(41.8357699388301, -87.67556500671618)",2012-12-04
143270,12/05/2012,Completed - Dup,01/02/2013,12-01967236,Pot Hole in Street,,,,5200 N SB OUTER LAKE SHORE DR,60640.0,1169890.50750477,1934794.3715323003,48.0,20.0,77.0,,41.976621627865406,-87.65079002624901,"(41.97662162786541, -87.650790026249)",2012-12-05
143271,12/05/2012,Completed - Dup,12/06/2012,12-01964819,Pot Hole in Street,,,,5700 N MENARD AVE,60646.0,1136551.7947181999,1937529.57482077,45.0,16.0,11.0,,41.98483883474493,-87.77329443297421,"(41.98483883474493, -87.77329443297421)",2012-12-05
143272,12/05/2012,Completed - Dup,12/10/2012,12-01965158,Pot Hole in Street,,,,2836 E 106TH ST,60617.0,1196817.47012219,1835240.65646969,10.0,4.0,51.0,,41.70287684868596,-87.55485083185678,"(41.70287684868596, -87.55485083185678)",2012-12-05
143273,12/05/2012,Completed,01/02/2013,12-01968882,Pot Hole in Street,Final Outcome,Pothole Patched,6.0,5100 W MADISON ST,60644.0,1142391.12008785,1899544.34589881,28.0,15.0,25.0,,41.88051357771224,-87.75266788339098,"(41.88051357771224, -87.75266788339098)",2012-12-05
143274,12/05/2012,Completed,01/02/2013,12-01968884,Pot Hole in Street,Final Outcome,Pothole Patched,8.0,5069 W MADISON ST,60644.0,1142592.92008785,1899549.04589881,28.0,15.0,25.0,,41.88029608947185,-87.7524941981518,"(41.880296089471855, -87.7524941981518)",2012-12-05
143275,12/05/2012,Completed,01/10/2013,12-01965740,Pot Hole in Street,Final Outcome,No Potholes Found,0.0,4600 N SB OUTER LAKE SHORE DR,60640.0,1170819.25572279,1930823.12970917,46.0,19.0,3.0,,41.96571848788779,-87.6474766550506,"(41.96571848788779, -87.64747665505061)",2012-12-05
143276,12/05/2012,Completed,12/05/2012,12-01964478,Pot Hole in Street,Final Outcome,CDOT Street Cut Complaints Transfer Outcome,,446 N MORGAN ST,60642.0,1169690.64818301,1903296.38523326,27.0,13.0,24.0,,41.890287972245495,-87.65241835509106,"(41.89028797224549, -87.65241835509106)",2012-12-05
143277,12/05/2012,Completed,12/05/2012,12-01964844,Pot Hole in Street,,,0.0,6302 N LEAVITT ST,60659.0,1160504.52941252,1941819.36561805,50.0,24.0,2.0,,41.99610029197141,-87.68508271362076,"(41.996100291971416, -87.68508271362077)",2012-12-05
143278,12/05/2012,Completed,12/05/2012,12-01965206,Pot Hole in Street,Final Outcome,CDOT Pavement Cave-In Survey Transfer Outcome,,333 N OAKLEY BLVD,60612.0,1161015.64887477,1902327.44131997,27.0,13.0,28.0,,41.88765477199285,-87.68400576517475,"(41.88765477199285, -87.68400576517475)",2012-12-05
143279,12/05/2012,Completed,12/05/2012,12-01965931,Pot Hole in Street,Final Outcome,Pothole Patched,17.0,11900 S INDIANA AVE,60628.0,1179713.1202843,1826102.75676604,9.0,5.0,53.0,,41.678049776506185,-87.6179653513342,"(41.678049776506185, -87.6179653513342)",2012-12-05
143280,12/05/2012,Completed,12/05/2012,12-01965959,Pot Hole in Street,Final Outcome,Pothole Patched,23.0,11800 S INDIANA AVE,60628.0,1179692.57321091,1826764.88619227,9.0,5.0,53.0,,41.67986721625819,-87.61802032593498,"(41.67986721625819, -87.61802032593499)",2012-12-05
143281,12/05/2012,Completed,12/05/2012,12-01965967,Pot Hole in Street,Final Outcome,Pothole Patched,24.0,11700 S INDIANA AVE,60628.0,1179677.11062061,1827275.52001119,9.0,5.0,53.0,,41.68128751520757,-87.6180627898799,"(41.68128751520757, -87.61806278987989)",2012-12-05
143282,12/05/2012,Completed,12/05/2012,12-01965980,Pot Hole in Street,Final Outcome,CDOT Pavement Cave-In Survey Transfer Outcome,,1623 E 55TH ST,60615.0,1187993.10999177,1868847.51599308,5.0,2.0,41.0,61.0,41.795093971135394,-87.58606980667435,"(41.79509397113539, -87.58606980667435)",2012-12-05
143283,12/05/2012,Completed,12/05/2012,12-01966600,Pot Hole in Street,Final Outcome,CDOT Pavement Cave-In Survey Transfer Outcome,,10622 S SANGAMON ST,60643.0,1171866.87519936,1834389.71667515,34.0,22.0,73.0,,41.70068329115893,-87.64643457972772,"(41.700683291158924, -87.64643457972772)",2012-12-05
143284,12/05/2012,Completed,12/05/2012,12-01966622,Pot Hole in Street,Final Outcome,CDOT Street Cut Complaints Transfer Outcome,,10501 S SANGAMON ST,60643.0,1171841.67117734,1835193.97367742,34.0,22.0,73.0,,41.703151969301096,-87.64621884877623,"(41.703151969301096, -87.64621884877624)",2012-12-05
143285,12/05/2012,Completed,12/05/2012,12-01966660,Pot Hole in Street,Final Outcome,CDOT Street Cut Complaints Transfer Outcome,,10501 S SANGAMON ST,60643.0,1171841.67117734,1835193.97367742,34.0,22.0,73.0,,41.703151969301096,-87.64621884877623,"(41.703151969301096, -87.64621884877624)",2012-12-05
143286,12/05/2012,Completed,12/05/2012,12-01966771,Pot Hole in Street,Final Outcome,CDOT Pavement Cave-In Survey Transfer Outcome,,11448 S HALSTED ST,60628.0,1173035.24082436,1828934.98001556,34.0,22.0,75.0,45.0,41.685452611770145,-87.64230952738747,"(41.68545261177015, -87.64230952738747)",2012-12-05
143287,12/05/2012,Completed,12/05/2012,12-01966870,Pot Hole in Street,Final Outcome,CDOT Pavement Cave-In Survey Transfer Outcome,,329 W 115TH ST,60628.0,1176026.4949836,1828667.85181156,34.0,5.0,53.0,,41.68511122700365,-87.63121721814608,"(41.68511122700365, -87.63121721814608)",2012-12-05
143288,12/05/2012,Completed,12/05/2012,12-01966967,Pot Hole in Street,Final Outcome,Pothole Patched,3.0,115 W 119TH ST,60628.0,1177565.48379596,1826045.63431708,9.0,5.0,53.0,,41.67788215544048,-87.62578917065336,"(41.67788215544048, -87.62578917065336)",2012-12-05
143289,12/05/2012,Completed,12/05/2012,12-01966988,Pot Hole in Street,Final Outcome,Pothole Patched,30.0,12000 S STATE ST,60628.0,1178411.77539484,1825400.54369693,9.0,5.0,53.0,,41.67615333756436,-87.62275051225424,"(41.67615333756436, -87.62275051225424)",2012-12-05
143290,12/05/2012,Completed,12/05/2012,12-01967006,Pot Hole in Street,Final Outcome,CDOT Street Cut Complaints Transfer Outcome,,10445 S SANGAMON ST,60643.0,1171830.15193127,1835562.9986712,34.0,22.0,73.0,,41.703685879658934,-87.6462355616387,"(41.70368587965894, -87.6462355616387)",2012-12-05
143291,12/05/2012,Completed,12/05/2012,12-01967042,Pot Hole in Street,Final Outcome,CDOT Street Cut Complaints Transfer Outcome,,10420 S SANGAMON ST,60643.0,1171824.85193127,1835730.7986711997,34.0,22.0,73.0,,41.704404402711646,-87.64655053447952,"(41.704404402711646, -87.64655053447953)",2012-12-05
143292,12/05/2012,Completed,12/05/2012,12-01967055,Pot Hole in Street,Final Outcome,CDOT Street Cut Complaints Transfer Outcome,,10405 S SANGAMON ST,60643.0,1171821.75193127,1835831.3986711998,34.0,22.0,73.0,,41.704858422459786,-87.64627143472336,"(41.704858422459786, -87.64627143472336)",2012-12-05
143293,12/05/2012,Completed,12/05/2012,12-01967078,Pot Hole in Street,Final Outcome,CDOT Pavement Cave-In Survey Transfer Outcome,,4005 W DIVERSEY AVE,60639.0,1149207.44637543,1918316.78969304,31.0,25.0,22.0,,41.93167568430326,-87.72725121642891,"(41.93167568430326, -87.7272512164289)",2012-12-05
143294,12/05/2012,Completed,12/05/2012,12-01967086,Pot Hole in Street,Final Outcome,CDOT Street Cut Complaints Transfer Outcome,,10537 S RACINE AVE,60643.0,1170190.57652447,1834916.899889,34.0,22.0,73.0,,41.70203484784522,-87.65226090388809,"(41.70203484784522, -87.65226090388809)",2012-12-05
143295,12/05/2012,Completed,12/05/2012,12-01967111,Pot Hole in Street,Final Outcome,CDOT Street Cut Complaints Transfer Outcome,,10201 S RACINE AVE,60643.0,1170121.70419133,1837149.86008632,34.0,22.0,73.0,,41.708556201516814,-87.65246121150267,"(41.70855620151681, -87.65246121150267)",2012-12-05
143296,12/05/2012,Completed,12/05/2012,12-01967145,Pot Hole in Street,Final Outcome,CDOT Street Cut Complaints Transfer Outcome,,10114 S RACINE AVE,60643.0,1170109.76862294,1837723.71999037,34.0,22.0,73.0,,41.70997114363443,-87.6527885438383,"(41.70997114363442, -87.6527885438383)",2012-12-05
143297,12/05/2012,Completed,12/05/2012,12-01967175,Pot Hole in Street,Final Outcome,CDOT Street Cut Complaints Transfer Outcome,,10100 S RACINE AVE,60643.0,1170107.86862294,1837817.11999037,34.0,22.0,73.0,,41.710370907340774,-87.6527905740064,"(41.710370907340774, -87.6527905740064)",2012-12-05
143298,12/05/2012,Completed,12/05/2012,12-01967195,Pot Hole in Street,Final Outcome,CDOT Street Cut Complaints Transfer Outcome,,10047 S RACINE AVE,60643.0,1170197.54509107,1838165.16012109,34.0,22.0,73.0,,41.7108934948719,-87.6524520361726,"(41.7108934948719, -87.6524520361726)",2012-12-05
143299,12/05/2012,Completed,12/05/2012,12-01967209,Pot Hole in Street,Final Outcome,Pothole Patched,2.0,2717 N LEAVITT ST,60647.0,1161947.71568783,1918022.68878178,1.0,19.0,7.0,,41.93092150251976,-87.6802200458293,"(41.93092150251976, -87.6802200458293)",2012-12-05
143300,12/05/2012,Completed,12/05/2012,12-01967250,Pot Hole in Street,Final Outcome,CDOT Pavement Cave-In Survey Transfer Outcome,,10014 S RACINE AVE,60643.0,1170254.44509107,1838385.96012109,34.0,22.0,73.0,,41.711858252842696,-87.65243327209153,"(41.711858252842696, -87.65243327209153)",2012-12-05
143301,12/05/2012,Completed,12/05/2012,12-01967273,Pot Hole in Street,Final Outcome,CDOT Street Cut Complaints Transfer Outcome,,9957 S RACINE AVE,60643.0,1170385.89998743,1838626.81998976,34.0,22.0,73.0,,41.712308930672116,-87.65179350740858,"(41.712308930672116, -87.65179350740858)",2012-12-05
143302,12/05/2012,Completed,12/05/2012,12-01967295,Pot Hole in Street,Final Outcome,CDOT Street Cut Complaints Transfer Outcome,,9900 S RACINE AVE,60643.0,1170067.35202505,1839141.73719317,21.0,22.0,73.0,,41.714048621719996,-87.65289655543188,"(41.71404862171999, -87.65289655543187)",2012-12-05
143303,12/05/2012,Completed,12/05/2012,12-01967386,Pot Hole in Street,Final Outcome,CDOT Street Cut Complaints Transfer Outcome,,801 W 100TH ST,60643.0,1172731.44172919,1838535.47949439,34.0,22.0,73.0,45.0,41.71226120739368,-87.6430270101263,"(41.712261207393674, -87.64302701012632)",2012-12-05
143304,12/05/2012,Completed,12/05/2012,12-01967413,Pot Hole in Street,Final Outcome,CDOT Street Cut Complaints Transfer Outcome,,10001 S PEORIA ST,60643.0,1172078.09802212,1838513.06918329,34.0,22.0,73.0,,41.71225516782145,-87.64525618372782,"(41.712255167821446, -87.64525618372782)",2012-12-05
143305,12/05/2012,Completed,12/05/2012,12-01967438,Pot Hole in Street,Final Outcome,CDOT Street Cut Complaints Transfer Outcome,,10004 S PEORIA ST,60643.0,1172078.59802212,1838493.06918329,34.0,22.0,73.0,,41.71213408452468,-87.6455456703639,"(41.71213408452468, -87.6455456703639)",2012-12-05
143306,12/05/2012,Completed,12/05/2012,12-01967495,Pot Hole in Street,Final Outcome,CDOT Pavement Cave-In Survey Transfer Outcome,,10214 S PEORIA ST,60643.0,1172116.384998,1837102.5507047002,34.0,22.0,73.0,45.0,41.70822296350425,-87.6454466070126,"(41.70822296350425, -87.64544660701259)",2012-12-05
143307,12/05/2012,Completed,12/05/2012,12-01967547,Pot Hole in Street,Final Outcome,CDOT Street Cut Complaints Transfer Outcome,,10470 S ABERDEEN ST,60643.0,1170840.90018512,1835323.62630148,34.0,22.0,73.0,,41.70324840124329,-87.65016521711638,"(41.703248401243286, -87.65016521711638)",2012-12-05
143308,12/05/2012,Completed,12/05/2012,12-01967564,Pot Hole in Street,Final Outcome,Completed Upon Arrival,0.0,10200 S WASHTENAW AVE,60655.0,1160165.06339986,1836893.14447272,19.0,22.0,72.0,,41.708040174736645,-87.68922181143849,"(41.708040174736645, -87.68922181143849)",2012-12-05
143309,12/05/2012,Completed,12/05/2012,12-01967573,Pot Hole in Street,Final Outcome,CDOT Street Cut Complaints Transfer Outcome,,10622 S UNION AVE,60628.0,1173525.10369671,1834428.00262712,34.0,22.0,49.0,,41.70077264189639,-87.64036315848342,"(41.700772641896386, -87.64036315848342)",2012-12-05
143310,12/05/2012,Completed,12/05/2012,12-01967591,Pot Hole in Street,Final Outcome,CDOT Street Cut Complaints Transfer Outcome,,10444 S ABERDEEN ST,60643.0,1170837.18702351,1835452.67873342,34.0,22.0,73.0,,41.70369077152224,-87.65017616676948,"(41.70369077152224, -87.65017616676948)",2012-12-05
143311,12/05/2012,Completed,12/05/2012,12-01967597,Pot Hole in Street,Final Outcome,Pothole Patched,25.0,10300 S FAIRFIELD AVE,60655.0,1159961.05679098,1836235.86772471,19.0,22.0,72.0,,41.70623928455794,-87.68998675901393,"(41.70623928455794, -87.68998675901393)",2012-12-05
143312,12/05/2012,Completed,12/05/2012,12-01967612,Pot Hole in Street,Final Outcome,CDOT Street Cut Complaints Transfer Outcome,,1032 W 104TH ST,60643.0,1171273.94340738,1835854.29961987,34.0,22.0,73.0,,41.705150938864975,-87.64897249407377,"(41.705150938864975, -87.64897249407377)",2012-12-05
143313,12/05/2012,Completed,12/05/2012,12-01967620,Pot Hole in Street,Final Outcome,CDOT Pavement Cave-In Survey Transfer Outcome,,10254 S HALSTED ST,60628.0,1172787.62980352,1836849.48842413,34.0,22.0,73.0,45.0,41.70711838183018,-87.6429869950003,"(41.70711838183018, -87.64298699500029)",2012-12-05
143314,12/05/2012,Completed,12/05/2012,12-01967642,Pot Hole in Street,Final Outcome,CDOT Pavement Cave-In Survey Transfer Outcome,,1112 W 104TH ST,60643.0,1170744.28298776,1835843.11722621,34.0,22.0,73.0,,41.70513554292717,-87.65064827748701,"(41.70513554292717, -87.65064827748702)",2012-12-05
143315,12/05/2012,Completed,12/05/2012,12-01967660,Pot Hole in Street,Final Outcome,CDOT Street Cut Complaints Transfer Outcome,,1107 W 103RD ST,60643.0,1170727.33842435,1836507.04591287,34.0,22.0,73.0,,41.70674030328908,-87.65041967505866,"(41.70674030328908, -87.65041967505866)",2012-12-05
143316,12/05/2012,Completed,12/05/2012,12-01967907,Pot Hole in Street,Final Outcome,CDOT Street Cut Complaints Transfer Outcome,,1153 W 103RD PL,60643.0,1170459.22891644,1836169.54000798,34.0,22.0,73.0,,41.70581086515596,-87.65218261737458,"(41.70581086515596, -87.65218261737458)",2012-12-05
143317,12/05/2012,Completed,12/05/2012,12-01967943,Pot Hole in Street,Final Outcome,CDOT Street Cut Complaints Transfer Outcome,,1127 W 104TH ST,60643.0,1170643.88298776,1835841.21722621,34.0,22.0,73.0,,41.70491087353007,-87.65117204102856,"(41.70491087353007, -87.65117204102857)",2012-12-05
143318,12/05/2012,Completed,12/05/2012,12-01967983,Pot Hole in Street,Final Outcome,CDOT Street Cut Complaints Transfer Outcome,,1112 W 104TH ST,60643.0,1170744.28298776,1835843.11722621,34.0,22.0,73.0,,41.70513554292717,-87.65064827748701,"(41.70513554292717, -87.65064827748702)",2012-12-05
143319,12/05/2012,Completed,12/05/2012,12-01968043,Pot Hole in Street,Final Outcome,CDOT Street Cut Complaints Transfer Outcome,,1100 W 104TH ST,60643.0,1170824.68298776,1835844.71722621,34.0,22.0,73.0,,41.705138979221275,-87.65019553228544,"(41.70513897922127, -87.65019553228544)",2012-12-05
143320,12/05/2012,Completed,12/05/2012,12-01968058,Pot Hole in Street,Final Outcome,CDOT Street Cut Complaints Transfer Outcome,,320 E 48TH ST,60615.0,1179063.21870063,1873263.37982915,3.0,2.0,38.0,56.0,41.8076392296419,-87.61861224301676,"(41.8076392296419, -87.61861224301676)",2012-12-05
143321,12/05/2012,Completed,12/05/2012,12-01968287,Pot Hole in Street,Final Outcome,CDOT Street Cut Complaints Transfer Outcome,,1009 W 104TH ST,60643.0,1171428.14340738,1835857.59961987,34.0,22.0,73.0,,41.70494121026003,-87.64806271239323,"(41.70494121026003, -87.64806271239324)",2012-12-05
143322,12/05/2012,Completed,12/05/2012,12-01968307,Pot Hole in Street,Final Outcome,CDOT Street Cut Complaints Transfer Outcome,,820 W 104TH ST,60643.0,1172602.76911987,1835880.31751794,34.0,22.0,73.0,45.0,41.70519747650609,-87.64374973259727,"(41.705197476506086, -87.64374973259726)",2012-12-05
143323,12/05/2012,Completed,12/05/2012,12-01968332,Pot Hole in Street,Final Outcome,CDOT Street Cut Complaints Transfer Outcome,,824 W 105TH ST,60643.0,1172580.54517073,1835216.88638441,34.0,22.0,73.0,45.0,41.70337624556987,-87.64387723629255,"(41.70337624556987, -87.64387723629254)",2012-12-05
143324,12/05/2012,Completed,12/05/2012,12-01968373,Pot Hole in Street,Final Outcome,CDOT Street Cut Complaints Transfer Outcome,,10500 S MORGAN ST,60643.0,1171509.01587611,1835193.97117568,34.0,22.0,73.0,,41.70313593703572,-87.64772936050836,"(41.70313593703572, -87.64772936050838)",2012-12-05
143325,12/05/2012,Completed,12/06/2012,12-01964774,Pot Hole in Street,Final Outcome,Pothole Patched,4.0,1802 N CALIFORNIA AVE,60647.0,1157420.21200007,1911895.12997718,35.0,14.0,22.0,,41.914085031280564,-87.69724631625431,"(41.91408503128056, -87.69724631625432)",2012-12-05
143326,12/05/2012,Completed,12/06/2012,12-01964778,Pot Hole in Street,Final Outcome,Pothole Patched,1.0,2202 N CALIFORNIA AVE,60647.0,1157337.89732884,1914718.51998463,35.0,14.0,22.0,,41.921783497519044,-87.69747027398036,"(41.92178349751905, -87.69747027398036)",2012-12-05
143327,12/05/2012,Completed,12/06/2012,12-01964790,Pot Hole in Street,Final Outcome,Pothole Patched,4.0,1722 N NASHVILLE AVE,60707.0,1132149.7083763,1910736.66977327,36.0,25.0,25.0,,41.91160695874182,-87.79012186047413,"(41.91160695874182, -87.79012186047412)",2012-12-05
143328,12/05/2012,Completed,12/06/2012,12-01964795,Pot Hole in Street,Final Outcome,Pothole Patched,2.0,1806 N NASHVILLE AVE,60707.0,1132133.36067109,1911292.50972434,36.0,25.0,25.0,,41.912974307721356,-87.79016249663825,"(41.91297430772135, -87.79016249663825)",2012-12-05
143329,12/05/2012,Completed,12/06/2012,12-01964800,Pot Hole in Street,Final Outcome,Pothole Patched,11.0,3200 N OKETO AVE,60634.0,1126283.90021555,1920423.64657428,36.0,16.0,17.0,,41.93806442506378,-87.81145095294613,"(41.938064425063786, -87.81145095294613)",2012-12-05
143330,12/05/2012,Completed,12/06/2012,12-01964806,Pot Hole in Street,Final Outcome,Pothole Patched,5.0,6801 W BELMONT AVE,60634.0,1130516.59379819,1920513.11912362,36.0,25.0,18.0,,41.938047479707926,-87.79575466222033,"(41.93804747970793, -87.79575466222033)",2012-12-05
143331,12/05/2012,Completed,12/06/2012,12-01964813,Pot Hole in Street,Final Outcome,Pothole Patched,2.0,6401 W DIVERSEY AVE,60707.0,1133256.10640794,1917922.28140683,36.0,25.0,19.0,,41.930891031810205,-87.7857473539026,"(41.9308910318102, -87.7857473539026)",2012-12-05
143332,12/05/2012,Completed,12/06/2012,12-01966700,Pot Hole in Street,Final Outcome,Pothole Patched,8.0,1003 W 102ND ST,60643.0,1171417.92790894,1837182.46602592,34.0,22.0,73.0,45.0,41.708577600709695,-87.64789340005255,"(41.708577600709695, -87.64789340005254)",2012-12-05
143333,12/05/2012,Completed,12/06/2012,12-01966721,Pot Hole in Street,Final Outcome,Pothole Patched,7.0,1050 W 102ND ST,60643.0,1171029.04290253,1837175.41283242,34.0,22.0,73.0,,41.70878177604909,-87.64984305105051,"(41.70878177604909, -87.64984305105051)",2012-12-05
143334,12/05/2012,Completed,12/06/2012,12-01966734,Pot Hole in Street,Final Outcome,Pothole Patched,25.0,10200 S MAY ST,60643.0,1170454.35297529,1837162.51378601,34.0,22.0,73.0,,41.70856168383217,-87.65153484147244,"(41.70856168383217, -87.65153484147243)",2012-12-05
143335,12/05/2012,Completed,12/06/2012,12-01966756,Pot Hole in Street,Final Outcome,Pothole Patched,29.0,10233 S MAY ST,60643.0,1170460.45297529,1836942.31378601,34.0,22.0,73.0,,41.70766576848828,-87.65122217087601,"(41.707665768488276, -87.65122217087601)",2012-12-05
143336,12/05/2012,Completed,12/06/2012,12-01966795,Pot Hole in Street,Final Outcome,Pothole Patched,23.0,607 W 119TH ST,60628.0,1174374.85999545,1825973.6239957002,34.0,5.0,53.0,,41.6777536426924,-87.63742173076383,"(41.6777536426924, -87.63742173076383)",2012-12-05
143337,12/05/2012,Completed,12/06/2012,12-01967030,Pot Hole in Street,Final Outcome,Pothole Patched,18.0,1932 W 118TH ST,60643.0,1165307.50218364,1826592.69147789,34.0,22.0,75.0,,41.67987815206823,-87.67053491595976,"(41.67987815206823, -87.67053491595975)",2012-12-05
143338,12/05/2012,Completed,12/06/2012,12-01967224,Pot Hole in Street,Final Outcome,Pothole Patched,36.0,10622 S SANGAMON ST,60643.0,1171866.87519936,1834389.71667515,34.0,22.0,73.0,,41.70068329115893,-87.64643457972772,"(41.700683291158924, -87.64643457972772)",2012-12-05
143339,12/05/2012,Completed,12/07/2012,12-01964842,Pot Hole in Street,Final Outcome,Pothole Patched,12.0,4020 W WILSON AVE,60630.0,1148691.24762733,1930082.2302146999,39.0,17.0,14.0,,41.96419274568023,-87.72881328254755,"(41.96419274568023, -87.72881328254755)",2012-12-05
143340,12/05/2012,Completed,12/07/2012,12-01965051,Pot Hole in Street,Final Outcome,Pothole Patched,3.0,4500 N DAMEN AVE,60625.0,1162200.88308527,1929886.39080187,47.0,19.0,4.0,,41.963318710292256,-87.67917764276476,"(41.963318710292256, -87.67917764276477)",2012-12-05
143341,12/05/2012,Completed,12/07/2012,12-01966569,Pot Hole in Street,Final Outcome,Pothole Patched,52.0,3800 W 87TH ST,60652.0,1152587.58590055,1846607.23847436,18.0,8.0,70.0,,41.73504969043052,-87.7166983196048,"(41.73504969043052, -87.71669831960479)",2012-12-05
143342,12/05/2012,Completed,12/07/2012,12-01967253,Pot Hole in Street,Final Outcome,Pothole Patched,4.0,3740 N CLAREMONT AVE,60618.0,1160039.75378582,1924781.47967262,47.0,19.0,5.0,38.0,41.94979477123385,-87.68727816850577,"(41.94979477123384, -87.68727816850577)",2012-12-05
143343,12/05/2012,Completed,12/07/2012,12-01967406,Pot Hole in Street,Final Outcome,Completed Upon Arrival,0.0,5451 N BERNARD ST,60625.0,1152406.65941509,1936013.99581305,39.0,17.0,13.0,,41.980859687158976,-87.71474338701486,"(41.98085968715898, -87.71474338701488)",2012-12-05
143344,12/05/2012,Completed,12/07/2012,12-01968628,Pot Hole in Street,Final Outcome,Pothole Patched,3.0,4900 N BELL AVE,60625.0,1160470.22042282,1932501.70722968,47.0,20.0,4.0,,41.97057502306463,-87.68546950879595,"(41.97057502306463, -87.68546950879596)",2012-12-05
143345,12/05/2012,Completed,12/10/2012,12-01968258,Pot Hole in Street,Final Outcome,Completed Upon Arrival,0.0,1229 W CABRINI ST,60607.0,1168166.64023166,1896412.95500208,2.0,12.0,28.0,,41.871185794063976,-87.65797261711424,"(41.87118579406398, -87.65797261711423)",2012-12-05
143346,12/05/2012,Completed,12/10/2012,12-01968755,Pot Hole in Street,Final Outcome,Pothole Patched,5.0,998 E MIDWAY PLAISANCE,60637.0,1183910.23961365,1865629.42108933,5.0,2.0,41.0,,41.78728838492496,-87.60134289836394,"(41.787288384924956, -87.60134289836394)",2012-12-05
143347,12/05/2012,Completed,12/11/2012,12-01964867,Pot Hole in Street,Final Outcome,Completed Upon Arrival,0.0,525 W 43RD ST,60609.0,1173409.86010028,1876409.93563378,11.0,9.0,61.0,,41.81617925282676,-87.63942131998303,"(41.81617925282676, -87.63942131998303)",2012-12-05
143348,12/05/2012,Completed,12/11/2012,12-01966883,Pot Hole in Street,Final Outcome,Pothole Patched,1.0,829 W FULTON MARKET,60607.0,1170699.53278972,1902078.61959743,27.0,12.0,28.0,,41.886677453971,-87.64860981183432,"(41.886677453971, -87.64860981183432)",2012-12-05
143349,12/05/2012,Completed,12/11/2012,12-01967528,Pot Hole in Street,Final Outcome,Pothole Patched,1.0,446 N MORGAN ST,60642.0,1169690.64818301,1903296.38523326,27.0,13.0,24.0,,41.890287972245495,-87.65241835509106,"(41.89028797224549, -87.65241835509106)",2012-12-05
143350,12/05/2012,Completed,12/12/2012,12-01967335,Pot Hole in Street,Final Outcome,Pothole Patched,10.0,10608 S SAWYER AVE,60655.0,1156561.2029993,1834069.72471561,19.0,22.0,74.0,,41.700284497922375,-87.70249219097191,"(41.700284497922375, -87.70249219097191)",2012-12-05
143351,12/05/2012,Completed,12/12/2012,12-01967900,Pot Hole in Street,Final Outcome,No Potholes Found,0.0,8100 S DR MARTIN LUTHER KING JR DR,60619.0,1180308.10179864,1851385.08698223,6.0,6.0,44.0,,41.7473694712517,-87.61501478186051,"(41.7473694712517, -87.6150147818605)",2012-12-05
143352,12/05/2012,Completed,12/12/2012,12-01968445,Pot Hole in Street,Final Outcome,Pothole Patched,36.0,737 E 84TH PL,60619.0,1182729.58518208,1848990.65860236,6.0,6.0,44.0,51.0,41.74079927162594,-87.60584531633127,"(41.74079927162594, -87.60584531633128)",2012-12-05
143353,12/05/2012,Completed,12/12/2012,12-01968464,Pot Hole in Street,Final Outcome,Pothole Patched,2.0,1000 W 52ND ST,60609.0,1170527.8794132,1870339.3250277,16.0,9.0,61.0,,41.79978771903142,-87.65025482783079,"(41.79978771903142, -87.65025482783079)",2012-12-05
143354,12/05/2012,Completed,12/13/2012,12-01964733,Pot Hole in Street,Final Outcome,Pothole Patched,3.0,3015 W 59TH ST,60629.0,1157229.14719455,1865362.85097727,16.0,8.0,66.0,59.0,41.78620639491814,-87.69916974258189,"(41.78620639491814, -87.69916974258187)",2012-12-05
143355,12/05/2012,Completed,12/13/2012,12-01964810,Pot Hole in Street,Final Outcome,CDOT Street Cut Complaints Transfer Outcome,0.0,8844 S UNION AVE,60620.0,1173187.53237065,1846254.43730976,21.0,22.0,71.0,,41.73299079566669,-87.64124563451797,"(41.732990795666694, -87.64124563451797)",2012-12-05
143356,12/05/2012,Completed,12/14/2012,12-01966789,Pot Hole in Street,Final Outcome,Pothole Patched,50.0,11100 S ST LAWRENCE AVE,60628.0,1182238.1699672,1831476.14002001,9.0,5.0,50.0,,41.692738004422615,-87.60855830242454,"(41.692738004422615, -87.60855830242454)",2012-12-05
143357,12/05/2012,Completed,12/17/2012,12-01967507,Pot Hole in Street,Final Outcome,No Potholes Found,0.0,4942 W FULLERTON AVE,60639.0,1143048.67891622,1915506.14342827,31.0,25.0,19.0,,41.92429342052518,-87.75049344617274,"(41.92429342052518, -87.75049344617274)",2012-12-05
143358,12/05/2012,Completed,12/21/2012,12-01967121,Pot Hole in Street,Final Outcome,Completed Upon Arrival,0.0,25 W MONROE ST,60603.0,1176125.93392397,1899915.01908193,42.0,1.0,32.0,1.0,41.88062233598559,-87.62873847855155,"(41.88062233598559, -87.62873847855157)",2012-12-05
143359,12/05/2012,Completed,12/31/2012,12-01964712,Pot Hole in Street,Final Outcome,Pothole Patched,12.0,2918 N DAMEN AVE,60618.0,1162507.94509481,1919452.53069738,1.0,19.0,5.0,,41.93467854704176,-87.67834172471943,"(41.934678547041756, -87.67834172471942)",2012-12-05
143520,12/06/2012,Completed - Dup,12/06/2012,12-01970913,Pot Hole in Street,,,,1032 W 104TH ST,60643.0,1171273.94340738,1835854.29961987,34.0,22.0,73.0,,41.705150938864975,-87.64897249407377,"(41.705150938864975, -87.64897249407377)",2012-12-06
143521,12/06/2012,Completed - Dup,12/07/2012,12-01972541,Pot Hole in Street,,,,56 N MENARD AVE,60644.0,1137711.02220202,1899836.80458988,29.0,15.0,25.0,,41.88183653056293,-87.76996121059574,"(41.88183653056293, -87.76996121059574)",2012-12-06
143522,12/06/2012,Completed - Dup,12/07/2012,12-01972560,Pot Hole in Street,,,,52 N MENARD AVE,60644.0,1137712.02220202,1899807.00458988,29.0,15.0,25.0,,41.881720061596326,-87.76995668264826,"(41.88172006159633, -87.76995668264827)",2012-12-06
143523,12/06/2012,Completed - Dup,12/07/2012,12-01972579,Pot Hole in Street,,,,24 N MENARD AVE,60644.0,1137718.58172331,1899598.17972548,29.0,15.0,25.0,,41.880905029845025,-87.76992917766397,"(41.88090502984502, -87.76992917766397)",2012-12-06
143524,12/06/2012,Completed - Dup,12/07/2012,12-01972588,Pot Hole in Street,,,,25 N MENARD AVE,60644.0,1137718.38172331,1899605.57972548,29.0,15.0,25.0,,41.88096865591238,-87.76963740885857,"(41.88096865591238, -87.76963740885857)",2012-12-06
143525,12/06/2012,Completed - Dup,12/07/2012,12-01972608,Pot Hole in Street,,,,133 N MENARD AVE,60644.0,1137693.12220202,1900396.00458988,29.0,15.0,25.0,,41.883157316259215,-87.76971442052414,"(41.883157316259215, -87.76971442052414)",2012-12-06
143526,12/06/2012,Completed - Dup,12/07/2012,12-01972625,Pot Hole in Street,,,,140 N MENARD AVE,60644.0,1137691.52220202,1900446.60458988,29.0,15.0,25.0,,41.883446158692884,-87.77001812037895,"(41.88344615869288, -87.77001812037895)",2012-12-06
143527,12/06/2012,Completed - Dup,12/10/2012,12-01971022,Pot Hole in Street,,,0.0,10470 S ABERDEEN ST,60643.0,1170840.90018512,1835323.62630148,34.0,22.0,73.0,,41.70324840124329,-87.65016521711638,"(41.703248401243286, -87.65016521711638)",2012-12-06
143528,12/06/2012,Completed - Dup,12/10/2012,12-01971235,Pot Hole in Street,,,0.0,10445 S SANGAMON ST,60643.0,1171830.15193127,1835562.9986712,34.0,22.0,73.0,,41.703685879658934,-87.6462355616387,"(41.70368587965894, -87.6462355616387)",2012-12-06
143529,12/06/2012,Completed - Dup,12/10/2012,12-01971242,Pot Hole in Street,,,0.0,10420 S SANGAMON ST,60643.0,1171824.85193127,1835730.7986711997,34.0,22.0,73.0,,41.704404402711646,-87.64655053447952,"(41.704404402711646, -87.64655053447953)",2012-12-06
143530,12/06/2012,Completed - Dup,12/10/2012,12-01971271,Pot Hole in Street,,,0.0,10537 S RACINE AVE,60643.0,1170190.57652447,1834916.899889,34.0,22.0,73.0,,41.70203484784522,-87.65226090388809,"(41.70203484784522, -87.65226090388809)",2012-12-06
143531,12/06/2012,Completed - Dup,12/10/2012,12-01971289,Pot Hole in Street,,,0.0,10114 S RACINE AVE,60643.0,1170109.76862294,1837723.71999037,34.0,22.0,73.0,,41.70997114363443,-87.6527885438383,"(41.70997114363442, -87.6527885438383)",2012-12-06
143532,12/06/2012,Completed - Dup,12/10/2012,12-01971328,Pot Hole in Street,,,0.0,1145 W 106TH ST,60643.0,1170582.57612746,1834509.15258002,34.0,22.0,73.0,,41.701256824628665,-87.65116858880427,"(41.701256824628665, -87.65116858880427)",2012-12-06
143533,12/06/2012,Completed - Dup,12/10/2012,12-01971333,Pot Hole in Street,,,0.0,1140 W 106TH ST,60643.0,1170617.67612746,1834509.95258002,34.0,22.0,73.0,,41.701478921439325,-87.65101281163466,"(41.701478921439325, -87.65101281163466)",2012-12-06
143534,12/06/2012,Completed - Dup,12/10/2012,12-01971346,Pot Hole in Street,,,0.0,1163 W 106TH ST,60643.0,1170456.07612746,1834506.15258002,34.0,22.0,73.0,,41.70124851989189,-87.65189942606884,"(41.70124851989189, -87.65189942606884)",2012-12-06
143535,12/06/2012,Completed - Dup,12/10/2012,12-01971364,Pot Hole in Street,Follow-on SR Update,Follow-on Pot Hole in Street Created,0.0,1169 W 106TH ST,60643.0,1170413.91502886,1834505.23010956,34.0,22.0,73.0,,41.701246429637976,-87.65214256463786,"(41.70124642963798, -87.65214256463784)",2012-12-06
143536,12/06/2012,Completed - Dup,12/10/2012,12-01971367,Pot Hole in Street,,,0.0,1112 W 104TH ST,60643.0,1170744.28298776,1835843.11722621,34.0,22.0,73.0,,41.70513554292717,-87.65064827748701,"(41.70513554292717, -87.65064827748702)",2012-12-06
143537,12/06/2012,Completed - Dup,12/10/2012,12-01971406,Pot Hole in Street,,,0.0,1127 W 104TH ST,60643.0,1170643.88298776,1835841.21722621,34.0,22.0,73.0,,41.70491087353007,-87.65117204102856,"(41.70491087353007, -87.65117204102857)",2012-12-06
143538,12/06/2012,Completed - Dup,12/10/2012,12-01971418,Pot Hole in Street,,,0.0,1112 W 104TH ST,60643.0,1170744.28298776,1835843.11722621,34.0,22.0,73.0,,41.70513554292717,-87.65064827748701,"(41.70513554292717, -87.65064827748702)",2012-12-06
143539,12/06/2012,Completed - Dup,12/10/2012,12-01971773,Pot Hole in Street,,,0.0,1158 W 104TH PL,60643.0,1170446.7066746,1835503.58990323,34.0,22.0,73.0,,41.704202250005274,-87.65235415482029,"(41.70420225000527, -87.6523541548203)",2012-12-06
143540,12/06/2012,Completed - Dup,12/10/2012,12-01971794,Pot Hole in Street,,,,1156 W 104TH PL,60643.0,1170460.1066746,1835503.88990323,34.0,22.0,73.0,,41.70420308588871,-87.65227871898048,"(41.7042030858887, -87.65227871898048)",2012-12-06
143541,12/06/2012,Completed - Dup,12/10/2012,12-01971804,Pot Hole in Street,,,0.0,1115 W 104TH PL,60643.0,1170734.88702351,1835509.97873342,34.0,22.0,73.0,,41.704001651637604,-87.65069012402273,"(41.7040016516376, -87.65069012402273)",2012-12-06
143542,12/06/2012,Completed - Dup,12/10/2012,12-01971834,Pot Hole in Street,,,0.0,1152 W 102ND ST,60643.0,1170354.95297529,1837160.71378601,34.0,22.0,73.0,,41.70875778740462,-87.65236811220409,"(41.70875778740462, -87.6523681122041)",2012-12-06
143543,12/06/2012,Completed - Dup,12/10/2012,12-01972114,Pot Hole in Street,,,0.0,10243 S MAY ST,60643.0,1170462.25297529,1836875.61378601,34.0,22.0,73.0,,41.70738441722621,-87.65121361276024,"(41.70738441722621, -87.65121361276023)",2012-12-06
143544,12/06/2012,Completed - Dup,12/10/2012,12-01972581,Pot Hole in Street,,,,1169 W 106TH ST,60643.0,1170413.91502886,1834505.23010956,34.0,22.0,73.0,,41.701246429637976,-87.65214256463786,"(41.70124642963798, -87.65214256463784)",2012-12-06
143545,12/06/2012,Completed - Dup,12/10/2012,12-01972728,Pot Hole in Street,,,0.0,1021 W 112TH PL,60643.0,1171382.72997595,1830170.93999334,34.0,22.0,75.0,,41.689337638469354,-87.64824536037158,"(41.68933763846935, -87.64824536037158)",2012-12-06
143546,12/06/2012,Completed - Dup,12/10/2012,12-01972754,Pot Hole in Street,,,0.0,1037 W 112TH PL,60643.0,1171300.62997595,1830168.83999334,34.0,22.0,75.0,,41.689332729245855,-87.64866412618952,"(41.689332729245855, -87.64866412618952)",2012-12-06
143547,12/06/2012,Completed - Dup,12/10/2012,12-01972786,Pot Hole in Street,,,0.0,1044 W 112TH PL,60643.0,1171267.02997595,1830167.93999334,34.0,22.0,75.0,,41.68954887335486,-87.64898088705442,"(41.68954887335486, -87.64898088705442)",2012-12-06
143548,12/06/2012,Completed - Dup,12/10/2012,12-01972810,Pot Hole in Street,,,0.0,1058 W 112TH PL,60643.0,1171199.92997595,1830166.13999334,34.0,22.0,75.0,,41.68953974408012,-87.64952725560042,"(41.689539744080115, -87.64952725560042)",2012-12-06
143549,12/06/2012,Completed - Dup,12/10/2012,12-01972825,Pot Hole in Street,,,0.0,1113 W 112TH PL,60643.0,1170864.07000557,1830157.27058105,34.0,22.0,75.0,,41.6893111056717,-87.65018934623083,"(41.6893111056717, -87.65018934623083)",2012-12-06
143550,12/06/2012,Completed - Dup,12/10/2012,12-01973046,Pot Hole in Street,,,0.0,1037 W 112TH PL,60643.0,1171300.62997595,1830168.83999334,34.0,22.0,75.0,,41.689332729245855,-87.64866412618952,"(41.689332729245855, -87.64866412618952)",2012-12-06
143551,12/06/2012,Completed - Dup,12/10/2012,12-01973201,Pot Hole in Street,,,0.0,1199 W 104TH PL,60643.0,1170171.8066746,1835497.38990323,34.0,22.0,73.0,,41.70398273466087,-87.65234982345976,"(41.70398273466087, -87.65234982345976)",2012-12-06
143552,12/06/2012,Completed - Dup,12/17/2012,12-01971068,Pot Hole in Street,,,0.0,10001 S PEORIA ST,60643.0,1172078.09802212,1838513.06918329,34.0,22.0,73.0,,41.71225516782145,-87.64525618372782,"(41.712255167821446, -87.64525618372782)",2012-12-06
143553,12/06/2012,Completed - Dup,12/17/2012,12-01971327,Pot Hole in Street,,,0.0,10501 S SANGAMON ST,60643.0,1171841.67117734,1835193.97367742,34.0,22.0,73.0,,41.703151969301096,-87.64621884877623,"(41.703151969301096, -87.64621884877624)",2012-12-06
143554,12/06/2012,Completed - Dup,12/17/2012,12-01972352,Pot Hole in Street,,,,240 N WALLER AVE,60644.0,1138111.23141668,1901111.69099191,29.0,15.0,25.0,,41.88541711929517,-87.76846997629904,"(41.88541711929517, -87.76846997629903)",2012-12-06
143555,12/06/2012,Completed - Dup,12/17/2012,12-01972444,Pot Hole in Street,,,,123 N WALLER AVE,60644.0,1138140.03678425,1900336.1628995,29.0,15.0,25.0,,41.882975182310076,-87.76806774845564,"(41.88297518231008, -87.76806774845564)",2012-12-06
143556,12/06/2012,Completed - Dup,12/17/2012,12-01972451,Pot Hole in Street,,,,124 N WALLER AVE,60644.0,1138139.73678425,1900343.4628994998,29.0,15.0,25.0,,41.88296101687676,-87.76836109333128,"(41.88296101687676, -87.76836109333128)",2012-12-06
143557,12/06/2012,Completed - Dup,12/17/2012,12-01972456,Pot Hole in Street,,,,119 N WALLER AVE,60644.0,1138141.13678425,1900306.7628994999,29.0,15.0,25.0,,41.882851552399714,-87.76806289468412,"(41.88285155239972, -87.76806289468412)",2012-12-06
143558,12/06/2012,Completed - Dup,12/17/2012,12-01972819,Pot Hole in Street,,,,5715 W WEST END AVE,60644.0,1138052.53141668,1900889.99099191,29.0,15.0,25.0,,41.88406280071158,-87.7689521390501,"(41.88406280071158, -87.76895213905011)",2012-12-06
143559,12/06/2012,Completed - Dup,12/17/2012,12-01972824,Pot Hole in Street,,,,5721 W WEST END AVE,60644.0,1138025.83141668,1900888.79099191,29.0,15.0,25.0,,41.884058693555886,-87.76921032992851,"(41.884058693555886, -87.76921032992851)",2012-12-06
143560,12/06/2012,Completed - Dup,12/17/2012,12-01972835,Pot Hole in Street,,,,5702 W WEST END AVE,60644.0,1138110.63141668,1900892.69099191,29.0,15.0,25.0,,41.88429102984886,-87.76844238453245,"(41.88429102984886, -87.76844238453246)",2012-12-06
143561,12/06/2012,Completed - Dup,12/17/2012,12-01972849,Pot Hole in Street,,,,5669 W WEST END AVE,60644.0,1138360.29769365,1900899.68941502,29.0,15.0,25.0,,41.884082975318755,-87.76770060441046,"(41.884082975318755, -87.76770060441046)",2012-12-06
143562,12/06/2012,Completed - Dup,12/17/2012,12-01973423,Pot Hole in Street,,,,2217 S CALIFORNIA AVE,60608.0,1158042.44060109,1889085.3506253003,28.0,10.0,30.0,,41.85130731846071,-87.69528595722157,"(41.85130731846071, -87.69528595722156)",2012-12-06
143563,12/06/2012,Completed - Dup,12/18/2012,12-01972655,Pot Hole in Street,,,,5812 W WEST END AVE,60644.0,1137610.61206969,1900869.97661892,29.0,15.0,25.0,,41.88422119757652,-87.77047520971534,"(41.88422119757652, -87.77047520971534)",2012-12-06
143564,12/06/2012,Completed - Dup,12/18/2012,12-01972665,Pot Hole in Street,,,,5813 W WEST END AVE,60644.0,1137605.01206969,1900869.77661892,29.0,15.0,25.0,,41.88400173589787,-87.77046760622703,"(41.88400173589787, -87.77046760622703)",2012-12-06
143565,12/06/2012,Completed - Dup,12/18/2012,12-01972672,Pot Hole in Street,,,,5814 W WEST END AVE,60644.0,1137599.41206969,1900869.57661892,29.0,15.0,25.0,,41.88421965935778,-87.77055471430486,"(41.88421965935778, -87.77055471430488)",2012-12-06
143566,12/06/2012,Completed - Dup,12/18/2012,12-01972685,Pot Hole in Street,,,,5815 W WEST END AVE,60644.0,1137593.91206969,1900869.37661892,29.0,15.0,25.0,,41.884000197682695,-87.77054711054453,"(41.884000197682695, -87.77054711054453)",2012-12-06
143567,12/06/2012,Completed - Dup,12/18/2012,12-01972694,Pot Hole in Street,,,,5816 W WEST END AVE,60644.0,1137588.31206969,1900869.07661892,29.0,15.0,25.0,,41.884218121084,-87.77063421889116,"(41.884218121084, -87.77063421889117)",2012-12-06
143568,12/06/2012,Completed - Dup,12/18/2012,12-01972931,Pot Hole in Street,,,,5915 W WEST END AVE,60644.0,1136967.35833114,1900845.70862756,29.0,15.0,25.0,,41.88396345967617,-87.77259274813593,"(41.88396345967617, -87.77259274813593)",2012-12-06
143569,12/06/2012,Completed,01/10/2013,12-01972074,Pot Hole in Street,Final Outcome,Pothole Patched,0.0,5000 N NB OUTER LAKE SHORE DR,60640.0,1170376.54183275,1933627.3166801003,48.0,20.0,3.0,,41.97340241166889,-87.64902451149382,"(41.97340241166889, -87.64902451149382)",2012-12-06
143570,12/06/2012,Completed,01/10/2013,12-01973756,Pot Hole in Street,Final Outcome,No Potholes Found,0.0,5699 N SB OUTER LAKE SHORE DR,60660.0,1169073.19997706,1938027.92001948,48.0,20.0,77.0,,41.98542412709861,-87.65335689550481,"(41.985424127098604, -87.65335689550481)",2012-12-06
143571,12/06/2012,Completed,01/10/2013,12-01973762,Pot Hole in Street,Final Outcome,No Potholes Found,0.0,5200 N NB OUTER LAKE SHORE DR,60640.0,1169984.44517084,1934827.55930753,48.0,20.0,77.0,,41.97670719183307,-87.65044158457148,"(41.97670719183307, -87.65044158457147)",2012-12-06
143572,12/06/2012,Completed,12/06/2012,12-01969634,Pot Hole in Street,Final Outcome,CDOT Pavement Cave-In Survey Transfer Outcome,,2170 N AUSTIN AVE,60639.0,1136042.70435,1913933.782825,29.0,25.0,19.0,,41.919901477518074,-87.77572944060373,"(41.919901477518074, -87.77572944060373)",2012-12-06
143573,12/06/2012,Completed,12/06/2012,12-01970356,Pot Hole in Street,Final Outcome,CDOT Pavement Cave-In Survey Transfer Outcome,,4700 N KENNICOTT AVE,60630.0,1148025.14349683,1930643.32986624,39.0,17.0,14.0,,41.96574030807627,-87.73120016414396,"(41.96574030807627, -87.73120016414397)",2012-12-06
143574,12/06/2012,Completed,12/06/2012,12-01970473,Pot Hole in Street,Final Outcome,Pothole Patched,8.0,1138 W 115TH ST,60643.0,1170692.23039905,1828532.06452371,34.0,22.0,75.0,,41.685072947466814,-87.6509764302307,"(41.685072947466814, -87.65097643023071)",2012-12-06
143575,12/06/2012,Completed,12/06/2012,12-01970479,Pot Hole in Street,Final Outcome,Pothole Patched,6.0,11200 S RACINE AVE,60643.0,1170326.50070689,1830516.23529872,34.0,22.0,75.0,,41.69036571933093,-87.65219658022146,"(41.69036571933093, -87.65219658022147)",2012-12-06
143576,12/06/2012,Completed,12/06/2012,12-01970580,Pot Hole in Street,Final Outcome,CDOT Pavement Cave-In Survey Transfer Outcome,,13057 S BALTIMORE AVE,60633.0,1199089.8729094,1818986.46280134,10.0,4.0,55.0,,41.65748112814799,-87.54698884734094,"(41.65748112814799, -87.54698884734096)",2012-12-06
143577,12/06/2012,Completed,12/06/2012,12-01970760,Pot Hole in Street,Final Outcome,Pothole Patched,28.0,6200 N LEADER AVE,60646.0,1142043.39528668,1940579.26898087,45.0,16.0,12.0,,41.99314627304842,-87.75293319599125,"(41.99314627304842, -87.75293319599125)",2012-12-06
143578,12/06/2012,Completed,12/06/2012,12-01970767,Pot Hole in Street,Final Outcome,Pothole Patched,41.0,6300 N LEADER AVE,60646.0,1142380.69217531,1941134.00737885,41.0,16.0,12.0,,41.994672083374525,-87.75167489970003,"(41.99467208337452, -87.75167489970003)",2012-12-06
143579,12/06/2012,Completed,12/06/2012,12-01971172,Pot Hole in Street,Final Outcome,CDOT Pavement Cave-In Survey Transfer Outcome,,5500 S INDIANA AVE,60637.0,1178538.23490519,1868474.7536866001,20.0,2.0,40.0,,41.79436896231596,-87.62098331255406,"(41.79436896231596, -87.62098331255406)",2012-12-06
143580,12/06/2012,Completed,12/06/2012,12-01971621,Pot Hole in Street,Final Outcome,CDOT Street Cut Complaints Transfer Outcome,,1169 W 106TH ST,60643.0,1170413.91502886,1834505.23010956,34.0,22.0,73.0,,41.701246429637976,-87.65214256463786,"(41.70124642963798, -87.65214256463784)",2012-12-06
143581,12/06/2012,Completed,12/06/2012,12-01971666,Pot Hole in Street,Final Outcome,CDOT Street Cut Complaints Transfer Outcome,,1100 W 106TH ST,60643.0,1171022.26250527,1834517.8399776001,34.0,22.0,73.0,,41.7014939363199,-87.64945799272877,"(41.7014939363199, -87.64945799272876)",2012-12-06
143582,12/06/2012,Completed,12/06/2012,12-01971686,Pot Hole in Street,Final Outcome,CDOT Street Cut Complaints Transfer Outcome,,1013 W 112TH PL,60643.0,1171431.33998296,1830172.0799663002,34.0,22.0,75.0,,41.689339927538576,-87.64805834482345,"(41.68933992753858, -87.64805834482345)",2012-12-06
143583,12/06/2012,Completed,12/06/2012,12-01971707,Pot Hole in Street,Final Outcome,CDOT Street Cut Complaints Transfer Outcome,,1021 W 112TH PL,60643.0,1171382.72997595,1830170.93999334,34.0,22.0,75.0,,41.689337638469354,-87.64824536037158,"(41.68933763846935, -87.64824536037158)",2012-12-06
143584,12/06/2012,Completed,12/06/2012,12-01971738,Pot Hole in Street,Final Outcome,CDOT Street Cut Complaints Transfer Outcome,,1037 W 112TH PL,60643.0,1171300.62997595,1830168.83999334,34.0,22.0,75.0,,41.689332729245855,-87.64866412618952,"(41.689332729245855, -87.64866412618952)",2012-12-06
143585,12/06/2012,Completed,12/06/2012,12-01971744,Pot Hole in Street,Final Outcome,CDOT Street Cut Complaints Transfer Outcome,,3600 W 64TH PL,60629.0,1153428.88602442,1861601.37992992,13.0,8.0,65.0,,41.77617952061034,-87.71321053386671,"(41.77617952061034, -87.71321053386671)",2012-12-06
143586,12/06/2012,Completed,12/06/2012,12-01972159,Pot Hole in Street,Final Outcome,CDOT Street Cut Complaints Transfer Outcome,,1037 W 112TH PL,60643.0,1171300.62997595,1830168.83999334,34.0,22.0,75.0,,41.689332729245855,-87.64866412618952,"(41.689332729245855, -87.64866412618952)",2012-12-06
143587,12/06/2012,Completed,12/06/2012,12-01972169,Pot Hole in Street,Final Outcome,CDOT Street Cut Complaints Transfer Outcome,,1044 W 112TH PL,60643.0,1171267.02997595,1830167.93999334,34.0,22.0,75.0,,41.68954887335486,-87.64898088705442,"(41.68954887335486, -87.64898088705442)",2012-12-06
143588,12/06/2012,Completed,12/06/2012,12-01972184,Pot Hole in Street,Final Outcome,CDOT Street Cut Complaints Transfer Outcome,,1058 W 112TH PL,60643.0,1171199.92997595,1830166.13999334,34.0,22.0,75.0,,41.68953974408012,-87.64952725560042,"(41.689539744080115, -87.64952725560042)",2012-12-06
143589,12/06/2012,Completed,12/06/2012,12-01972194,Pot Hole in Street,Final Outcome,CDOT Street Cut Complaints Transfer Outcome,,1113 W 112TH PL,60643.0,1170864.07000557,1830157.27058105,34.0,22.0,75.0,,41.6893111056717,-87.65018934623083,"(41.6893111056717, -87.65018934623083)",2012-12-06
143590,12/06/2012,Completed,12/06/2012,12-01972196,Pot Hole in Street,Final Outcome,Pothole Patched,26.0,2299 S FORD AVE,60616.0,1171865.97140206,1889273.2203876,25.0,12.0,31.0,,41.851511824076574,-87.64468222866165,"(41.851511824076574, -87.64468222866165)",2012-12-06
143591,12/06/2012,Completed,12/06/2012,12-01972274,Pot Hole in Street,Final Outcome,Pothole Patched,4.0,10022 S LOWE AVE,60628.0,1173738.42041523,1838418.00998811,34.0,22.0,73.0,,41.711717475165564,-87.63946461837826,"(41.71171747516556, -87.63946461837827)",2012-12-06
143592,12/06/2012,Completed,12/06/2012,12-01972285,Pot Hole in Street,Final Outcome,Pothole Patched,1.0,11400 S MARSHFIELD AVE,60643.0,1167424.91649415,1829119.35587286,34.0,22.0,75.0,,41.68656393532861,-87.66286916044771,"(41.68656393532861, -87.6628691604477)",2012-12-06
143593,12/06/2012,Completed,12/06/2012,12-01972979,Pot Hole in Street,Final Outcome,CDOT Pavement Cave-In Survey Transfer Outcome,,150 E ILLINOIS ST,60611.0,1177439.65607467,1903646.95138673,42.0,18.0,8.0,,41.891055937720544,-87.62339275063509,"(41.89105593772055, -87.6233927506351)",2012-12-06
143594,12/06/2012,Completed,12/06/2012,12-01973026,Pot Hole in Street,Final Outcome,CDOT Street Cut Complaints Transfer Outcome,,3870 S ARCHER AVE,60632.0,1159863.91317933,1878903.7679333999,12.0,9.0,58.0,,41.82322536987238,-87.68958913259033,"(41.82322536987238, -87.68958913259033)",2012-12-06
143595,12/06/2012,Completed,12/06/2012,12-01973253,Pot Hole in Street,Final Outcome,CDOT Street Cut Complaints Transfer Outcome,,1120 W 112TH PL,60643.0,1170789.13996798,1830155.34089565,34.0,22.0,75.0,,41.68952776946184,-87.65042851101671,"(41.68952776946184, -87.65042851101671)",2012-12-06
143596,12/06/2012,Completed,12/06/2012,12-01973269,Pot Hole in Street,Final Outcome,CDOT Street Cut Complaints Transfer Outcome,,1101 W 112TH PL,60643.0,1170992.57000557,1830160.57058105,34.0,22.0,75.0,,41.689317881982866,-87.64964088220282,"(41.689317881982866, -87.64964088220282)",2012-12-06
143597,12/06/2012,Completed,12/06/2012,12-01973280,Pot Hole in Street,Final Outcome,CDOT Street Cut Complaints Transfer Outcome,,11261 S MAY ST,60643.0,1170674.73996798,1830027.24089565,34.0,22.0,75.0,,41.68870423761644,-87.65063465497707,"(41.688704237616435, -87.65063465497708)",2012-12-06
143598,12/06/2012,Completed,12/06/2012,12-01973293,Pot Hole in Street,Final Outcome,CDOT Street Cut Complaints Transfer Outcome,,11350 S MAY ST,60643.0,1170693.38749051,1829413.72042835,34.0,22.0,75.0,,41.68715235865373,-87.65087968751284,"(41.687152358653734, -87.65087968751284)",2012-12-06
143599,12/06/2012,Completed,12/06/2012,12-01973300,Pot Hole in Street,Final Outcome,CDOT Street Cut Complaints Transfer Outcome,,11413 S MAY ST,60643.0,1170705.28628477,1829037.59226587,34.0,22.0,75.0,,41.686288478660785,-87.65055941806826,"(41.686288478660785, -87.65055941806826)",2012-12-06
143600,12/06/2012,Completed,12/06/2012,12-01973304,Pot Hole in Street,Final Outcome,CDOT Street Cut Complaints Transfer Outcome,,12236 S LOOMIS ST,60643.0,1169216.30137492,1823605.78349483,34.0,5.0,53.0,,41.671029835385816,-87.65644914712702,"(41.67102983538581, -87.65644914712702)",2012-12-06
143601,12/06/2012,Completed,12/06/2012,12-01973319,Pot Hole in Street,Final Outcome,CDOT Street Cut Complaints Transfer Outcome,,12200 S LOOMIS ST,60643.0,1169209.20137492,1823847.38349483,34.0,5.0,53.0,,41.67205241311019,-87.65648139887578,"(41.67205241311019, -87.6564813988758)",2012-12-06
143602,12/06/2012,Completed,12/07/2012,12-01970133,Pot Hole in Street,Final Outcome,Pothole Patched,5.0,6401 W MONTROSE AVE,60634.0,1132895.99358112,1928566.97691229,38.0,16.0,17.0,,41.960106491383,-87.78686349260039,"(41.960106491383, -87.78686349260038)",2012-12-06
143603,12/06/2012,Completed,12/07/2012,12-01970332,Pot Hole in Street,Final Outcome,Pothole Patched,1.0,6801 W GRAND AVE,60707.0,1130674.82093266,1915208.57720752,36.0,25.0,18.0,,41.92348867383989,-87.79529732218529,"(41.92348867383989, -87.79529732218528)",2012-12-06
143604,12/06/2012,Completed,12/07/2012,12-01970342,Pot Hole in Street,Final Outcome,Pothole Patched,2.0,3001 W BELMONT AVE,60618.0,1155808.9114872,1921124.72711961,33.0,14.0,21.0,,41.939253344724186,-87.70278523303574,"(41.939253344724186, -87.70278523303574)",2012-12-06
143605,12/06/2012,Completed,12/07/2012,12-01970346,Pot Hole in Street,Final Outcome,Pothole Patched,4.0,3158 N SACRAMENTO AVE,60618.0,1155825.74361066,1920927.34419468,33.0,14.0,21.0,,41.939315235160095,-87.70287048844929,"(41.93931523516009, -87.70287048844929)",2012-12-06
143606,12/06/2012,Completed,12/07/2012,12-01970366,Pot Hole in Street,Final Outcome,Pothole Patched,8.0,4800 N SPRINGFIELD AVE,60625.0,1149522.94538958,1931612.6406298,39.0,17.0,14.0,,41.968284741964204,-87.72574468482345,"(41.9682847419642, -87.72574468482345)",2012-12-06
143607,12/06/2012,Completed,12/07/2012,12-01970373,Pot Hole in Street,Final Outcome,Pothole Patched,26.0,4759 N DRAKE AVE,60625.0,1151859.93212396,1931396.55408128,33.0,17.0,14.0,,41.96827519366926,-87.71688273964459,"(41.96827519366926, -87.71688273964459)",2012-12-06
143608,12/06/2012,Completed,12/07/2012,12-01970398,Pot Hole in Street,Final Outcome,Pothole Patched,6.0,4758 N CENTRAL PARK AVE,60625.0,1151527.91229956,1931381.95677884,33.0,17.0,14.0,,41.96825526644937,-87.7183995962428,"(41.96825526644937, -87.71839959624282)",2012-12-06
143609,12/06/2012,Completed,12/07/2012,12-01970405,Pot Hole in Street,Final Outcome,No Potholes Found,0.0,3608 W LAWRENCE AVE,60625.0,1151427.71229956,1931654.45677884,39.0,17.0,14.0,,41.968452097389076,-87.7186570380312,"(41.968452097389076, -87.7186570380312)",2012-12-06
143610,12/06/2012,Completed,12/07/2012,12-01970413,Pot Hole in Street,Final Outcome,Pothole Patched,5.0,3408 W CARMEN AVE,60625.0,1152713.71997009,1933254.39003054,39.0,17.0,13.0,,41.97279679136314,-87.71391894276523,"(41.97279679136313, -87.71391894276523)",2012-12-06
