,Creation Date,Status,Completion Date,Service Request Number,Type of Service Request,Street Address,ZIP Code,X Coordinate,Y Coordinate,Ward,Police District,Community Area,Latitude,Longitude,Location,date
158325,02/01/2015,Completed - Dup,02/01/2015,15-00184912,Street Light Out,3051 N OAK PARK AVE,60634.0,1130557.39236601,1919532.09516677,36.0,25.0,18.0,41.9354648997489,-87.79561178174583,"(41.935464899748894,-87.79561178174583)",2015-02-01
158326,02/01/2015,Completed - Dup,02/01/2015,15-00185838,Street Light Out,6979 N ASHLAND BLVD,60626.0,1164512.2697778998,1946430.93597033,49.0,24.0,1.0,42.008624119633616,-87.67005984568111,"(42.00862411963362,-87.67005984568111)",2015-02-01
158327,02/01/2015,Completed - Dup,02/01/2015,15-00184907,Street Light Out,2351 S OAKLEY AVE,60608.0,1161405.8496016,1888267.60880463,25.0,10.0,31.0,41.84908564707296,-87.68311202401642,"(41.849085647072954,-87.68311202401642)",2015-02-01
158331,02/01/2015,Completed - Dup,02/02/2015,15-00184712,Street Light Out,9048 S LANGLEY AVE,60619.0,1182485.94462074,1845043.61398537,6.0,6.0,44.0,41.730011152842174,-87.60708672612812,"(41.73001115284217,-87.60708672612813)",2015-02-01
158332,02/01/2015,Completed - Dup,02/02/2015,15-00186394,Street Light Out,9036 S LANGLEY AVE,60619.0,1182484.34462074,1845103.11398537,6.0,6.0,44.0,41.73017446483915,-87.60709074829067,"(41.730174464839145,-87.60709074829067)",2015-02-01
158333,02/01/2015,Completed - Dup,02/02/2015,15-00186458,Street Light Out,9036 S LANGLEY AVE,60619.0,1182484.34462074,1845103.11398537,6.0,6.0,44.0,41.73017446483915,-87.60709074829067,"(41.730174464839145,-87.60709074829067)",2015-02-01
158571,02/01/2015,Completed - Dup,02/03/2015,15-00186161,Street Light Out,12801 S PARNELL AVE,60628.0,1174971.01971128,1819989.94997473,9.0,5.0,53.0,41.66143084176366,-87.63535972583608,"(41.66143084176366,-87.6353597258361)",2015-02-01
158572,02/01/2015,Completed - Dup,02/03/2015,15-00186565,Street Light Out,12700 S UNION AVE,60628.0,1173968.84200641,1820656.9737216,34.0,5.0,53.0,41.663283479526456,-87.63900742937679,"(41.663283479526456,-87.63900742937679)",2015-02-01
158573,02/01/2015,Completed - Dup,02/03/2015,15-00186854,Street Light Out,4800 S UNION AVE,60609.0,1172440.09213145,1873048.17220587,11.0,9.0,61.0,41.807085722549154,-87.64306420822113,"(41.80708572254916,-87.64306420822113)",2015-02-01
158574,02/01/2015,Completed - Dup,02/03/2015,15-00186861,Street Light Out,4700 S UNION AVE,60609.0,1172420.17668327,1873711.22092956,11.0,9.0,61.0,41.80890563403372,-87.64311772138042,"(41.80890563403372,-87.64311772138042)",2015-02-01
158575,02/01/2015,Completed,02/03/2015,15-00184705,Street Light Out,7900 S EXCHANGE AVE,60617.0,1197204.64990316,1853152.88320033,7.0,4.0,46.0,41.75191018031671,-87.55289931166712,"(41.751910180316706,-87.55289931166712)",2015-02-01
158576,02/01/2015,Completed,02/03/2015,15-00187205,Street Light Out,2500 E 79TH ST,60649.0,1194228.81139211,1853072.72011668,7.0,4.0,43.0,41.751763761840635,-87.56380680696981,"(41.75176376184063,-87.56380680696981)",2015-02-01
158577,02/02/2015,Completed - Dup,02/03/2015,15-00193984,Street Light Out,8602 W BRODMAN AVE,60656.0,1117960.18577509,1928324.72659406,36.0,16.0,76.0,41.95980052606768,-87.841723057322,"(41.959800526067674,-87.84172305732201)",2015-02-02
158578,02/02/2015,Completed - Dup,02/03/2015,15-00194250,Street Light Out,2200 N KARLOV AVE,60639.0,1148689.82401659,1914306.96423309,31.0,25.0,20.0,41.92079524874532,-87.72910860647394,"(41.92079524874532,-87.72910860647393)",2015-02-02
158579,02/02/2015,Completed - Dup,02/03/2015,15-00194372,Street Light Out,8300 S CLYDE AVE,60617.0,1191628.75771331,1850353.53271916,8.0,4.0,46.0,41.744365493792685,-87.57342262646955,"(41.744365493792685,-87.57342262646955)",2015-02-02
158580,02/02/2015,Completed - Dup,02/03/2015,15-00194414,Street Light Out,1600 E 83RD ST,60617.0,1188367.35158515,1850266.51627116,8.0,4.0,45.0,41.744205125624035,-87.5853753793429,"(41.744205125624035,-87.58537537934289)",2015-02-02
158581,02/02/2015,Completed - Dup,02/03/2015,15-00194754,Street Light Out,4108 W BELDEN AVE,60639.0,1148578.4442789,1914971.12651295,31.0,25.0,20.0,41.922619924672816,-87.72950065981838,"(41.922619924672816,-87.72950065981838)",2015-02-02
158582,02/02/2015,Completed - Dup,02/03/2015,15-00194985,Street Light Out,10637 S AVERS AVE,60655.0,1152571.45001603,1833682.03997336,19.0,22.0,74.0,41.699473255781676,-87.71697116561182,"(41.69947325578168,-87.71697116561182)",2015-02-02
158583,02/02/2015,Completed - Dup,02/03/2015,15-00195437,Street Light Out,8000 S ALBANY AVE,60652.0,1157102.41262198,1851404.76366795,18.0,8.0,70.0,41.74801729392068,-87.69990308235062,"(41.74801729392068,-87.69990308235062)",2015-02-02
158584,02/02/2015,Completed - Dup,02/03/2015,15-00195709,Street Light Out,5700 N LAKE SHORE DR,60660.0,1169044.905375,1938170.7886,48.0,20.0,77.0,41.985860567740936,-87.65362441514904,"(41.98586056774094,-87.65362441514905)",2015-02-02
158585,02/02/2015,Completed - Dup,02/03/2015,15-00195978,Street Light Out,12848 S EMERALD AVE,60628.0,1173672.92929659,1819551.43817876,34.0,5.0,53.0,41.660256239621184,-87.64012286234265,"(41.66025623962119,-87.64012286234264)",2015-02-02
158586,02/02/2015,Completed,02/03/2015,15-00189281,Street Light Out,2830 N LUNA AVE,60641.0,1138885.03010618,1918267.20733237,31.0,25.0,19.0,41.931846505520504,-87.76503755737438,"(41.9318465055205,-87.76503755737438)",2015-02-02
158587,02/02/2015,Completed,02/03/2015,15-00190031,Street Light Out,6320 S AUSTIN AVE,60638.0,1137503.13058769,1861921.28003224,13.0,8.0,64.0,41.77725010324489,-87.7714708281541,"(41.77725010324489,-87.7714708281541)",2015-02-02
158588,02/02/2015,Completed,02/03/2015,15-00190590,Street Light Out,3600 N CENTRAL PARK AVE,60618.0,1151670.8141067,1923864.5867792,35.0,17.0,16.0,41.946963985415984,-87.71790365061146,"(41.946963985415984,-87.71790365061146)",2015-02-02
158589,02/02/2015,Completed,02/03/2015,15-00195248,Street Light Out,9503 S YATES AVE,60617.0,1194075.96010588,1842421.11528043,7.0,4.0,51.0,41.72253858367085,-87.56471552503241,"(41.722538583670854,-87.56471552503241)",2015-02-02
158590,02/03/2015,Completed - Dup,02/03/2015,15-00196328,Street Light Out,12700 S UNION AVE,60628.0,1173968.84200641,1820656.9737216,34.0,5.0,53.0,41.663283479526456,-87.63900742937679,"(41.663283479526456,-87.63900742937679)",2015-02-03
158591,02/03/2015,Completed - Dup,02/03/2015,15-00196800,Street Light Out,1356 W HARRISON ST,60607.0,1167408.99158758,1897472.4609299998,2.0,12.0,28.0,41.874217703298775,-87.66081529260286,"(41.874217703298775,-87.66081529260286)",2015-02-03
158592,02/03/2015,Completed - Dup,02/03/2015,15-00197836,Street Light Out,516 W 128TH ST,60628.0,1175383.06840445,1820012.56991789,9.0,5.0,53.0,41.661483748010006,-87.63385120504107,"(41.661483748010006,-87.63385120504107)",2015-02-03
158593,02/03/2015,Completed - Dup,02/03/2015,15-00204409,Street Light Out,1600 N ORCHARD ST,60614.0,1171378.98987736,1910892.05147844,43.0,18.0,7.0,41.910955610450756,-87.64584458746141,"(41.91095561045076,-87.64584458746141)",2015-02-03
158594,02/03/2015,Completed - Dup,02/03/2015,15-00204453,Street Light Out,10637 S AVERS AVE,60655.0,1152571.45001603,1833682.03997336,19.0,22.0,74.0,41.699473255781676,-87.71697116561182,"(41.69947325578168,-87.71697116561182)",2015-02-03
158750,02/01/2015,Completed - Dup,02/04/2015,15-00186724,Street Light Out,600 W BUCKINGHAM PL,60657.0,1171650.06352475,1922490.93006801,44.0,19.0,6.0,41.942777486231925,-87.64450646092259,"(41.94277748623192,-87.64450646092259)",2015-02-01
158751,02/01/2015,Completed - Dup,02/04/2015,15-00186784,Street Light Out,5999 W LE MOYNE ST,60651.0,1136084.41658341,1909354.53249072,29.0,25.0,25.0,41.907439565933274,-87.77554258954395,"(41.90743956593327,-87.77554258954395)",2015-02-01
158752,02/01/2015,Completed - Dup,02/04/2015,15-00186892,Street Light Out,4422 N MENARD AVE,60630.0,1136882.17787708,1928817.58622752,38.0,16.0,15.0,41.96083401716513,-87.77214400398861,"(41.96083401716513,-87.77214400398861)",2015-02-01
158753,02/01/2015,Completed,02/04/2015,15-00184828,Street Light Out,6200 S MULLIGAN AVE,60638.0,1135141.12796581,1862737.309898,23.0,8.0,64.0,41.77953146400611,-87.78011085479031,"(41.77953146400611,-87.78011085479031)",2015-02-01
158754,02/01/2015,Completed,02/04/2015,15-00185618,Street Light Out,2799 S NB LSD OB STEVENSON ER,60616.0,1181222.43258044,1886436.24456625,4.0,1.0,35.0,41.84362550315785,-87.61044040748298,"(41.84362550315785,-87.61044040748298)",2015-02-01
158755,02/01/2015,Completed,02/04/2015,15-00186207,Street Light Out,2209 W AINSLIE ST,60625.0,1160705.14487146,1932507.69307896,47.0,20.0,4.0,41.97049831216985,-87.68445538691502,"(41.97049831216985,-87.68445538691502)",2015-02-01
158756,02/01/2015,Completed,02/04/2015,15-00186486,Street Light Out,6246 N ALBANY AVE,60659.0,1154556.57807791,1941282.88308724,50.0,24.0,2.0,41.994703453663156,-87.70682814543603,"(41.99470345366316,-87.70682814543605)",2015-02-01
158757,02/01/2015,Completed,02/04/2015,15-00186572,Street Light Out,2820 N ORCHARD ST,60657.0,1171112.78992796,1918965.01279374,44.0,19.0,6.0,41.933114056726275,-87.64658499802664,"(41.93311405672627,-87.64658499802664)",2015-02-01
158758,02/01/2015,Completed,02/04/2015,15-00186655,Street Light Out,5322 N KENMORE AVE,60640.0,1168290.72738001,1935521.52182087,48.0,20.0,77.0,41.97860730391685,-87.65647522925455,"(41.97860730391685,-87.65647522925455)",2015-02-01
158759,02/01/2015,Completed,02/04/2015,15-00186704,Street Light Out,5212 S BERKELEY AVE,60615.0,1184062.279116,1870818.29667875,4.0,2.0,41.0,41.800702718258115,-87.6005077711487,"(41.80070271825812,-87.6005077711487)",2015-02-01
158760,02/01/2015,Completed,02/04/2015,15-00186726,Street Light Out,828 W BUCKINGHAM PL,60657.0,1170071.37652206,1922430.62458852,44.0,19.0,6.0,41.942646670496494,-87.65031061082294,"(41.94264667049649,-87.65031061082293)",2015-02-01
158761,02/01/2015,Completed,02/04/2015,15-00186783,Street Light Out,5932 W LE MOYNE ST,60651.0,1136414.72198919,1909362.54191727,29.0,25.0,25.0,41.90745564433918,-87.77432901782221,"(41.90745564433918,-87.7743290178222)",2015-02-01
158762,02/01/2015,Completed,02/04/2015,15-00187217,Street Light Out,7607 S INDIANA AVE,60619.0,1178912.61211164,1854619.13209093,6.0,6.0,69.0,41.75636949697644,-87.61988598384508,"(41.75636949697644,-87.61988598384508)",2015-02-01
158763,02/01/2015,Completed,02/04/2015,15-00187409,Street Light Out,7609 W TALCOTT AVE,60631.0,1124597.36917156,1939655.04527536,41.0,16.0,10.0,41.99078506962372,-87.81707011575384,"(41.99078506962372,-87.81707011575384)",2015-02-01
158764,02/01/2015,Completed,02/04/2015,15-00187494,Street Light Out,3141 W CHASE AVE,60645.0,1154310.48101607,1948208.66360145,50.0,24.0,2.0,42.013713025724826,-87.70754719773653,"(42.01371302572483,-87.70754719773653)",2015-02-01
158765,02/02/2015,Completed - Dup,02/04/2015,15-00189980,Street Light Out,4500 W 64TH ST,60629.0,1147476.11121854,1861786.10271585,13.0,8.0,65.0,41.77669452879449,-87.73491281622957,"(41.77669452879449,-87.73491281622958)",2015-02-02
158766,02/02/2015,Completed - Dup,02/04/2015,15-00189982,Street Light Out,4500 W 64TH PL,60629.0,1147485.27002525,1861454.63001928,13.0,8.0,65.0,41.775784737917306,-87.73488769620813,"(41.775784737917306,-87.73488769620812)",2015-02-02
158767,02/02/2015,Completed - Dup,02/04/2015,15-00190595,Street Light Out,600 W HARRISON ST,60607.0,1172417.44538126,1897568.07567879,2.0,1.0,28.0,41.874370920673904,-87.64242384003181,"(41.874370920673904,-87.64242384003182)",2015-02-02
158768,02/02/2015,Completed - Dup,02/04/2015,15-00194136,Street Light Out,3700 N HARLEM AVE,60634.0,1127416.96900226,1923655.32998029,36.0,16.0,17.0,41.94683302441097,-87.807060230371,"(41.94683302441097,-87.807060230371)",2015-02-02
158769,02/02/2015,Completed - Dup,02/04/2015,15-00194557,Street Light Out,100 N HAMLIN BLVD,60624.0,1151046.72031183,1900148.40107548,28.0,11.0,26.0,41.88189686177168,-87.72082022881426,"(41.88189686177168,-87.72082022881426)",2015-02-02
158770,02/02/2015,Completed - Dup,02/04/2015,15-00194702,Street Light Out,5221 N OLEANDER AVE,60656.0,1125010.74001873,1933797.68242607,41.0,16.0,10.0,41.97470500661888,-87.81567981495199,"(41.97470500661888,-87.81567981495199)",2015-02-02
158771,02/02/2015,Completed - Dup,02/04/2015,15-00195066,Street Light Out,1200 W 31ST ST,60608.0,1168819.45010985,1884253.72766877,11.0,9.0,60.0,41.8379139318568,-87.65601960096019,"(41.837913931856804,-87.6560196009602)",2015-02-02
158772,02/02/2015,Completed - Dup,02/04/2015,15-00195653,Street Light Out,5700 N LAKE SHORE DR,60660.0,1169044.905375,1938170.7886,48.0,20.0,77.0,41.985860567740936,-87.65362441514904,"(41.98586056774094,-87.65362441514905)",2015-02-02
158773,02/02/2015,Completed - Dup,02/04/2015,15-00195772,Street Light Out,3800 N HARLEM AVE,60634.0,1127392.2458863999,1924407.91769101,38.0,16.0,17.0,41.94889862993869,-87.80713412415598,"(41.94889862993869,-87.80713412415598)",2015-02-02
158774,02/02/2015,Completed - Dup,02/04/2015,15-00195827,Street Light Out,6441 W GEORGE ST,60634.0,1132861.37581058,1918580.11247393,36.0,25.0,19.0,41.93281258268127,-87.78716663977737,"(41.93281258268127,-87.78716663977737)",2015-02-02
158775,02/02/2015,Completed,02/04/2015,15-00188904,Street Light Out,518 E 73RD ST,60619.0,1181031.14161589,1856730.50150195,6.0,3.0,69.0,41.76211484460421,-87.61205718973129,"(41.762114844604206,-87.61205718973129)",2015-02-02
158776,02/02/2015,Completed,02/04/2015,15-00192171,Street Light Out,5415 S KEELER AVE,60632.0,1149286.31642388,1868368.76119774,23.0,8.0,62.0,41.79472362325375,-87.72810672026276,"(41.79472362325375,-87.72810672026276)",2015-02-02
158777,02/02/2015,Completed,02/04/2015,15-00193943,Street Light Out,3808 W WEST END AVE,60624.0,1150979.66010889,1900549.08863059,28.0,11.0,26.0,41.882997704691356,-87.72105597745104,"(41.88299770469135,-87.72105597745104)",2015-02-02
158778,02/02/2015,Completed,02/04/2015,15-00194457,Street Light Out,8530 S JUSTINE ST,60620.0,1167491.35008577,1848160.42769125,21.0,6.0,71.0,41.738898195441216,-87.6619272687516,"(41.738898195441216,-87.6619272687516)",2015-02-02
158779,02/02/2015,Completed,02/04/2015,15-00194518,Street Light Out,5300 S LAFLIN ST,60609.0,1167236.84820943,1869589.72629011,16.0,9.0,61.0,41.79770844228895,-87.66224712663015,"(41.79770844228895,-87.66224712663016)",2015-02-02
158780,02/02/2015,Completed,02/04/2015,15-00194528,Street Light Out,1534 W 54TH ST,60609.0,1166922.48147224,1868916.96187692,16.0,9.0,61.0,41.7958690263782,-87.6634191862003,"(41.7958690263782,-87.66341918620029)",2015-02-02
158781,02/02/2015,Completed,02/04/2015,15-00194753,Street Light Out,1341 W 68TH ST,60636.0,1168398.906175,1859667.1396,17.0,7.0,67.0,41.77045469072984,-87.65827135939638,"(41.77045469072984,-87.65827135939638)",2015-02-02
158782,02/02/2015,Completed,02/04/2015,15-00195204,Street Light Out,1723 N CRILLY CT,60614.0,1174113.66981587,1911825.47450044,43.0,18.0,7.0,41.9134563791064,-87.63577053710651,"(41.9134563791064,-87.63577053710652)",2015-02-02
158783,02/02/2015,Completed,02/04/2015,15-00195247,Street Light Out,3712 S LITUANICA AVE,60609.0,1171132.25799601,1880396.25198001,11.0,9.0,60.0,41.82727830554287,-87.64764586847916,"(41.82727830554287,-87.64764586847915)",2015-02-02
158784,02/02/2015,Completed,02/04/2015,15-00195338,Street Light Out,5598 N OUTER LAKE SHORE DR SR,60640.0,1169304.8229906,1937301.29989154,48.0,20.0,77.0,41.983469007666294,-87.6526938700055,"(41.9834690076663,-87.65269387000552)",2015-02-02
158785,02/02/2015,Completed,02/04/2015,15-00195731,Street Light Out,49 E MONROE ST,60603.0,1176878.13149672,1899944.85872303,42.0,1.0,32.0,41.8807932526954,-87.62597445150415,"(41.8807932526954,-87.62597445150416)",2015-02-02
158786,02/02/2015,Completed,02/04/2015,15-00195897,Street Light Out,7600 W IRVING PARK RD,0.0,1124682.33591906,1925716.15782814,0.0,31.0,0.0,41.9525338200727,-87.8170665486409,"(41.9525338200727,-87.81706654864091)",2015-02-02
158787,02/03/2015,Completed - Dup,02/04/2015,15-00196053,Street Light Out,1200 W 71ST ST,60636.0,1169548.05938151,1857709.22731048,17.0,7.0,67.0,41.76505710352141,-87.65411569756728,"(41.765057103521414,-87.65411569756726)",2015-02-03
158788,02/03/2015,Completed - Dup,02/04/2015,15-00196110,Street Light Out,1600 W 95TH ST,60643.0,1167335.1849326,1841715.31117833,21.0,22.0,73.0,41.721215175191205,-87.66268341437326,"(41.7212151751912,-87.66268341437326)",2015-02-03
158789,02/03/2015,Completed - Dup,02/04/2015,15-00201999,Street Light Out,3512 W ARTHINGTON ST,60624.0,1153100.76012167,1895816.90520582,24.0,11.0,27.0,41.86997029813065,-87.71339266194195,"(41.86997029813066,-87.71339266194195)",2015-02-03
158790,02/03/2015,Completed - Dup,02/04/2015,15-00202170,Street Light Out,400 W OAKDALE AVE,60657.0,1173060.94947569,1919884.79607516,44.0,19.0,6.0,41.9355949327996,-87.63939836936225,"(41.9355949327996,-87.63939836936225)",2015-02-03
158791,02/03/2015,Completed - Dup,02/04/2015,15-00202180,Street Light Out,2900 N SHERIDAN RD,60657.0,1173079.21342611,1919429.79880032,44.0,19.0,6.0,41.93434599739061,-87.63934478459267,"(41.93434599739061,-87.63934478459267)",2015-02-03
158792,02/03/2015,Completed - Dup,02/04/2015,15-00202312,Street Light Out,3000 S LOOMIS ST,60608.0,1168844.85998786,1884919.27106751,11.0,9.0,60.0,41.83973969524873,-87.65590709935594,"(41.83973969524873,-87.65590709935596)",2015-02-03
158793,02/03/2015,Completed - Dup,02/04/2015,15-00204442,Street Light Out,7435 W HOWARD ST,60631.0,1125724.55610963,1949881.1305987,41.0,16.0,9.0,42.018827673115204,-87.81269522351488,"(42.0188276731152,-87.81269522351488)",2015-02-03
158794,02/03/2015,Completed - Dup,02/04/2015,15-00204746,Street Light Out,3808 W WEST END AVE,60624.0,1150979.66010889,1900549.08863059,28.0,11.0,26.0,41.882997704691356,-87.72105597745104,"(41.88299770469135,-87.72105597745104)",2015-02-03
158795,02/03/2015,Completed - Dup,02/04/2015,15-00205457,Street Light Out,8700 S DR MARTIN LUTHER KING JR DR,60619.0,1180435.02037218,1847392.13926803,6.0,6.0,44.0,41.73650302791872,-87.61452795931898,"(41.73650302791872,-87.61452795931898)",2015-02-03
158796,02/03/2015,Completed - Dup,02/04/2015,15-00205464,Street Light Out,1939 W 95TH ST,60643.0,1165043.03267831,1841654.38989684,19.0,22.0,72.0,41.72109669104263,-87.67108085216525,"(41.721096691042625,-87.67108085216523)",2015-02-03
158797,02/03/2015,Completed - Dup,02/04/2015,15-00205572,Street Light Out,1201 W 71ST ST,60636.0,1169537.05938151,1857708.82731048,17.0,7.0,67.0,41.765056244220645,-87.65415602736435,"(41.76505624422065,-87.65415602736435)",2015-02-03
158798,02/03/2015,Completed - Dup,02/04/2015,15-00205654,Street Light Out,1301 W 71ST ST,60636.0,1168728.32993356,1857684.54307029,17.0,7.0,67.0,41.765007090089135,-87.65712095860043,"(41.765007090089135,-87.65712095860042)",2015-02-03
158799,02/03/2015,Completed - Dup,02/04/2015,15-00206142,Street Light Out,702 W BUCKINGHAM PL,60657.0,1170949.34169082,1922472.1232218998,44.0,19.0,6.0,41.9427413022163,-87.64708248050373,"(41.9427413022163,-87.64708248050373)",2015-02-03
158800,02/03/2015,Completed - Dup,02/04/2015,15-00206422,Street Light Out,2839 N BURLING ST,60657.0,1170809.99992733,1919094.61240324,44.0,19.0,6.0,41.93347633371298,-87.64769391013606,"(41.933476333712974,-87.64769391013604)",2015-02-03
158801,02/03/2015,Completed - Dup,02/04/2015,15-00206577,Street Light Out,720 W OAKDALE AVE,60657.0,1170736.20160845,1919867.36508249,44.0,19.0,6.0,41.935598419464924,-87.6479424096308,"(41.93559841946492,-87.6479424096308)",2015-02-03
158802,02/03/2015,Completed - Dup,02/04/2015,15-00206579,Street Light Out,2800 N BURLING ST,60657.0,1170819.49992733,1918828.81240324,44.0,19.0,6.0,41.932746758467154,-87.64766681041931,"(41.93274675846716,-87.64766681041932)",2015-02-03
158803,02/03/2015,Completed - Dup,02/04/2015,15-00206743,Street Light Out,1000 N PULASKI RD,60651.0,1149539.38631354,1906377.76359139,37.0,11.0,23.0,41.89902028389674,-87.7261933274342,"(41.89902028389674,-87.72619332743419)",2015-02-03
158804,02/03/2015,Completed - Dup,02/04/2015,15-00206955,Street Light Out,8700 S DR MARTIN LUTHER KING JR DR,60619.0,1180435.02037218,1847392.13926803,6.0,6.0,44.0,41.73650302791872,-87.61452795931898,"(41.73650302791872,-87.61452795931898)",2015-02-03
158805,02/03/2015,Completed,02/04/2015,15-00196114,Street Light Out,5200 N NB OUTER LAKE SHORE DR,60640.0,1169984.44517084,1934827.55930753,48.0,20.0,77.0,41.97666616095503,-87.65026691352463,"(41.97666616095502,-87.65026691352462)",2015-02-03
158806,02/03/2015,Completed,02/04/2015,15-00196195,Street Light Out,2035 W ARMITAGE AVE,60647.0,1162472.57349626,1913294.65199459,32.0,14.0,22.0,41.917739746317984,-87.67849615372583,"(41.917739746317984,-87.67849615372583)",2015-02-03
158807,02/03/2015,Completed,02/04/2015,15-00196279,Street Light Out,1000 W 31ST ST,60608.0,1170105.55911624,1884287.70116952,11.0,9.0,60.0,41.83797923170597,-87.65129930372544,"(41.83797923170598,-87.65129930372544)",2015-02-03
158808,02/03/2015,Completed,02/04/2015,15-00196366,Street Light Out,7520 W TALCOTT AVE,60631.0,1125213.16013054,1939241.25347464,41.0,16.0,10.0,41.98963937447599,-87.81481425365347,"(41.98963937447599,-87.81481425365347)",2015-02-03
158809,02/03/2015,Completed,02/04/2015,15-00197077,Street Light Out,2845 W WABANSIA AVE,60647.0,1157088.17897018,1911289.88832633,1.0,14.0,24.0,41.912349628339,-87.69833319564103,"(41.912349628339,-87.69833319564103)",2015-02-03
158810,02/03/2015,Completed,02/04/2015,15-00197476,Street Light Out,3801 N ALBANY AVE,60618.0,1155043.21561846,1925108.75187146,33.0,17.0,16.0,41.95031094330719,-87.70547409946171,"(41.95031094330719,-87.70547409946171)",2015-02-03
158811,02/03/2015,Completed,02/04/2015,15-00197814,Street Light Out,2208 W PALMER ST,60647.0,1161243.84377852,1914807.10007559,32.0,14.0,22.0,41.92191566576393,-87.68296841027515,"(41.92191566576393,-87.68296841027515)",2015-02-03
158812,02/03/2015,Completed,02/04/2015,15-00199637,Street Light Out,1900 N CLEVELAND AVE,60614.0,1172629.46582547,1912913.66417751,43.0,18.0,7.0,41.91647541931872,-87.64119088270239,"(41.91647541931872,-87.64119088270239)",2015-02-03
158813,02/03/2015,Completed,02/04/2015,15-00201520,Street Light Out,9700 S LOWE AVE,60628.0,1173680.62451176,1840549.15192646,21.0,22.0,73.0,41.71787707058808,-87.63947580087607,"(41.717877070588074,-87.63947580087606)",2015-02-03
158814,02/03/2015,Completed,02/04/2015,15-00201776,Street Light Out,6730 S JEFFERY BLVD,60649.0,1190704.20011755,1860744.67631626,5.0,3.0,43.0,41.7729020223421,-87.57647527894268,"(41.7729020223421,-87.57647527894267)",2015-02-03
158815,02/03/2015,Completed,02/04/2015,15-00201799,Street Light Out,6801 S JEFFERY BLVD,60649.0,1190716.04772659,1860274.05996615,5.0,3.0,43.0,41.77161032844327,-87.57644703184238,"(41.771610328443266,-87.57644703184238)",2015-02-03
158816,02/03/2015,Completed,02/04/2015,15-00202837,Street Light Out,1500 W 72ND ST,60636.0,1167361.34326823,1856983.91628111,17.0,7.0,67.0,41.76311385787288,-87.66215140569412,"(41.763113857872874,-87.66215140569413)",2015-02-03
158817,02/03/2015,Completed,02/04/2015,15-00203615,Street Light Out,5400 S NORMANDY AVE,60638.0,1132631.70310218,1868039.74653348,23.0,8.0,56.0,41.794126273277676,-87.78918789864107,"(41.79412627327767,-87.78918789864107)",2015-02-03
158818,02/03/2015,Completed,02/04/2015,15-00204328,Street Light Out,139 S JEFFERSON ST,60661.0,1172352.30142539,1899635.60320539,2.0,1.0,28.0,41.88004579426009,-87.6426019261192,"(41.88004579426009,-87.6426019261192)",2015-02-03
158819,02/03/2015,Completed,02/04/2015,15-00205453,Street Light Out,7622 S VERNON AVE,60619.0,1180564.48543234,1854571.67266902,6.0,6.0,69.0,41.756201512047426,-87.61383370553145,"(41.756201512047426,-87.61383370553145)",2015-02-03
158820,02/03/2015,Completed,02/04/2015,15-00205790,Street Light Out,1132 W 71ST ST,60621.0,1169880.37739088,1857717.09379643,17.0,7.0,68.0,41.76507148275082,-87.65289742690737,"(41.76507148275082,-87.65289742690737)",2015-02-03
158821,02/04/2015,Completed - Dup,02/04/2015,15-00207631,Street Light Out,11426 S YALE AVE,60628.0,1176653.07999487,1829171.2835310001,34.0,5.0,49.0,41.686588317115685,-87.62892975283377,"(41.68658831711569,-87.62892975283376)",2015-02-04
158822,02/04/2015,Completed - Dup,02/04/2015,15-00207651,Street Light Out,2506 N CALIFORNIA AVE,60647.0,1157284.21567314,1916559.85257913,35.0,14.0,22.0,41.92680683426091,-87.69746945619617,"(41.92680683426091,-87.69746945619617)",2015-02-04
158823,02/04/2015,Completed - Dup,02/04/2015,15-00207657,Street Light Out,2517 N CALIFORNIA AVE,60647.0,1157280.61567314,1916678.15257913,35.0,14.0,22.0,41.92713153147447,-87.69747946105824,"(41.92713153147448,-87.69747946105824)",2015-02-04
158824,02/04/2015,Completed - Dup,02/04/2015,15-00207658,Street Light Out,2521 N CALIFORNIA AVE,60647.0,1157279.344225,1916721.120875,35.0,14.0,22.0,41.927249465527204,-87.6974829622475,"(41.9272494655272,-87.6974829622475)",2015-02-04
158825,02/04/2015,Completed - Dup,02/04/2015,15-00207659,Street Light Out,2527 N CALIFORNIA AVE,60647.0,1157277.444225,1916785.620875,35.0,14.0,22.0,41.927426496953494,-87.69748818639962,"(41.92742649695349,-87.69748818639962)",2015-02-04
158826,02/04/2015,Completed - Dup,02/04/2015,15-00207668,Street Light Out,2533 N CALIFORNIA AVE,60647.0,1157275.444225,1916850.120875,35.0,14.0,22.0,41.92760353040916,-87.69749377803602,"(41.92760353040916,-87.69749377803602)",2015-02-04
158827,02/04/2015,Completed - Dup,02/04/2015,15-00207850,Street Light Out,2451 S ASHLAND AVE,60608.0,1166089.13010754,1887729.32860987,25.0,12.0,31.0,41.84750996212875,-87.66593927949057,"(41.84750996212874,-87.66593927949056)",2015-02-04
158828,02/04/2015,Completed - Dup,02/04/2015,15-00213054,Street Light Out,1800 W 95TH ST,60643.0,1166018.75633152,1841680.1081818,19.0,22.0,72.0,41.72114661328128,-87.66750623869032,"(41.72114661328127,-87.66750623869031)",2015-02-04
158829,02/04/2015,Completed - Dup,02/04/2015,15-00213157,Street Light Out,298 N STATE ST,60601.0,1176306.05490992,1902370.55198164,42.0,1.0,32.0,41.88746240928518,-87.62800184054231,"(41.88746240928518,-87.62800184054231)",2015-02-04
158830,02/04/2015,Completed - Dup,02/04/2015,15-00214315,Street Light Out,3500 W ARTHINGTON ST,60624.0,1153181.16012167,1895818.90520582,24.0,11.0,27.0,41.869974192603436,-87.713097434544,"(41.86997419260344,-87.713097434544)",2015-02-04
158831,02/04/2015,Completed - Dup,02/04/2015,15-00214993,Street Light Out,2513 N CALIFORNIA AVE,60647.0,1157281.91567314,1916635.15257913,35.0,14.0,22.0,41.927013509839846,-87.69747585582701,"(41.92701350983984,-87.69747585582702)",2015-02-04
158832,02/04/2015,Completed - Dup,02/04/2015,15-00214994,Street Light Out,2515 N CALIFORNIA AVE,60647.0,1157281.31567314,1916656.65257913,35.0,14.0,22.0,41.92707251964001,-87.69747747471213,"(41.92707251964001,-87.69747747471213)",2015-02-04
158833,02/04/2015,Completed - Dup,02/04/2015,15-00215568,Street Light Out,31 W 43RD PL,60609.0,1176561.501275,1876169.650825,3.0,2.0,38.0,41.81555951453025,-87.62785425492315,"(41.81555951453025,-87.62785425492316)",2015-02-04
158834,02/04/2015,Completed - Dup,02/04/2015,15-00215964,Street Light Out,700 W NORTH AVE,60610.0,1171378.98987736,1910892.05147844,43.0,18.0,7.0,41.910955610450756,-87.64584458746141,"(41.91095561045076,-87.64584458746141)",2015-02-04
158835,02/04/2015,Completed,02/04/2015,15-00207292,Street Light Out,7900 S BURNHAM AVE,60617.0,1196212.85000295,1853126.37002759,7.0,4.0,46.0,41.751862056012406,-87.55653460431873,"(41.751862056012406,-87.55653460431874)",2015-02-04
158836,02/04/2015,Completed,02/04/2015,15-00207864,Street Light Out,2451 S ASHLAND AVE,60608.0,1166089.13010754,1887729.32860987,25.0,12.0,31.0,41.84750996212875,-87.66593927949057,"(41.84750996212874,-87.66593927949056)",2015-02-04
158837,02/04/2015,Completed,02/04/2015,15-00214108,Street Light Out,7137 N GLENWOOD AVE,60626.0,1165624.53009584,1947956.63681081,49.0,24.0,1.0,42.01278694871584,-87.66592379663733,"(42.01278694871584,-87.66592379663733)",2015-02-04
158964,02/01/2015,Completed - Dup,02/05/2015,15-00184715,Street Light Out,8400 S DR MARTIN LUTHER KING JR DR,60619.0,1180378.31132587,1849389.14331418,6.0,6.0,44.0,41.741984340315476,-87.61467462369387,"(41.741984340315476,-87.61467462369387)",2015-02-01
158965,02/01/2015,Completed - Dup,02/05/2015,15-00184746,Street Light Out,8200 S SACRAMENTO AVE,60652.0,1157805.8055882,1850093.94798239,18.0,8.0,70.0,41.74440596664497,-87.69736110107435,"(41.74440596664497,-87.69736110107436)",2015-02-01
158966,02/01/2015,Completed - Dup,02/05/2015,15-00185276,Street Light Out,1301 W HUBBARD ST,60642.0,1167857.28928535,1903216.73218835,27.0,12.0,24.0,41.88997076104507,-87.65900363833714,"(41.88997076104507,-87.65900363833714)",2015-02-01
158967,02/01/2015,Completed - Dup,02/05/2015,15-00186610,Street Light Out,300 E 83RD ST,60619.0,1179478.05898719,1850028.37379479,6.0,6.0,44.0,41.74375904730032,-87.6179536339011,"(41.743759047300316,-87.61795363390111)",2015-02-01
158968,02/01/2015,Completed,02/05/2015,15-00184848,Street Light Out,10900 S WENTWORTH AVE,60628.0,1176880.41532128,1832664.86921302,34.0,5.0,49.0,41.69617012910829,-87.62799279609621,"(41.69617012910829,-87.62799279609621)",2015-02-01
158969,02/01/2015,Completed,02/05/2015,15-00187436,Street Light Out,6700 S CRANDON AVE,60649.0,1192472.93008207,1860986.32769604,5.0,3.0,43.0,41.77352223481361,-87.56998383075997,"(41.77352223481361,-87.56998383075997)",2015-02-01
158970,02/02/2015,Completed - Dup,02/05/2015,15-00190070,Street Light Out,139 E 123RD ST,60628.0,1179478.30730921,1823436.12133391,9.0,5.0,53.0,41.67078632236544,-87.61876125548952,"(41.67078632236544,-87.61876125548952)",2015-02-02
158971,02/02/2015,Completed - Dup,02/05/2015,15-00191021,Street Light Out,11800 S LAFLIN ST,60643.0,1168456.6105978999,1826484.58898435,34.0,5.0,53.0,41.67939556798019,-87.65901264121803,"(41.679395567980194,-87.65901264121803)",2015-02-02
158972,02/02/2015,Completed - Dup,02/05/2015,15-00191968,Street Light Out,4768 N MANOR AVE,60625.0,1155706.56312341,1931593.90232744,33.0,17.0,14.0,41.968093234125774,-87.70286029144064,"(41.96809323412577,-87.70286029144064)",2015-02-02
158973,02/02/2015,Completed - Dup,02/05/2015,15-00193802,Street Light Out,11710 S LAFLIN ST,60643.0,1168438.69328978,1827080.75950032,34.0,5.0,53.0,41.681031946745314,-87.6590611482132,"(41.68103194674531,-87.65906114821321)",2015-02-02
158974,02/02/2015,Completed - Dup,02/05/2015,15-00194107,Street Light Out,5243 W DAKIN ST,60641.0,1140699.05712541,1925747.14369302,38.0,16.0,15.0,41.95233899258997,-87.75818675705895,"(41.95233899258998,-87.75818675705894)",2015-02-02
158975,02/02/2015,Completed - Dup,02/05/2015,15-00194214,Street Light Out,6421 N NEWCASTLE AVE,60631.0,1129986.11552185,1942169.76890412,41.0,16.0,10.0,41.99759484652912,-87.79719069895208,"(41.99759484652912,-87.79719069895208)",2015-02-02
158976,02/02/2015,Completed - Dup,02/05/2015,15-00194418,Street Light Out,12718 S SAGINAW AVE,60633.0,1196085.55812147,1821234.12998836,10.0,4.0,55.0,41.66434983450268,-87.5580532627186,"(41.66434983450268,-87.55805326271859)",2015-02-02
158977,02/02/2015,Completed - Dup,02/05/2015,15-00194737,Street Light Out,200 E 83RD ST,60619.0,1179036.99232391,1850014.83859482,6.0,6.0,44.0,41.74373195582859,-87.6195701373357,"(41.74373195582859,-87.6195701373357)",2015-02-02
158978,02/02/2015,Completed - Dup,02/05/2015,15-00194955,Street Light Out,5235 W DAKIN ST,60641.0,1140753.05712541,1925748.34369302,38.0,16.0,15.0,41.952341290903505,-87.75798821935966,"(41.9523412909035,-87.75798821935966)",2015-02-02
158979,02/02/2015,Completed - Dup,02/05/2015,15-00195496,Street Light Out,10640 S AVERS AVE,60655.0,1152572.35001603,1833667.13997336,19.0,22.0,74.0,41.69943234962655,-87.71696826060465,"(41.69943234962655,-87.71696826060466)",2015-02-02
158980,02/02/2015,Completed - Dup,02/05/2015,15-00195732,Street Light Out,12350 S EDBROOKE AVE,60628.0,1179472.00730921,1823334.92133391,9.0,5.0,53.0,41.67050875749958,-87.61878738410861,"(41.670508757499576,-87.61878738410863)",2015-02-02
158981,02/02/2015,Completed,02/05/2015,15-00192594,Street Light Out,6525 N ARTESIAN AVE,60645.0,1158800.62452912,1943238.34061951,50.0,24.0,2.0,41.99998303638882,-87.69116260347593,"(41.99998303638882,-87.69116260347593)",2015-02-02
158982,02/03/2015,Completed - Dup,02/05/2015,15-00200700,Street Light Out,7300 S MAY ST,60621.0,1169915.86261758,1856392.60437908,17.0,7.0,68.0,41.76143614405201,-87.65280577016689,"(41.761436144052006,-87.65280577016689)",2015-02-03
158983,02/03/2015,Completed - Dup,02/05/2015,15-00204363,Street Light Out,300 E 83RD ST,60619.0,1179478.05898719,1850028.37379479,6.0,6.0,44.0,41.74375904730032,-87.6179536339011,"(41.743759047300316,-87.61795363390111)",2015-02-03
158984,02/03/2015,Completed - Dup,02/05/2015,15-00204490,Street Light Out,7300 S MAY ST,60621.0,1169915.86261758,1856392.60437908,17.0,7.0,68.0,41.76143614405201,-87.65280577016689,"(41.761436144052006,-87.65280577016689)",2015-02-03
158985,02/03/2015,Completed - Dup,02/05/2015,15-00205289,Street Light Out,8400 S DR MARTIN LUTHER KING JR DR,60619.0,1180378.31132587,1849389.14331418,6.0,6.0,44.0,41.741984340315476,-87.61467462369387,"(41.741984340315476,-87.61467462369387)",2015-02-03
158986,02/03/2015,Completed - Dup,02/05/2015,15-00206143,Street Light Out,8425 S DR MARTIN LUTHER KING JR DR,60619.0,1180383.11132587,1849220.84331418,6.0,6.0,44.0,41.741522395619626,-87.61466218654492,"(41.741522395619626,-87.61466218654492)",2015-02-03
158987,02/03/2015,Completed - Dup,02/05/2015,15-00206641,Street Light Out,200 E 83RD ST,60619.0,1179036.99232391,1850014.83859482,6.0,6.0,44.0,41.74373195582859,-87.6195701373357,"(41.74373195582859,-87.6195701373357)",2015-02-03
158988,02/03/2015,Completed - Dup,02/05/2015,15-00206643,Street Light Out,300 E 83RD ST,60619.0,1179478.05898719,1850028.37379479,6.0,6.0,44.0,41.74375904730032,-87.6179536339011,"(41.743759047300316,-87.61795363390111)",2015-02-03
158989,02/03/2015,Completed - Dup,02/05/2015,15-00206950,Street Light Out,342 E 83RD ST,60619.0,1179918.03172438,1850041.59900312,6.0,6.0,44.0,41.743785290377076,-87.61634114709345,"(41.743785290377076,-87.61634114709345)",2015-02-03
158990,02/03/2015,Completed,02/05/2015,15-00197879,Street Light Out,9149 S JUSTINE ST,60620.0,1167609.8876018,1844053.76001974,21.0,22.0,73.0,41.72762635625496,-87.66161039593588,"(41.72762635625496,-87.66161039593587)",2015-02-03
158991,02/03/2015,Completed,02/05/2015,15-00201141,Street Light Out,10910 S AVENUE L,60617.0,1201867.03278302,1833225.75149523,10.0,4.0,52.0,41.697111327527345,-87.53649018091222,"(41.69711132752734,-87.53649018091222)",2015-02-03
158992,02/03/2015,Completed,02/05/2015,15-00206605,Street Light Out,2550 W 117TH ST,60655.0,1161411.99211315,1826964.31059769,19.0,22.0,75.0,41.680860417280094,-87.68478586577105,"(41.680860417280094,-87.68478586577105)",2015-02-03
158993,02/03/2015,Completed,02/05/2015,15-00206974,Street Light Out,13600 S INDIANA AVE,60827.0,1179965.64093128,1815108.12568574,0.0,0.0,0.0,41.64792189350825,-87.61723088575162,"(41.64792189350825,-87.61723088575162)",2015-02-03
158994,02/04/2015,Completed - Dup,02/05/2015,15-00207323,Street Light Out,3900 N LOCKWOOD AVE,60641.0,1140329.98593299,1925410.56309696,38.0,16.0,15.0,41.95142217249735,-87.75955177452576,"(41.951422172497345,-87.75955177452575)",2015-02-04
158995,02/04/2015,Completed - Dup,02/05/2015,15-00207615,Street Light Out,5226 N OLEANDER AVE,60656.0,1125010.74001873,1933831.08242607,41.0,16.0,10.0,41.974796659833075,-87.81567907276344,"(41.974796659833075,-87.81567907276343)",2015-02-04
158996,02/04/2015,Completed - Dup,02/05/2015,15-00208212,Street Light Out,3502 W ARTHINGTON ST,60624.0,1153167.76012167,1895818.60520582,24.0,11.0,27.0,41.869973635047685,-87.71314663822801,"(41.869973635047685,-87.71314663822801)",2015-02-04
158997,02/04/2015,Completed - Dup,02/05/2015,15-00209624,Street Light Out,11606 S AVENUE G,60617.0,1203234.26538895,1828628.78996891,10.0,4.0,52.0,41.684462043670266,-87.53164093332197,"(41.684462043670266,-87.53164093332197)",2015-02-04
158998,02/04/2015,Completed - Dup,02/05/2015,15-00209773,Street Light Out,5200 W BYRON ST,60641.0,1140999.44728178,1925426.01576753,38.0,16.0,15.0,41.951452250829774,-87.75709043741475,"(41.951452250829774,-87.75709043741473)",2015-02-04
158999,02/04/2015,Completed - Dup,02/05/2015,15-00210670,Street Light Out,7345 S MAY ST,60621.0,1169924.06261758,1856090.80437908,17.0,7.0,68.0,41.760607787920904,-87.65278446733448,"(41.76060778792091,-87.65278446733448)",2015-02-04
159000,02/04/2015,Completed - Dup,02/05/2015,15-00211153,Street Light Out,10820 S EBERHART AVE,60628.0,1181497.75567082,1833317.64600728,9.0,5.0,49.0,41.69785643188946,-87.61106705873603,"(41.69785643188946,-87.61106705873601)",2015-02-04
159001,02/04/2015,Completed - Dup,02/05/2015,15-00211515,Street Light Out,1900 N LATROBE AVE,60639.0,1140906.74000702,1912660.84001426,37.0,25.0,19.0,41.91642502691494,-87.75774626923256,"(41.916425026914936,-87.75774626923257)",2015-02-04
159002,02/04/2015,Completed - Dup,02/05/2015,15-00211840,Street Light Out,5235 W BYRON ST,60641.0,1140762.74728178,1925420.51576753,38.0,16.0,15.0,41.95144152215599,-87.7579606881456,"(41.95144152215599,-87.7579606881456)",2015-02-04
159003,02/04/2015,Completed - Dup,02/05/2015,15-00212250,Street Light Out,5232 N OLEANDER AVE,60656.0,1125010.74001873,1933871.18242607,41.0,16.0,10.0,41.974906698570315,-87.81567818168814,"(41.97490669857032,-87.81567818168814)",2015-02-04
159004,02/04/2015,Completed - Dup,02/05/2015,15-00213366,Street Light Out,5226 N OLEANDER AVE,60656.0,1125010.74001873,1933831.08242607,41.0,16.0,10.0,41.974796659833075,-87.81567907276344,"(41.974796659833075,-87.81567907276343)",2015-02-04
159005,02/04/2015,Completed - Dup,02/05/2015,15-00213535,Street Light Out,2514 W MORSE AVE,60645.0,1158315.47737546,1945714.5479762,50.0,24.0,2.0,42.006787806346715,-87.69287920741988,"(42.006787806346715,-87.69287920741988)",2015-02-04
159006,02/04/2015,Completed - Dup,02/05/2015,15-00214069,Street Light Out,3640 E 113TH ST,60617.0,1202260.25067239,1830647.37866611,10.0,4.0,52.0,41.69002605271898,-87.53513796040117,"(41.690026052718984,-87.53513796040117)",2015-02-04
159007,02/04/2015,Completed - Dup,02/05/2015,15-00214390,Street Light Out,10600 S AVERS AVE,60655.0,1152560.85001603,1833865.53997336,19.0,22.0,74.0,41.69997702339675,-87.7170051704778,"(41.69997702339675,-87.71700517047782)",2015-02-04
159008,02/04/2015,Completed - Dup,02/05/2015,15-00214634,Street Light Out,6908 N ROCKWELL ST,60645.0,1157749.69697038,1945780.79393005,50.0,24.0,2.0,42.006981182836476,-87.69495898957871,"(42.006981182836476,-87.69495898957871)",2015-02-04
159009,02/04/2015,Completed - Dup,02/05/2015,15-00214644,Street Light Out,2600 W NORTH AVE,60647.0,1158787.55287244,1910543.01059049,1.0,14.0,24.0,41.91026544292129,-87.69211065648845,"(41.910265442921286,-87.69211065648845)",2015-02-04
159010,02/04/2015,Completed - Dup,02/05/2015,15-00214646,Street Light Out,2700 W NORTH AVE,60647.0,1158125.97309586,1910529.74818316,1.0,14.0,24.0,41.91024259589671,-87.69454141007068,"(41.91024259589671,-87.69454141007068)",2015-02-04
159011,02/04/2015,Completed - Dup,02/05/2015,15-00214739,Street Light Out,5300 W BYRON ST,60641.0,1140329.98593299,1925410.56309696,38.0,16.0,15.0,41.95142217249735,-87.75955177452576,"(41.951422172497345,-87.75955177452575)",2015-02-04
159012,02/04/2015,Completed - Dup,02/05/2015,15-00214740,Street Light Out,11710 S LAFLIN ST,60643.0,1168438.69328978,1827080.75950032,34.0,5.0,53.0,41.681031946745314,-87.6590611482132,"(41.68103194674531,-87.65906114821321)",2015-02-04
159013,02/04/2015,Completed - Dup,02/05/2015,15-00214762,Street Light Out,8300 S DR MARTIN LUTHER KING JR DR,60619.0,1180353.09632928,1850055.07172256,6.0,6.0,44.0,41.74381230248478,-87.6147466353762,"(41.74381230248477,-87.6147466353762)",2015-02-04
159014,02/04/2015,Completed - Dup,02/05/2015,15-00214764,Street Light Out,8600 S DR MARTIN LUTHER KING JR DR,60619.0,1180416.38698059,1848058.08331376,6.0,6.0,44.0,41.738330883908695,-87.61457584912178,"(41.738330883908695,-87.61457584912178)",2015-02-04
159015,02/04/2015,Completed - Dup,02/05/2015,15-00214836,Street Light Out,711 W NORTH AVE,60610.0,1171266.7202,1910888.94775,27.0,18.0,8.0,41.91094956224328,-87.64625711505299,"(41.91094956224328,-87.64625711505298)",2015-02-04
159016,02/04/2015,Completed - Dup,02/05/2015,15-00214957,Street Light Out,10430 S AVENUE F,60617.0,1203486.39807296,1836417.23179005,10.0,4.0,52.0,41.70582774466797,-87.53045221145487,"(41.705827744667964,-87.53045221145486)",2015-02-04
159017,02/04/2015,Completed - Dup,02/05/2015,15-00214990,Street Light Out,2507 N CALIFORNIA AVE,60647.0,1157283.81567314,1916570.65257913,35.0,14.0,22.0,41.92683647840077,-87.69747063172859,"(41.926836478400766,-87.69747063172859)",2015-02-04
159018,02/04/2015,Completed - Dup,02/05/2015,15-00214991,Street Light Out,2750 W ALTGELD ST,60647.0,1157519.79640523,1916500.16582725,35.0,14.0,22.0,41.926638252253134,-87.6966054274304,"(41.92663825225313,-87.69660542743041)",2015-02-04
159019,02/04/2015,Completed - Dup,02/05/2015,15-00215054,Street Light Out,5219 W DAKIN ST,60641.0,1140861.25712541,1925750.64369302,38.0,16.0,15.0,41.95234560840415,-87.7575904111842,"(41.95234560840416,-87.75759041118421)",2015-02-04
159020,02/04/2015,Completed - Dup,02/05/2015,15-00215201,Street Light Out,2841 W 80TH ST,60652.0,1158723.65942927,1851450.90159771,18.0,8.0,70.0,41.74811099848629,-87.69396100391779,"(41.74811099848629,-87.6939610039178)",2015-02-04
159021,02/04/2015,Completed - Dup,02/05/2015,15-00215254,Street Light Out,5200 W BYRON ST,60641.0,1140999.44728178,1925426.01576753,38.0,16.0,15.0,41.951452250829774,-87.75709043741475,"(41.951452250829774,-87.75709043741473)",2015-02-04
159022,02/04/2015,Completed - Dup,02/05/2015,15-00215271,Street Light Out,2635 W MORSE AVE,60645.0,1157518.09697038,1945688.09393005,50.0,24.0,2.0,42.0067315464495,-87.69581362673958,"(42.0067315464495,-87.69581362673958)",2015-02-04
159023,02/04/2015,Completed - Dup,02/05/2015,15-00215352,Street Light Out,2600 W FARWELL AVE,60645.0,1157754.04511086,1945365.64611686,50.0,24.0,2.0,42.00584191391735,-87.6949543811768,"(42.00584191391735,-87.69495438117679)",2015-02-04
159024,02/04/2015,Completed - Dup,02/05/2015,15-00215476,Street Light Out,8033 S MOZART ST,60652.0,1158774.25942927,1851230.50159771,18.0,8.0,70.0,41.747505154140725,-87.69378159027515,"(41.74750515414073,-87.69378159027515)",2015-02-04
159025,02/04/2015,Completed - Dup,02/05/2015,15-00215669,Street Light Out,8300 S DR MARTIN LUTHER KING JR DR,60619.0,1180353.09632928,1850055.07172256,6.0,6.0,44.0,41.74381230248478,-87.6147466353762,"(41.74381230248477,-87.6147466353762)",2015-02-04
159026,02/04/2015,Completed - Dup,02/05/2015,15-00215673,Street Light Out,8400 S DR MARTIN LUTHER KING JR DR,60619.0,1180378.31132587,1849389.14331418,6.0,6.0,44.0,41.741984340315476,-87.61467462369387,"(41.741984340315476,-87.61467462369387)",2015-02-04
159027,02/04/2015,Completed - Dup,02/05/2015,15-00215674,Street Light Out,8500 S DR MARTIN LUTHER KING JR DR,60619.0,1180397.49292047,1848722.79559043,6.0,6.0,44.0,41.74015536517722,-87.61462473365215,"(41.74015536517723,-87.61462473365216)",2015-02-04
159028,02/04/2015,Completed - Dup,02/05/2015,15-00215677,Street Light Out,8600 S DR MARTIN LUTHER KING JR DR,60619.0,1180416.38698059,1848058.08331376,6.0,6.0,44.0,41.738330883908695,-87.61457584912178,"(41.738330883908695,-87.61457584912178)",2015-02-04
159029,02/04/2015,Completed - Dup,02/05/2015,15-00215806,Street Light Out,8300 S DR MARTIN LUTHER KING JR DR,60619.0,1180353.09632928,1850055.07172256,6.0,6.0,44.0,41.74381230248478,-87.6147466353762,"(41.74381230248477,-87.6147466353762)",2015-02-04
159030,02/04/2015,Completed - Dup,02/05/2015,15-00215820,Street Light Out,8400 S DR MARTIN LUTHER KING JR DR,60619.0,1180378.31132587,1849389.14331418,6.0,6.0,44.0,41.741984340315476,-87.61467462369387,"(41.741984340315476,-87.61467462369387)",2015-02-04
159031,02/04/2015,Completed - Dup,02/05/2015,15-00216030,Street Light Out,1900 N LOCKWOOD AVE,60639.0,1140922.58891581,1912044.96637138,37.0,25.0,25.0,41.91473470997068,-87.75770322695378,"(41.91473470997068,-87.75770322695378)",2015-02-04
159032,02/04/2015,Completed - Dup,02/05/2015,15-00216034,Street Light Out,1900 N LATROBE AVE,60639.0,1140906.74000702,1912660.84001426,37.0,25.0,19.0,41.91642502691494,-87.75774626923256,"(41.916425026914936,-87.75774626923257)",2015-02-04
159033,02/04/2015,Completed - Dup,02/05/2015,15-00216149,Street Light Out,8300 S DR MARTIN LUTHER KING JR DR,60619.0,1180353.09632928,1850055.07172256,6.0,6.0,44.0,41.74381230248478,-87.6147466353762,"(41.74381230248477,-87.6147466353762)",2015-02-04
159034,02/04/2015,Completed,02/05/2015,15-00207280,Street Light Out,3600 W BELMONT AVE,60618.0,1151828.33939609,1921042.26557212,35.0,17.0,21.0,41.93921621432524,-87.7173991723488,"(41.939216214325235,-87.7173991723488)",2015-02-04
159035,02/04/2015,Completed,02/05/2015,15-00207656,Street Light Out,2750 W ALTGELD ST,60647.0,1157519.79640523,1916500.16582725,35.0,14.0,22.0,41.926638252253134,-87.6966054274304,"(41.92663825225313,-87.69660542743041)",2015-02-04
159036,02/04/2015,Completed,02/05/2015,15-00207981,Street Light Out,2300 E 103RD ST,60617.0,1193189.63002552,1837132.00227204,10.0,4.0,51.0,41.708046400914334,-87.56813415713567,"(41.708046400914334,-87.56813415713567)",2015-02-04
159037,02/04/2015,Completed,02/05/2015,15-00208588,Street Light Out,40 N CALIFORNIA AVE,60612.0,1157720.22427288,1900262.49758176,2.0,12.0,27.0,41.882076638129575,-87.69631202395048,"(41.88207663812958,-87.69631202395048)",2015-02-04
159038,02/04/2015,Completed,02/05/2015,15-00209956,Street Light Out,3739 W 114TH PL,60655.0,1153428.8098174,1828370.68423127,19.0,22.0,74.0,41.68488097850224,-87.71397168491535,"(41.684880978502235,-87.71397168491535)",2015-02-04
159039,02/04/2015,Completed,02/05/2015,15-00210147,Street Light Out,2714 S ST LOUIS AVE,60623.0,1153472.56701378,1885746.53399949,22.0,10.0,30.0,41.842328657698864,-87.71229504903098,"(41.84232865769887,-87.712295049031)",2015-02-04
159040,02/04/2015,Completed,02/05/2015,15-00210420,Street Light Out,3650 W SUNNYSIDE AVE,60625.0,1151149.31957016,1929656.94538271,33.0,17.0,14.0,41.96286889503419,-87.71966806901808,"(41.96286889503419,-87.71966806901808)",2015-02-04
159041,02/04/2015,Completed,02/05/2015,15-00210531,Street Light Out,516 W 128TH ST,60628.0,1175383.06840445,1820012.56991789,9.0,5.0,53.0,41.661483748010006,-87.63385120504107,"(41.661483748010006,-87.63385120504107)",2015-02-04
159042,02/04/2015,Completed,02/05/2015,15-00210676,Street Light Out,3151 W ADDISON ST,60618.0,1154646.4598876,1923767.03628194,33.0,17.0,21.0,41.94663714994576,-87.70696858694834,"(41.94663714994576,-87.70696858694834)",2015-02-04
159043,02/04/2015,Completed,02/05/2015,15-00211044,Street Light Out,3358 N PIONEER AVE,60634.0,1120824.05239043,1921249.00008958,36.0,16.0,17.0,41.94033826750546,-87.83134627147813,"(41.94033826750546,-87.83134627147813)",2015-02-04
159044,02/04/2015,Completed,02/05/2015,15-00213248,Street Light Out,227 N STATE ST,60601.0,1176320.36167198,1902009.6699163998,42.0,1.0,32.0,41.886471806652665,-87.62796019606262,"(41.886471806652665,-87.62796019606262)",2015-02-04
159045,02/04/2015,Completed,02/05/2015,15-00213330,Street Light Out,2440 S FRANCISCO AVE,60623.0,1157419.03997947,1887504.01007067,12.0,10.0,30.0,41.84707215095364,-87.69776481325687,"(41.84707215095364,-87.69776481325688)",2015-02-04
159046,02/04/2015,Completed,02/05/2015,15-00214604,Street Light Out,10400 S STATE ST,60628.0,1178088.0816288,1836016.63839018,34.0,5.0,49.0,41.70534063166538,-87.62346994883043,"(41.70534063166538,-87.62346994883043)",2015-02-04
159047,02/04/2015,Completed,02/05/2015,15-00214704,Street Light Out,3400 W DOUGLAS BLVD,60623.0,1153923.22062001,1893249.1020968999,24.0,10.0,29.0,41.86290762507209,-87.71044154815192,"(41.86290762507209,-87.7104415481519)",2015-02-04
159048,02/04/2015,Completed,02/05/2015,15-00214911,Street Light Out,10307 S EWING AVE,60617.0,1202158.21437294,1837228.43912968,10.0,4.0,52.0,41.70808764209227,-87.53528826188926,"(41.70808764209227,-87.53528826188926)",2015-02-04
159049,02/04/2015,Completed,02/05/2015,15-00214981,Street Light Out,7033 S CAMPBELL AVE,60629.0,1160923.53566721,1857939.43348026,15.0,8.0,66.0,41.76587135786522,-87.68572089621792,"(41.76587135786522,-87.68572089621792)",2015-02-04
159050,02/04/2015,Completed,02/05/2015,15-00215015,Street Light Out,4308 W 69TH ST,60629.0,1148811.75012657,1858500.96616979,13.0,8.0,65.0,41.767653962389495,-87.73010082125374,"(41.767653962389495,-87.73010082125373)",2015-02-04
159051,02/04/2015,Completed,02/05/2015,15-00215140,Street Light Out,5501 W 63RD ST,60638.0,1140819.64002086,1862253.31701633,13.0,8.0,64.0,41.77810116553373,-87.75930417069286,"(41.77810116553373,-87.75930417069286)",2015-02-04
159052,02/04/2015,Completed,02/05/2015,15-00215324,Street Light Out,500 N RIDGEWAY AVE,60624.0,1151298.81950794,1903069.88840562,27.0,11.0,23.0,41.88990878989053,-87.71981782145335,"(41.88990878989052,-87.71981782145335)",2015-02-04
159053,02/04/2015,Completed,02/05/2015,15-00215489,Street Light Out,600 W NORTH AVE,60610.0,1172035.88519786,1910919.97476876,43.0,18.0,7.0,41.91101775988186,-87.643430578885,"(41.91101775988186,-87.643430578885)",2015-02-04
159054,02/04/2015,Completed,02/05/2015,15-00215767,Street Light Out,1951 E 92ND ST,60617.0,1190878.44302091,1844356.41229517,8.0,4.0,48.0,41.72792697667396,-87.5763650889453,"(41.72792697667396,-87.5763650889453)",2015-02-04
159055,02/04/2015,Completed,02/05/2015,15-00215810,Street Light Out,7800 S EAST END AVE,60649.0,1188890.38307245,1853597.66921235,8.0,4.0,43.0,41.75333362852343,-87.58335257695295,"(41.75333362852343,-87.58335257695295)",2015-02-04
159056,02/05/2015,Completed - Dup,02/05/2015,15-00216244,Street Light Out,3600 W BELMONT AVE,60618.0,1151828.33939609,1921042.26557212,35.0,17.0,21.0,41.93921621432524,-87.7173991723488,"(41.939216214325235,-87.7173991723488)",2015-02-05
159057,02/05/2015,Completed - Dup,02/05/2015,15-00216662,Street Light Out,8401 S DR MARTIN LUTHER KING JR DR,60619.0,1180378.51132587,1849382.44331418,6.0,6.0,44.0,41.74196595015672,-87.61467409591465,"(41.74196595015672,-87.61467409591464)",2015-02-05
159058,02/05/2015,Completed - Dup,02/05/2015,15-00217253,Street Light Out,8424 S DR MARTIN LUTHER KING JR DR,60619.0,1180383.01132587,1849227.64331418,6.0,6.0,44.0,41.74154105789969,-87.6146623448666,"(41.74154105789969,-87.6146623448666)",2015-02-05
159059,02/05/2015,Completed - Dup,02/05/2015,15-00217679,Street Light Out,2246 N LINCOLN PARK,60614.0,1173891.82137075,1915243.75599774,43.0,18.0,7.0,41.92284124305704,-87.63648351276086,"(41.92284124305705,-87.63648351276088)",2015-02-05
159060,02/05/2015,Completed - Dup,02/05/2015,15-00217930,Street Light Out,1653 W WASECA PL,60643.0,1167251.33112967,1829843.32968385,34.0,22.0,75.0,41.68863833058545,-87.66332887355611,"(41.68863833058545,-87.66332887355611)",2015-02-05
159061,02/05/2015,Completed - Dup,02/05/2015,15-00218484,Street Light Out,10400 S AVENUE E,60617.0,1203813.21012165,1836621.97507234,10.0,4.0,52.0,41.706381208768214,-87.52924848270443,"(41.706381208768214,-87.52924848270443)",2015-02-05
159062,02/05/2015,Completed - Dup,02/05/2015,15-00218827,Street Light Out,5200 W DAKIN ST,60641.0,1140989.65712541,1925753.44369302,38.0,16.0,15.0,41.952350923916114,-87.75711833388355,"(41.95235092391612,-87.75711833388355)",2015-02-05
159063,02/05/2015,Completed - Dup,02/05/2015,15-00219334,Street Light Out,8400 S DR MARTIN LUTHER KING JR DR,60619.0,1180378.31132587,1849389.14331418,6.0,6.0,44.0,41.741984340315476,-87.61467462369387,"(41.741984340315476,-87.61467462369387)",2015-02-05
159064,02/05/2015,Completed - Dup,02/05/2015,15-00219815,Street Light Out,2200 N LINCOLN PARK,60614.0,1173901.42137075,1914934.65599774,43.0,18.0,7.0,41.92199284555354,-87.63645746915611,"(41.92199284555354,-87.63645746915611)",2015-02-05
159065,02/05/2015,Completed - Dup,02/05/2015,15-00219861,Street Light Out,2600 W FARWELL AVE,60645.0,1157754.04511086,1945365.64611686,50.0,24.0,2.0,42.00584191391735,-87.6949543811768,"(42.00584191391735,-87.69495438117679)",2015-02-05
159066,02/05/2015,Completed - Dup,02/05/2015,15-00222836,Street Light Out,2444 W NORTH AVE,60647.0,1159718.29531871,1910563.78491339,1.0,14.0,24.0,41.910303304896026,-87.6886908944446,"(41.910303304896026,-87.6886908944446)",2015-02-05
159127,02/01/2015,Completed - Dup,02/06/2015,15-00186280,Street Light Out,9340 S DR MARTIN LUTHER KING JR DR,60619.0,1180555.09593147,1843130.59481549,6.0,6.0,49.0,41.72480608210721,-87.61421848598043,"(41.72480608210721,-87.61421848598043)",2015-02-01
159128,02/01/2015,Completed - Dup,02/06/2015,15-00186700,Street Light Out,5200 S GREENWOOD AVE,60615.0,1184262.42758394,1870888.3179026002,4.0,2.0,41.0,41.800890177144886,-87.59977157908102,"(41.80089017714488,-87.59977157908101)",2015-02-01
159129,02/02/2015,Completed - Dup,02/06/2015,15-00187985,Street Light Out,11438 S VINCENNES AVE,60643.0,1166249.74703361,1828849.4238027001,19.0,22.0,75.0,41.685932200215454,-87.66702377718967,"(41.68593220021545,-87.66702377718967)",2015-02-02
159130,02/02/2015,Completed - Dup,02/06/2015,15-00194796,Street Light Out,8600 S INDIANA AVE,60619.0,1179094.21698967,1848019.77227204,6.0,6.0,44.0,41.73825595365495,-87.61942110666455,"(41.73825595365495,-87.61942110666455)",2015-02-02
159131,02/02/2015,Completed - Dup,02/06/2015,15-00195542,Street Light Out,9328 S DR MARTIN LUTHER KING JR DR,60619.0,1180552.89593147,1843211.19481549,6.0,6.0,49.0,41.72502730890403,-87.61422407820984,"(41.72502730890403,-87.61422407820984)",2015-02-02
159132,02/02/2015,Completed,02/06/2015,15-00194739,Street Light Out,2544 W FARWELL AVE,60645.0,1158121.08377676,1945377.1692206,50.0,24.0,2.0,42.00586601584147,-87.69360368863322,"(42.00586601584147,-87.69360368863322)",2015-02-02
159133,02/03/2015,Completed - Dup,02/06/2015,15-00196392,Street Light Out,10423 S WABASH AVE,60628.0,1178416.67521215,1835866.85540643,9.0,5.0,49.0,41.70492216731919,-87.62227120914324,"(41.70492216731919,-87.62227120914324)",2015-02-03
159134,02/03/2015,Completed - Dup,02/06/2015,15-00201594,Street Light Out,5119 S LAPORTE AVE,60638.0,1144226.30837991,1870207.01520588,23.0,8.0,56.0,41.7998643474376,-87.74661598658388,"(41.7998643474376,-87.74661598658388)",2015-02-03
159135,02/03/2015,Completed - Dup,02/06/2015,15-00202083,Street Light Out,5204 S GREENWOOD AVE,60615.0,1184262.92758394,1870866.7179026,4.0,2.0,41.0,41.80083089334115,-87.59977042146609,"(41.80083089334115,-87.59977042146608)",2015-02-03
159136,02/03/2015,Completed - Dup,02/06/2015,15-00202107,Street Light Out,5447 S HARLEM AVE,60638.0,1129261.64258673,1867564.86012494,23.0,8.0,56.0,41.79288096724277,-87.80155683846156,"(41.792880967242766,-87.80155683846156)",2015-02-03
159137,02/03/2015,Completed - Dup,02/06/2015,15-00202108,Street Light Out,5439 S HARLEM AVE,60638.0,1129260.04258673,1867617.66012494,23.0,8.0,56.0,41.79302588759021,-87.8015615080056,"(41.79302588759021,-87.80156150800559)",2015-02-03
159138,02/03/2015,Completed - Dup,02/06/2015,15-00204463,Street Light Out,9300 S DR MARTIN LUTHER KING JR DR,60619.0,1180547.69593147,1843399.29481549,6.0,6.0,49.0,41.72554359772944,-87.61423737003383,"(41.725543597729434,-87.61423737003383)",2015-02-03
159139,02/03/2015,Completed - Dup,02/06/2015,15-00204977,Street Light Out,11400 S VINCENNES AVE,60643.0,1166366.44703361,1829129.2238027,19.0,22.0,75.0,41.686697541998775,-87.66658863338486,"(41.686697541998775,-87.66658863338486)",2015-02-03
159140,02/03/2015,Completed - Dup,02/06/2015,15-00205273,Street Light Out,10400 S WABASH AVE,60628.0,1178411.87521215,1836025.85540643,9.0,5.0,49.0,41.70535859400995,-87.6222839785954,"(41.70535859400995,-87.6222839785954)",2015-02-03
159141,02/03/2015,Completed - Dup,02/06/2015,15-00206649,Street Light Out,5811 S MONITOR AVE,60638.0,1138376.27458091,1865446.62577795,23.0,8.0,56.0,41.7869085838527,-87.7681848812526,"(41.7869085838527,-87.7681848812526)",2015-02-03
159142,02/03/2015,Completed,02/06/2015,15-00200873,Street Light Out,3128 N KOLMAR AVE,60641.0,1145442.03570273,1920410.23852484,31.0,25.0,20.0,41.937605389595596,-87.74088684789301,"(41.93760538959559,-87.74088684789301)",2015-02-03
159143,02/04/2015,Completed - Dup,02/06/2015,15-00207076,Street Light Out,11100 S MICHIGAN AVE,60628.0,1178787.87827853,1831381.67750363,9.0,5.0,49.0,41.692605791388004,-87.6210477492012,"(41.69260579138801,-87.6210477492012)",2015-02-04
159144,02/04/2015,Completed - Dup,02/06/2015,15-00207577,Street Light Out,1808 S HOMAN AVE,60623.0,1153984.86579043,1891044.59748892,24.0,10.0,29.0,41.856856987936055,-87.71027398089156,"(41.856856987936055,-87.71027398089154)",2015-02-04
159145,02/04/2015,Completed - Dup,02/06/2015,15-00208587,Street Light Out,3219 N KILDARE AVE,60641.0,1147150.78880979,1921145.98743379,31.0,17.0,16.0,41.939591772880775,-87.7345879265843,"(41.939591772880775,-87.7345879265843)",2015-02-04
159146,02/04/2015,Completed - Dup,02/06/2015,15-00208749,Street Light Out,9300 S DR MARTIN LUTHER KING JR DR,60619.0,1180547.69593147,1843399.29481549,6.0,6.0,49.0,41.72554359772944,-87.61423737003383,"(41.725543597729434,-87.61423737003383)",2015-02-04
159147,02/04/2015,Completed - Dup,02/06/2015,15-00209704,Street Light Out,5219 S GREENWOOD AVE,60615.0,1184264.92758394,1870785.7179026,4.0,2.0,41.0,41.80060857614443,-87.59976562201277,"(41.80060857614442,-87.59976562201277)",2015-02-04
159148,02/04/2015,Completed - Dup,02/06/2015,15-00210571,Street Light Out,10400 S WABASH AVE,60628.0,1178411.87521215,1836025.85540643,9.0,5.0,49.0,41.70535859400995,-87.6222839785954,"(41.70535859400995,-87.6222839785954)",2015-02-04
159149,02/04/2015,Completed - Dup,02/06/2015,15-00212723,Street Light Out,2300 S KEDZIE AVE,60623.0,1155385.52833074,1888538.1774113998,24.0,10.0,30.0,41.84995108111981,-87.705200052556,"(41.849951081119805,-87.705200052556)",2015-02-04
159150,02/04/2015,Completed - Dup,02/06/2015,15-00213084,Street Light Out,19 E 104TH ST,60628.0,1178282.37521215,1836022.15540643,9.0,5.0,49.0,41.705351373942015,-87.62275830330816,"(41.705351373942015,-87.62275830330815)",2015-02-04
159151,02/04/2015,Completed - Dup,02/06/2015,15-00213508,Street Light Out,9300 S DR MARTIN LUTHER KING JR DR,60619.0,1180547.69593147,1843399.29481549,6.0,6.0,49.0,41.72554359772944,-87.61423737003383,"(41.725543597729434,-87.61423737003383)",2015-02-04
159152,02/04/2015,Completed - Dup,02/06/2015,15-00214819,Street Light Out,2126 W 22ND PL,60608.0,1162544.37471037,1889053.46549959,25.0,10.0,31.0,41.85121838528957,-87.67891153792576,"(41.85121838528957,-87.67891153792576)",2015-02-04
159153,02/04/2015,Completed - Dup,02/06/2015,15-00214932,Street Light Out,7700 W MYRTLE AVE,60631.0,1124056.45030356,1940541.1229236,41.0,16.0,10.0,41.99322548728495,-87.81904021719272,"(41.99322548728495,-87.81904021719272)",2015-02-04
159154,02/04/2015,Completed - Dup,02/06/2015,15-00214934,Street Light Out,4314 W MELROSE ST,60641.0,1147146.98880979,1921260.48743379,31.0,17.0,16.0,41.93990604368284,-87.73459895360996,"(41.93990604368284,-87.73459895360996)",2015-02-04
159155,02/04/2015,Completed - Dup,02/06/2015,15-00214955,Street Light Out,7632 W MYRTLE AVE,60631.0,1124482.54720802,1940558.00988013,41.0,16.0,10.0,41.993264794063954,-87.81747246085718,"(41.99326479406395,-87.81747246085718)",2015-02-04
159156,02/04/2015,Completed - Dup,02/06/2015,15-00215002,Street Light Out,1600 S HOMAN AVE,60623.0,1153963.04187218,1891834.57429514,24.0,10.0,29.0,41.859025208817854,-87.71033304726805,"(41.859025208817854,-87.71033304726805)",2015-02-04
159157,02/04/2015,Completed - Dup,02/06/2015,15-00215037,Street Light Out,3848 N LOCKWOOD AVE,60641.0,1140336.60370397,1925171.04181799,38.0,16.0,15.0,41.950764782039975,-87.75953334230503,"(41.95076478203998,-87.75953334230503)",2015-02-04
159158,02/04/2015,Completed - Dup,02/06/2015,15-00215071,Street Light Out,10400 S WABASH AVE,60628.0,1178411.87521215,1836025.85540643,9.0,5.0,49.0,41.70535859400995,-87.6222839785954,"(41.70535859400995,-87.6222839785954)",2015-02-04
159159,02/04/2015,Completed - Dup,02/06/2015,15-00215270,Street Light Out,9100 S JEFFERY AVE,60617.0,1191099.18712431,1845026.76153227,8.0,4.0,48.0,41.72976115076092,-87.57553485859154,"(41.72976115076092,-87.57553485859155)",2015-02-04
159160,02/04/2015,Completed - Dup,02/06/2015,15-00215282,Street Light Out,3700 W ARTHINGTON ST,60624.0,1151854.37001515,1895797.43001742,24.0,11.0,27.0,41.86994146583584,-87.71796907781658,"(41.86994146583584,-87.71796907781658)",2015-02-04
159161,02/04/2015,Completed - Dup,02/06/2015,15-00215303,Street Light Out,5226 S GREENWOOD AVE,60615.0,1184265.82758394,1870747.9179026,4.0,2.0,41.0,41.800504828897,-87.59976350451778,"(41.800504828897,-87.59976350451778)",2015-02-04
159162,02/04/2015,Completed - Dup,02/06/2015,15-00215330,Street Light Out,10400 S WABASH AVE,60628.0,1178411.87521215,1836025.85540643,9.0,5.0,49.0,41.70535859400995,-87.6222839785954,"(41.70535859400995,-87.6222839785954)",2015-02-04
159163,02/04/2015,Completed - Dup,02/06/2015,15-00215375,Street Light Out,10400 S WABASH AVE,60628.0,1178411.87521215,1836025.85540643,9.0,5.0,49.0,41.70535859400995,-87.6222839785954,"(41.70535859400995,-87.6222839785954)",2015-02-04
159164,02/04/2015,Completed - Dup,02/06/2015,15-00215483,Street Light Out,5834 S CALIFORNIA AVE,60629.0,1158707.20241822,1865842.25383319,16.0,8.0,63.0,41.78760333956704,-87.693629094476,"(41.78760333956704,-87.693629094476)",2015-02-04
159165,02/04/2015,Completed - Dup,02/06/2015,15-00215528,Street Light Out,9300 S JEFFERY AVE,60617.0,1191135.16151784,1843698.59850717,8.0,4.0,48.0,41.72611567183253,-87.57544591464642,"(41.72611567183253,-87.5754459146464)",2015-02-04
159166,02/04/2015,Completed - Dup,02/06/2015,15-00215602,Street Light Out,3100 S KEDZIE AVE,60623.0,1155522.21067693,1883904.4850106998,22.0,10.0,30.0,41.83723293845612,-87.70482285962082,"(41.83723293845612,-87.70482285962082)",2015-02-04
159167,02/04/2015,Completed - Dup,02/06/2015,15-00215784,Street Light Out,2100 W 23RD ST,60608.0,1162728.51987745,1888728.49189565,25.0,10.0,31.0,41.85032277221853,-87.67824478254505,"(41.850322772218526,-87.67824478254504)",2015-02-04
159168,02/04/2015,Completed - Dup,02/06/2015,15-00215836,Street Light Out,1500 S HOMAN AVE,60623.0,1153943.49751846,1892504.11458848,24.0,10.0,29.0,41.86086289215818,-87.71038695665821,"(41.86086289215818,-87.7103869566582)",2015-02-04
159169,02/04/2015,Completed - Dup,02/06/2015,15-00215874,Street Light Out,9300 S JEFFERY AVE,60617.0,1191135.16151784,1843698.59850717,8.0,4.0,48.0,41.72611567183253,-87.57544591464642,"(41.72611567183253,-87.5754459146464)",2015-02-04
159170,02/04/2015,Completed - Dup,02/06/2015,15-00215929,Street Light Out,1500 S HOMAN AVE,60623.0,1153943.49751846,1892504.11458848,24.0,10.0,29.0,41.86086289215818,-87.71038695665821,"(41.86086289215818,-87.7103869566582)",2015-02-04
159171,02/04/2015,Completed - Dup,02/06/2015,15-00215956,Street Light Out,9300 S DR MARTIN LUTHER KING JR DR,60619.0,1180547.69593147,1843399.29481549,6.0,6.0,49.0,41.72554359772944,-87.61423737003383,"(41.725543597729434,-87.61423737003383)",2015-02-04
159172,02/04/2015,Completed - Dup,02/06/2015,15-00215984,Street Light Out,1600 S HOMAN AVE,60623.0,1153963.04187218,1891834.57429514,24.0,10.0,29.0,41.859025208817854,-87.71033304726805,"(41.859025208817854,-87.71033304726805)",2015-02-04
159173,02/04/2015,Completed - Dup,02/06/2015,15-00215993,Street Light Out,3625 W ARTHINGTON ST,60624.0,1152444.55958886,1895800.6962245,24.0,11.0,29.0,41.86993879820251,-87.71580221483481,"(41.86993879820251,-87.71580221483482)",2015-02-04
159174,02/04/2015,Completed - Dup,02/06/2015,15-00216117,Street Light Out,1500 S HOMAN AVE,60623.0,1153943.49751846,1892504.11458848,24.0,10.0,29.0,41.86086289215818,-87.71038695665821,"(41.86086289215818,-87.7103869566582)",2015-02-04
159175,02/04/2015,Completed - Dup,02/06/2015,15-00216136,Street Light Out,1629 W WASECA PL,60643.0,1167389.43112967,1829785.92968385,34.0,22.0,75.0,41.68847786664525,-87.66282493079508,"(41.68847786664525,-87.66282493079508)",2015-02-04
159176,02/04/2015,Completed,02/06/2015,15-00210264,Street Light Out,8300 S INDIANA AVE,60619.0,1179036.99232391,1850014.83859482,6.0,6.0,44.0,41.74373195582859,-87.6195701373357,"(41.74373195582859,-87.6195701373357)",2015-02-04
159177,02/04/2015,Completed,02/06/2015,15-00211160,Street Light Out,7653 S VERNON AVE,60619.0,1180569.68530266,1854364.51130925,6.0,6.0,69.0,41.755632919454065,-87.61382099877342,"(41.75563291945406,-87.61382099877342)",2015-02-04
159178,02/04/2015,Completed,02/06/2015,15-00211330,Street Light Out,1781 E 55TH ST,60615.0,1189444.18997851,1868883.54961675,5.0,2.0,41.0,41.79526603480089,-87.58083296785216,"(41.79526603480089,-87.58083296785215)",2015-02-04
159179,02/04/2015,Completed,02/06/2015,15-00214427,Street Light Out,8659 S LOOMIS BLVD,60620.0,1168508.75746652,1847330.08711192,21.0,6.0,71.0,41.73659778007373,-87.65822354717648,"(41.73659778007373,-87.65822354717648)",2015-02-04
159180,02/04/2015,Completed,02/06/2015,15-00214579,Street Light Out,7100 S NORMAL BLVD,60621.0,1174183.29161409,1857841.24917327,6.0,7.0,68.0,41.76531769088652,-87.6371223412558,"(41.76531769088652,-87.63712234125579)",2015-02-04
159181,02/04/2015,Completed,02/06/2015,15-00214719,Street Light Out,9400 S JEFFERY AVE,60617.0,1191153.25111518,1843036.37002139,8.0,4.0,48.0,41.724298013927736,-87.57540101045366,"(41.724298013927736,-87.57540101045366)",2015-02-04
159182,02/04/2015,Completed,02/06/2015,15-00214840,Street Light Out,1409 W 90TH ST,60620.0,1168479.22782259,1845069.35459231,21.0,22.0,73.0,41.73039463716748,-87.65839668497046,"(41.73039463716748,-87.65839668497046)",2015-02-04
159183,02/04/2015,Completed,02/06/2015,15-00215005,Street Light Out,700 W 71ST ST,60621.0,1172966.12001537,1857806.09023412,6.0,7.0,68.0,41.765248158607385,-87.64158467307197,"(41.765248158607385,-87.64158467307197)",2015-02-04
159184,02/04/2015,Completed,02/06/2015,15-00215284,Street Light Out,9200 S ELIZABETH ST,60620.0,1169608.83999597,1843768.29096832,21.0,22.0,73.0,41.726799948192024,-87.65429615034631,"(41.72679994819202,-87.65429615034631)",2015-02-04
159185,02/04/2015,Completed,02/06/2015,15-00215491,Street Light Out,700 W NORTH AVE,60610.0,1171378.98987736,1910892.05147844,43.0,18.0,7.0,41.910955610450756,-87.64584458746141,"(41.91095561045076,-87.64584458746141)",2015-02-04
159186,02/05/2015,Completed - Dup,02/06/2015,15-00216235,Street Light Out,2500 W FARWELL AVE,60645.0,1158414.78377676,1945386.4692206,50.0,24.0,2.0,42.005885508198965,-87.69252287765515,"(42.00588550819896,-87.69252287765514)",2015-02-05
159187,02/05/2015,Completed - Dup,02/06/2015,15-00216258,Street Light Out,9300 S JEFFERY AVE,60617.0,1191135.16151784,1843698.59850717,8.0,4.0,48.0,41.72611567183253,-87.57544591464642,"(41.72611567183253,-87.5754459146464)",2015-02-05
159188,02/05/2015,Completed - Dup,02/06/2015,15-00216260,Street Light Out,9301 S JEFFERY AVE,60617.0,1191135.36151784,1843691.89850717,8.0,4.0,48.0,41.72609728153668,-87.57544539812376,"(41.72609728153668,-87.57544539812376)",2015-02-05
159189,02/05/2015,Completed - Dup,02/06/2015,15-00216263,Street Light Out,9300 S JEFFERY AVE,60617.0,1191135.16151784,1843698.59850717,8.0,4.0,48.0,41.72611567183253,-87.57544591464642,"(41.72611567183253,-87.5754459146464)",2015-02-05
159190,02/05/2015,Completed - Dup,02/06/2015,15-00216271,Street Light Out,9200 S JEFFERY AVE,60617.0,1191116.76151552,1844362.88251316,8.0,4.0,48.0,41.72793897721757,-87.57549189136901,"(41.72793897721757,-87.57549189136901)",2015-02-05
159191,02/05/2015,Completed - Dup,02/06/2015,15-00216282,Street Light Out,54 E 104TH ST,60628.0,1178572.47521215,1836030.65540643,9.0,5.0,49.0,41.70536812547753,-87.6216957361893,"(41.70536812547752,-87.62169573618928)",2015-02-05
159192,02/05/2015,Completed - Dup,02/06/2015,15-00216288,Street Light Out,9200 S JEFFERY AVE,60617.0,1191116.76151552,1844362.88251316,8.0,4.0,48.0,41.72793897721757,-87.57549189136901,"(41.72793897721757,-87.57549189136901)",2015-02-05
159193,02/05/2015,Completed - Dup,02/06/2015,15-00216541,Street Light Out,2200 N LINCOLN PARK,60614.0,1173901.42137075,1914934.65599774,43.0,18.0,7.0,41.92199284555354,-87.63645746915611,"(41.92199284555354,-87.63645746915611)",2015-02-05
159194,02/05/2015,Completed - Dup,02/06/2015,15-00216825,Street Light Out,1500 S HOMAN AVE,60623.0,1153943.49751846,1892504.11458848,24.0,10.0,29.0,41.86086289215818,-87.71038695665821,"(41.86086289215818,-87.7103869566582)",2015-02-05
159195,02/05/2015,Completed - Dup,02/06/2015,15-00217505,Street Light Out,5100 S LAPORTE AVE,60638.0,1144222.10837991,1870355.81520588,23.0,8.0,56.0,41.80027275711787,-87.74662766473564,"(41.800272757117874,-87.74662766473564)",2015-02-05
159196,02/05/2015,Completed - Dup,02/06/2015,15-00218843,Street Light Out,4300 W MCLEAN AVE,60639.0,1147386.99667815,1913276.16993178,30.0,25.0,20.0,41.91799173952854,-87.73392198923406,"(41.91799173952854,-87.73392198923406)",2015-02-05
159197,02/05/2015,Completed - Dup,02/06/2015,15-00219065,Street Light Out,8300 S LOOMIS BLVD,60620.0,1168442.35973053,1849715.16112209,21.0,6.0,71.0,41.74314419152026,-87.65839827565011,"(41.74314419152026,-87.65839827565013)",2015-02-05
159198,02/05/2015,Completed - Dup,02/06/2015,15-00219299,Street Light Out,2500 S HILLOCK AVE,60608.0,1169560.6599911002,1887496.72001722,11.0,9.0,60.0,41.84679692450769,-87.65320553506872,"(41.846796924507686,-87.65320553506872)",2015-02-05
159199,02/05/2015,Completed - Dup,02/06/2015,15-00220004,Street Light Out,6213 N OZANAM AVE,60631.0,1123535.68988398,1940548.47519599,41.0,16.0,10.0,41.993254228748796,-87.82095565461559,"(41.993254228748796,-87.8209556546156)",2015-02-05
159200,02/05/2015,Completed - Dup,02/06/2015,15-00220134,Street Light Out,11336 S VINCENNES AVE,60643.0,1166481.70949455,1829402.9702055,19.0,22.0,75.0,41.68744630039839,-87.66615891348053,"(41.68744630039839,-87.66615891348053)",2015-02-05
159201,02/05/2015,Completed - Dup,02/06/2015,15-00220514,Street Light Out,9300 S DR MARTIN LUTHER KING JR DR,60619.0,1180547.69593147,1843399.29481549,6.0,6.0,49.0,41.72554359772944,-87.61423737003383,"(41.725543597729434,-87.61423737003383)",2015-02-05
159202,02/05/2015,Completed - Dup,02/06/2015,15-00220795,Street Light Out,8300 S INDIANA AVE,60619.0,1179036.99232391,1850014.83859482,6.0,6.0,44.0,41.74373195582859,-87.6195701373357,"(41.74373195582859,-87.6195701373357)",2015-02-05
159203,02/05/2015,Completed - Dup,02/06/2015,15-00221601,Street Light Out,11342 S VINCENNES AVE,60643.0,1166470.70949455,1829376.9702055,19.0,22.0,75.0,41.68737518570409,-87.66619992042318,"(41.68737518570409,-87.66619992042318)",2015-02-05
159204,02/05/2015,Completed - Dup,02/06/2015,15-00222430,Street Light Out,3100 S WESTERN AVE,60608.0,1160917.21688199,1884178.14901723,12.0,9.0,31.0,41.837873869143756,-87.68501865529888,"(41.837873869143756,-87.68501865529888)",2015-02-05
159205,02/05/2015,Completed - Dup,02/06/2015,15-00222475,Street Light Out,2141 W 23RD ST,60608.0,1162452.61987745,1888721.09189565,25.0,10.0,31.0,41.85030823698917,-87.67925759059199,"(41.850308236989164,-87.67925759059199)",2015-02-05
159206,02/05/2015,Completed - Dup,02/06/2015,15-00222485,Street Light Out,1400 S HOMAN AVE,60623.0,1153926.8174876,1893083.8540888,24.0,10.0,29.0,41.862454094470436,-87.71043274560215,"(41.86245409447044,-87.71043274560216)",2015-02-05
159207,02/05/2015,Completed - Dup,02/06/2015,15-00222486,Street Light Out,9300 S DR MARTIN LUTHER KING JR DR,60619.0,1180547.69593147,1843399.29481549,6.0,6.0,49.0,41.72554359772944,-87.61423737003383,"(41.725543597729434,-87.61423737003383)",2015-02-05
159208,02/05/2015,Completed - Dup,02/06/2015,15-00222679,Street Light Out,1531 S HOMAN AVE,60623.0,1153949.59751846,1892294.41458848,24.0,10.0,29.0,41.86028733027803,-87.71037015012972,"(41.86028733027803,-87.71037015012972)",2015-02-05
159209,02/05/2015,Completed - Dup,02/06/2015,15-00222792,Street Light Out,1659 S HOMAN AVE,60623.0,1153980.2455943997,1891209.44991197,24.0,10.0,29.0,41.857309453824406,-87.71028654879396,"(41.85730945382441,-87.71028654879397)",2015-02-05
159210,02/05/2015,Completed - Dup,02/06/2015,15-00222922,Street Light Out,150 E 24TH PL,60616.0,1177598.1737828997,1888153.38339507,2.0,1.0,33.0,41.84842039478322,-87.62368844850643,"(41.84842039478322,-87.62368844850643)",2015-02-05
159211,02/05/2015,Completed - Dup,02/06/2015,15-00222964,Street Light Out,1400 S HOMAN AVE,60623.0,1153926.8174876,1893083.8540888,24.0,10.0,29.0,41.862454094470436,-87.71043274560215,"(41.86245409447044,-87.71043274560216)",2015-02-05
159212,02/05/2015,Completed - Dup,02/06/2015,15-00222966,Street Light Out,1500 S HOMAN AVE,60623.0,1153943.49751846,1892504.11458848,24.0,10.0,29.0,41.86086289215818,-87.71038695665821,"(41.86086289215818,-87.7103869566582)",2015-02-05
159213,02/05/2015,Completed - Dup,02/06/2015,15-00223014,Street Light Out,3300 N KILDARE AVE,60641.0,1147137.44389126,1921592.22100555,31.0,17.0,16.0,41.940816532332846,-87.73462551910595,"(41.94081653233284,-87.73462551910596)",2015-02-05
159214,02/05/2015,Completed - Dup,02/06/2015,15-00223039,Street Light Out,10400 S WABASH AVE,60628.0,1178411.87521215,1836025.85540643,9.0,5.0,49.0,41.70535859400995,-87.6222839785954,"(41.70535859400995,-87.6222839785954)",2015-02-05
159215,02/05/2015,Completed - Dup,02/06/2015,15-00223061,Street Light Out,2200 N LINCOLN PARK,60614.0,1173901.42137075,1914934.65599774,43.0,18.0,7.0,41.92199284555354,-87.63645746915611,"(41.92199284555354,-87.63645746915611)",2015-02-05
159216,02/05/2015,Completed - Dup,02/06/2015,15-00223188,Street Light Out,10402 S WABASH AVE,60628.0,1178412.27521215,1836012.05540643,9.0,5.0,49.0,41.7053207158445,-87.62228293109905,"(41.7053207158445,-87.62228293109904)",2015-02-05
159217,02/05/2015,Completed - Dup,02/06/2015,15-00223189,Street Light Out,10402 S WABASH AVE,60628.0,1178412.27521215,1836012.05540643,9.0,5.0,49.0,41.7053207158445,-87.62228293109905,"(41.7053207158445,-87.62228293109904)",2015-02-05
159218,02/05/2015,Completed - Dup,02/06/2015,15-00223210,Street Light Out,19 E 104TH ST,60628.0,1178282.37521215,1836022.15540643,9.0,5.0,49.0,41.705351373942015,-87.62275830330816,"(41.705351373942015,-87.62275830330815)",2015-02-05
159219,02/05/2015,Completed - Dup,02/06/2015,15-00223225,Street Light Out,2130 W 22ND PL,60608.0,1162517.37471037,1889052.56549959,25.0,10.0,31.0,41.851216480198275,-87.67901065919291,"(41.85121648019827,-87.67901065919291)",2015-02-05
159220,02/05/2015,Completed - Dup,02/06/2015,15-00223388,Street Light Out,1600 S HOMAN AVE,60623.0,1153963.04187218,1891834.57429514,24.0,10.0,29.0,41.859025208817854,-87.71033304726805,"(41.859025208817854,-87.71033304726805)",2015-02-05
159221,02/05/2015,Completed - Dup,02/06/2015,15-00223440,Street Light Out,5100 S UNIVERSITY AVE,60615.0,1184673.4898796002,1871423.78322399,4.0,2.0,41.0,41.80234989885137,-87.59824730049819,"(41.80234989885137,-87.59824730049817)",2015-02-05
159222,02/05/2015,Completed - Dup,02/06/2015,15-00223441,Street Light Out,5200 S UNIVERSITY AVE,60615.0,1184688.2522331998,1870897.73172911,4.0,2.0,41.0,41.80090602652935,-87.59820966129938,"(41.80090602652935,-87.59820966129939)",2015-02-05
159223,02/05/2015,Completed - Dup,02/06/2015,15-00223442,Street Light Out,5300 S UNIVERSITY AVE,60615.0,1184701.41192996,1870363.75436766,4.0,2.0,41.0,41.799440442263034,-87.59817814918972,"(41.79944044226303,-87.59817814918972)",2015-02-05
159224,02/05/2015,Completed - Dup,02/06/2015,15-00223558,Street Light Out,3500 W ARTHINGTON ST,60624.0,1153181.16012167,1895818.90520582,24.0,11.0,27.0,41.869974192603436,-87.713097434544,"(41.86997419260344,-87.713097434544)",2015-02-05
159225,02/05/2015,Completed,02/06/2015,15-00216243,Street Light Out,4300 S FRANCISCO AVE,60632.0,1157745.91368537,1876003.52901733,14.0,9.0,58.0,41.815506812072094,-87.6968778891187,"(41.81550681207209,-87.69687788911868)",2015-02-05
159226,02/05/2015,Completed,02/06/2015,15-00216266,Street Light Out,7801 W IRVING PARK RD,60634.0,1123339.83001532,1925663.03118617,36.0,16.0,17.0,41.952410119896285,-87.82200293344486,"(41.952410119896285,-87.82200293344486)",2015-02-05
159227,02/05/2015,Completed,02/06/2015,15-00216404,Street Light Out,6000 W FOSTER AVE,60630.0,1135205.46652668,1934212.8499933,45.0,16.0,11.0,41.97566909808435,-87.77818003026155,"(41.97566909808435,-87.77818003026157)",2015-02-05
159228,02/05/2015,Completed,02/06/2015,15-00216455,Street Light Out,700 W 57TH ST,60621.0,1172606.18869003,1867081.31551251,20.0,7.0,68.0,41.79070837957626,-87.642630867807,"(41.79070837957626,-87.642630867807)",2015-02-05
159229,02/05/2015,Completed,02/06/2015,15-00216603,Street Light Out,4600 S WOOD ST,60609.0,1165120.57570151,1874190.41697946,20.0,9.0,61.0,41.810378355030046,-87.66987761056481,"(41.810378355030046,-87.66987761056482)",2015-02-05
159230,02/05/2015,Completed,02/06/2015,15-00216674,Street Light Out,10100 S ABERDEEN ST,60643.0,1170767.74461651,1837830.57018375,34.0,22.0,73.0,41.71048079984911,-87.65022352854567,"(41.71048079984911,-87.65022352854565)",2015-02-05
159231,02/05/2015,Completed,02/06/2015,15-00216844,Street Light Out,4700 S CICERO AVE,60638.0,1145151.44668427,1873040.71477112,23.0,8.0,56.0,41.8076230842688,-87.7431518334572,"(41.8076230842688,-87.7431518334572)",2015-02-05
159232,02/05/2015,Completed,02/06/2015,15-00218006,Street Light Out,3315 W WARNER AVE,60618.0,1153545.12911513,1927399.97140141,33.0,17.0,16.0,41.95662818924365,-87.71091978695063,"(41.956628189243645,-87.71091978695063)",2015-02-05
159233,02/05/2015,Completed,02/06/2015,15-00218224,Street Light Out,5630 S LOOMIS BLVD,60636.0,1167956.8362142001,1867414.63113024,16.0,7.0,67.0,41.79172427274745,-87.65966932381176,"(41.79172427274745,-87.65966932381176)",2015-02-05
159234,02/05/2015,Completed,02/06/2015,15-00218295,Street Light Out,2122 W RICE ST,60622.0,1162102.00860959,1905654.92758391,32.0,12.0,24.0,41.89678353339423,-87.68007138575865,"(41.89678353339423,-87.68007138575864)",2015-02-05
159235,02/05/2015,Completed,02/06/2015,15-00218658,Street Light Out,6100 S UNIVERSITY AVE,60637.0,1184822.58987141,1864792.41230417,20.0,3.0,42.0,41.784149380302665,-87.59790854254099,"(41.784149380302665,-87.59790854254098)",2015-02-05
159236,02/05/2015,Completed,02/06/2015,15-00219484,Street Light Out,5949 S WOODLAWN AVE,60637.0,1185242.26359438,1865649.42550489,5.0,2.0,41.0,41.78649123603972,-87.59634294561597,"(41.78649123603972,-87.59634294561597)",2015-02-05
159237,02/05/2015,Completed,02/06/2015,15-00219739,Street Light Out,5214 N CHRISTIANA AVE,60625.0,1153108.01582136,1934443.42927841,39.0,17.0,13.0,41.97596458215419,-87.71233906834671,"(41.97596458215419,-87.71233906834672)",2015-02-05
159238,02/05/2015,Completed,02/06/2015,15-00220343,Street Light Out,4561 W WELLINGTON AVE,60641.0,1145368.76212517,1919553.44498846,31.0,25.0,20.0,41.93525565857706,-87.74117789447969,"(41.93525565857706,-87.74117789447968)",2015-02-05
159239,02/05/2015,Completed,02/06/2015,15-00220563,Street Light Out,4430 S WALLACE ST,60609.0,1173040.52488041,1875390.02017766,11.0,9.0,61.0,41.813498729689535,-87.640792799179,"(41.813498729689535,-87.640792799179)",2015-02-05
159240,02/05/2015,Completed,02/06/2015,15-00221009,Street Light Out,10608 S MARTIN ST,60643.0,1169219.96660936,1834374.43808004,21.0,22.0,73.0,41.701030185332094,-87.65599134133461,"(41.70103018533209,-87.65599134133461)",2015-02-05
159241,02/05/2015,Completed,02/06/2015,15-00221184,Street Light Out,2028 N DAMEN AVE,60647.0,1162700.31921212,1913609.6275028,32.0,14.0,22.0,41.918599285421074,-87.67765056049521,"(41.918599285421074,-87.6776505604952)",2015-02-05
159242,02/05/2015,Completed,02/06/2015,15-00221869,Street Light Out,1800 W 95TH ST,60643.0,1166018.75633152,1841680.1081818,19.0,22.0,72.0,41.72114661328128,-87.66750623869032,"(41.72114661328127,-87.66750623869031)",2015-02-05
159243,02/05/2015,Completed,02/06/2015,15-00222352,Street Light Out,3100 S MAY ST,60608.0,1169150.60000178,1884262.44077638,11.0,9.0,60.0,41.83793066939044,-87.65480421115869,"(41.83793066939044,-87.65480421115868)",2015-02-05
159244,02/05/2015,Completed,02/06/2015,15-00222355,Street Light Out,3100 S ABERDEEN ST,60608.0,1169482.92999749,1884271.25191023,11.0,9.0,60.0,41.83794763742363,-87.65358448771731,"(41.83794763742363,-87.65358448771731)",2015-02-05
159245,02/05/2015,Completed,02/06/2015,15-00222460,Street Light Out,5227 S BERKELEY AVE,60615.0,1184064.279116,1870737.39667875,4.0,2.0,41.0,41.80048067547483,-87.60050296602276,"(41.80048067547483,-87.60050296602276)",2015-02-05
159246,02/05/2015,Completed,02/06/2015,15-00222574,Street Light Out,4600 N RACINE AVE,60640.0,1167471.57003123,1930690.04746826,46.0,19.0,3.0,41.96536730755637,-87.6596274197926,"(41.96536730755637,-87.65962741979259)",2015-02-05
159247,02/05/2015,Completed,02/06/2015,15-00222617,Street Light Out,1900 W FARRAGUT AVE,60640.0,1162868.17511248,1934887.8956694999,40.0,20.0,4.0,41.97698445359769,-87.676434672743,"(41.97698445359769,-87.676434672743)",2015-02-05
159248,02/05/2015,Completed,02/06/2015,15-00222626,Street Light Out,9420 S DAMEN AVE,60643.0,1164561.89839637,1842174.60990532,19.0,22.0,72.0,41.722534400518384,-87.67282853484636,"(41.72253440051838,-87.67282853484636)",2015-02-05
159249,02/05/2015,Completed,02/06/2015,15-00222699,Street Light Out,1400 N RIDGEWAY AVE,60651.0,1151115.34192404,1909054.10222048,26.0,25.0,23.0,41.906333668002574,-87.72033461154535,"(41.906333668002574,-87.72033461154534)",2015-02-05
159250,02/06/2015,Completed - Dup,02/06/2015,15-00223594,Street Light Out,54 E 104TH ST,60628.0,1178572.47521215,1836030.65540643,9.0,5.0,49.0,41.70536812547753,-87.6216957361893,"(41.70536812547752,-87.62169573618928)",2015-02-06
159251,02/06/2015,Completed - Dup,02/06/2015,15-00223842,Street Light Out,3728 W 79TH ST,60652.0,1152785.67006883,1851926.66640784,18.0,8.0,70.0,41.74953559922263,-87.71570747512075,"(41.74953559922263,-87.71570747512075)",2015-02-06
159252,02/06/2015,Completed - Dup,02/06/2015,15-00225971,Street Light Out,5002 N DAMEN AVE,60625.0,1162102.32716962,1933231.92029662,47.0,20.0,4.0,41.972456469807106,-87.6792975246707,"(41.97245646980711,-87.67929752467069)",2015-02-06
159253,02/06/2015,Completed - Dup,02/06/2015,15-00226528,Street Light Out,1500 S HOMAN AVE,60623.0,1153943.49751846,1892504.11458848,24.0,10.0,29.0,41.86086289215818,-87.71038695665821,"(41.86086289215818,-87.7103869566582)",2015-02-06
159254,02/06/2015,Completed - Dup,02/06/2015,15-00226634,Street Light Out,5800 N KOSTNER AVE,60646.0,1146029.54977492,1938188.12411896,39.0,17.0,12.0,41.98637813913744,-87.73827386612905,"(41.986378139137436,-87.73827386612905)",2015-02-06
159255,02/06/2015,Completed - Dup,02/06/2015,15-00226665,Street Light Out,5900 N KOSTNER AVE,60646.0,1146012.88462367,1938835.87007027,39.0,17.0,12.0,41.98815591459214,-87.73831860916634,"(41.98815591459214,-87.73831860916634)",2015-02-06
159256,02/06/2015,Completed - Dup,02/06/2015,15-00226815,Street Light Out,1500 S HOMAN AVE,60623.0,1153943.49751846,1892504.11458848,24.0,10.0,29.0,41.86086289215818,-87.71038695665821,"(41.86086289215818,-87.7103869566582)",2015-02-06
159257,02/06/2015,Completed - Dup,02/06/2015,15-00228030,Street Light Out,1546 S HOMAN AVE,60623.0,1153952.59751846,1892193.01458848,24.0,10.0,29.0,41.86000901750135,-87.710361838603,"(41.86000901750135,-87.710361838603)",2015-02-06
159258,02/06/2015,Completed - Dup,02/06/2015,15-00229433,Street Light Out,3200 N CLARK ST,60657.0,1169976.89611634,1921451.28419615,44.0,19.0,6.0,41.939961385312294,-87.65068653329149,"(41.9399613853123,-87.65068653329148)",2015-02-06
159259,02/06/2015,Completed - Dup,02/06/2015,15-00229996,Street Light Out,3500 W ARTHINGTON ST,60624.0,1153181.16012167,1895818.90520582,24.0,11.0,27.0,41.869974192603436,-87.713097434544,"(41.86997419260344,-87.713097434544)",2015-02-06
159260,02/06/2015,Completed,02/06/2015,15-00225260,Street Light Out,5200 W DAKIN ST,60641.0,1140989.65712541,1925753.44369302,38.0,16.0,15.0,41.952350923916114,-87.75711833388355,"(41.95235092391612,-87.75711833388355)",2015-02-06
159274,02/01/2015,Completed - Dup,02/07/2015,15-00185477,Street Light Out,2739 N PULASKI RD,60639.0,1149249.30102798,1918027.98003388,30.0,25.0,22.0,41.93099521498561,-87.72695626770668,"(41.93099521498561,-87.72695626770668)",2015-02-01
159275,02/04/2015,Completed - Dup,02/07/2015,15-00207655,Street Light Out,2409 N CALIFORNIA AVE,60647.0,1157303.36511844,1915891.7286216998,1.0,14.0,22.0,41.924973062646266,-87.69741729751301,"(41.924973062646266,-87.69741729751301)",2015-02-04
159276,02/04/2015,Completed - Dup,02/07/2015,15-00207667,Street Light Out,2449 N CALIFORNIA AVE,60647.0,1157295.66511844,1916160.0286217,1.0,14.0,22.0,41.92570945460379,-87.69743827987742,"(41.92570945460379,-87.69743827987742)",2015-02-04
159277,02/04/2015,Completed - Dup,02/07/2015,15-00210544,Street Light Out,2843 W 39TH PL,60632.0,1158049.5870771003,1878325.4808113999,14.0,9.0,58.0,41.82187236064211,-87.69570074977707,"(41.82187236064211,-87.69570074977707)",2015-02-04
159278,02/04/2015,Completed - Dup,02/07/2015,15-00215119,Street Light Out,2800 W PERSHING RD,60632.0,1158339.72177797,1878660.66621236,12.0,9.0,58.0,41.82278623708873,-87.69462723202179,"(41.82278623708873,-87.6946272320218)",2015-02-04
159279,02/05/2015,Completed - Dup,02/07/2015,15-00217104,Street Light Out,2417 N CALIFORNIA AVE,60647.0,1157301.76511844,1915945.3286217,1.0,14.0,22.0,41.92512017762185,-87.69742171605894,"(41.925120177621864,-87.69742171605894)",2015-02-05
159280,02/05/2015,Completed - Dup,02/07/2015,15-00217196,Street Light Out,2417 N CALIFORNIA AVE,60647.0,1157301.76511844,1915945.3286217,1.0,14.0,22.0,41.92512017762185,-87.69742171605894,"(41.925120177621864,-87.69742171605894)",2015-02-05
159281,02/05/2015,Completed - Dup,02/07/2015,15-00217197,Street Light Out,2425 N CALIFORNIA AVE,60647.0,1157300.26511844,1915999.0286217,1.0,14.0,22.0,41.92526756496615,-87.69742576444801,"(41.92526756496615,-87.69742576444801)",2015-02-05
159282,02/05/2015,Completed - Dup,02/07/2015,15-00217198,Street Light Out,2417 N CALIFORNIA AVE,60647.0,1157301.76511844,1915945.3286217,1.0,14.0,22.0,41.92512017762185,-87.69742171605894,"(41.925120177621864,-87.69742171605894)",2015-02-05
159283,02/05/2015,Completed - Dup,02/07/2015,15-00217200,Street Light Out,2417 N CALIFORNIA AVE,60647.0,1157301.76511844,1915945.3286217,1.0,14.0,22.0,41.92512017762185,-87.69742171605894,"(41.925120177621864,-87.69742171605894)",2015-02-05
159284,02/05/2015,Completed - Dup,02/07/2015,15-00222425,Street Light Out,5900 W FOSTER AVE,60630.0,1135864.75842709,1934217.9652,45.0,16.0,11.0,41.97567138479122,-87.77575540889916,"(41.97567138479122,-87.77575540889916)",2015-02-05
159285,02/05/2015,Completed - Dup,02/07/2015,15-00222965,Street Light Out,6806 N CENTRAL AVE,60646.0,1139585.83592005,1944842.55997931,41.0,16.0,12.0,42.00475880656986,-87.76181069563938,"(42.00475880656986,-87.76181069563937)",2015-02-05
159286,02/06/2015,Completed - Dup,02/07/2015,15-00228040,Street Light Out,2400 N CALIFORNIA AVE,60647.0,1157305.06511844,1915831.3286217,35.0,14.0,22.0,41.924807285921716,-87.69741269683847,"(41.92480728592172,-87.69741269683847)",2015-02-06
159287,02/06/2015,Completed - Dup,02/07/2015,15-00229431,Street Light Out,3200 N CLARK ST,60657.0,1169976.89611634,1921451.28419615,44.0,19.0,6.0,41.939961385312294,-87.65068653329149,"(41.9399613853123,-87.65068653329148)",2015-02-06
159288,02/06/2015,Completed - Dup,02/07/2015,15-00229550,Street Light Out,6922 N CENTRAL AVE,60646.0,1139604.77103353,1945588.75996578,41.0,16.0,12.0,42.006806083737004,-87.76172270219278,"(42.006806083737,-87.76172270219278)",2015-02-06
159289,02/06/2015,Completed - Dup,02/07/2015,15-00230151,Street Light Out,5900 W FOSTER AVE,60630.0,1135864.75842709,1934217.9652,45.0,16.0,11.0,41.97567138479122,-87.77575540889916,"(41.97567138479122,-87.77575540889916)",2015-02-06
159290,02/06/2015,Completed - Dup,02/07/2015,15-00230304,Street Light Out,2333 N LINCOLN PARK,60614.0,1173873.84747633,1915823.23989903,43.0,18.0,7.0,41.92443177177749,-87.63653225239455,"(41.92443177177749,-87.63653225239455)",2015-02-06
159291,02/06/2015,Completed - Dup,02/07/2015,15-00230345,Street Light Out,3222 N CLARK ST,60657.0,1169887.59611634,1921596.88419615,44.0,19.0,6.0,41.9403628687417,-87.65101047721735,"(41.9403628687417,-87.65101047721735)",2015-02-06
159292,02/06/2015,Completed - Dup,02/07/2015,15-00230347,Street Light Out,3333 N CLARK ST,60657.0,1169403.90007393,1922384.88997225,44.0,19.0,6.0,41.94253574102196,-87.65276521785951,"(41.942535741021956,-87.65276521785952)",2015-02-06
159293,02/07/2015,Completed - Dup,02/07/2015,15-00234502,Street Light Out,3200 N CLARK ST,60657.0,1169976.89611634,1921451.28419615,44.0,19.0,6.0,41.939961385312294,-87.65068653329149,"(41.9399613853123,-87.65068653329148)",2015-02-07
159294,02/07/2015,Completed - Dup,02/07/2015,15-00234833,Street Light Out,3005 N HAMLIN AVE,60618.0,1150573.30992057,1919714.47459462,30.0,25.0,21.0,41.93559729902061,-87.72204657569229,"(41.935597299020614,-87.72204657569229)",2015-02-07
159295,02/07/2015,Completed - Dup,02/07/2015,15-00234845,Street Light Out,3500 W ARTHINGTON ST,60624.0,1153181.16012167,1895818.90520582,24.0,11.0,27.0,41.869974192603436,-87.713097434544,"(41.86997419260344,-87.713097434544)",2015-02-07
159296,02/07/2015,Completed - Dup,02/07/2015,15-00234896,Street Light Out,3325 N CLARK ST,60657.0,1169445.50007393,1922317.28997225,44.0,19.0,6.0,41.94234933737308,-87.65261429272083,"(41.94234933737308,-87.65261429272083)",2015-02-07
159297,02/07/2015,Completed - Dup,02/07/2015,15-00234978,Street Light Out,3008 N HAMLIN AVE,60618.0,1150595.20992057,1919739.67459462,30.0,25.0,21.0,41.935666021377834,-87.7219654307787,"(41.93566602137783,-87.72196543077871)",2015-02-07
159298,02/07/2015,Completed - Dup,02/07/2015,15-00235257,Street Light Out,3000 N HAMLIN AVE,60618.0,1150536.70992057,1919672.47459462,30.0,25.0,21.0,41.93548276358293,-87.72218218433571,"(41.93548276358293,-87.7221821843357)",2015-02-07
159299,02/07/2015,Completed - Dup,02/07/2015,15-00235314,Street Light Out,3333 N CLARK ST,60657.0,1169403.90007393,1922384.88997225,44.0,19.0,6.0,41.94253574102196,-87.65276521785951,"(41.942535741021956,-87.65276521785952)",2015-02-07
159300,02/07/2015,Completed - Dup,02/07/2015,15-00235334,Street Light Out,2933 N LAWNDALE AVE,60618.0,1150764.2763801,1919499.37750146,30.0,25.0,21.0,41.93500331623771,-87.72135039969187,"(41.93500331623771,-87.72135039969187)",2015-02-07
159301,02/07/2015,Completed,02/07/2015,15-00234463,Street Light Out,3922 N CHRISTIANA AVE,60618.0,1153360.25859927,1925879.01628522,35.0,17.0,16.0,41.95245826712128,-87.71163998725314,"(41.95245826712128,-87.71163998725312)",2015-02-07
159302,02/08/2015,Completed - Dup,02/08/2015,15-00235558,Street Light Out,2200 N LINCOLN PARK,60614.0,1173901.42137075,1914934.65599774,43.0,18.0,7.0,41.92199284555354,-87.63645746915611,"(41.92199284555354,-87.63645746915611)",2015-02-08
159303,02/08/2015,Completed - Dup,02/08/2015,15-00235568,Street Light Out,2800 W WARREN BLVD,60612.0,1157721.12427288,1900232.09758176,2.0,12.0,27.0,41.88199319931132,-87.69630954774439,"(41.88199319931132,-87.69630954774439)",2015-02-08
159304,02/08/2015,Completed - Dup,02/08/2015,15-00237019,Street Light Out,3512 W ARTHINGTON ST,60624.0,1153100.76012167,1895816.90520582,24.0,11.0,27.0,41.86997029813065,-87.71339266194195,"(41.86997029813066,-87.71339266194195)",2015-02-08
159305,02/08/2015,Completed - Dup,02/08/2015,15-00237038,Street Light Out,3500 W ARTHINGTON ST,60624.0,1153181.16012167,1895818.90520582,24.0,11.0,27.0,41.869974192603436,-87.713097434544,"(41.86997419260344,-87.713097434544)",2015-02-08
159306,02/08/2015,Completed - Dup,02/08/2015,15-00237958,Street Light Out,1015 E MARQUETTE RD,60637.0,1184196.163575,1861459.420775,5.0,3.0,42.0,41.77501803476772,-87.60030940030478,"(41.77501803476772,-87.60030940030478)",2015-02-08
159307,02/08/2015,Completed - Dup,02/08/2015,15-00238316,Street Light Out,3000 N HAMLIN AVE,60618.0,1150536.70992057,1919672.47459462,30.0,25.0,21.0,41.93548276358293,-87.72218218433571,"(41.93548276358293,-87.7221821843357)",2015-02-08
159308,02/07/2015,Completed - Dup,02/08/2015,15-00234503,Street Light Out,2900 W WARREN BLVD,60612.0,1157051.5018661998,1900218.24529477,2.0,12.0,27.0,41.881968800390695,-87.69876877746691,"(41.881968800390695,-87.69876877746691)",2015-02-07
159309,02/07/2015,Completed - Dup,02/08/2015,15-00235461,Street Light Out,2800 W WARREN BLVD,60612.0,1157721.12427288,1900232.09758176,2.0,12.0,27.0,41.88199319931132,-87.69630954774439,"(41.88199319931132,-87.69630954774439)",2015-02-07
159310,02/06/2015,Completed - Dup,02/08/2015,15-00229554,Street Light Out,2900 W WARREN BLVD,60612.0,1157051.5018661998,1900218.24529477,2.0,12.0,27.0,41.881968800390695,-87.69876877746691,"(41.881968800390695,-87.69876877746691)",2015-02-06
159311,02/06/2015,Completed - Dup,02/08/2015,15-00229719,Street Light Out,2800 W WARREN BLVD,60612.0,1157721.12427288,1900232.09758176,2.0,12.0,27.0,41.88199319931132,-87.69630954774439,"(41.88199319931132,-87.69630954774439)",2015-02-06
159312,02/06/2015,Completed - Dup,02/08/2015,15-00229720,Street Light Out,2900 W WARREN BLVD,60612.0,1157051.5018661998,1900218.24529477,2.0,12.0,27.0,41.881968800390695,-87.69876877746691,"(41.881968800390695,-87.69876877746691)",2015-02-06
159313,02/06/2015,Completed - Dup,02/08/2015,15-00229893,Street Light Out,2800 W WARREN BLVD,60612.0,1157721.12427288,1900232.09758176,2.0,12.0,27.0,41.88199319931132,-87.69630954774439,"(41.88199319931132,-87.69630954774439)",2015-02-06
159314,02/06/2015,Completed - Dup,02/08/2015,15-00229422,Street Light Out,2800 W WARREN BLVD,60612.0,1157721.12427288,1900232.09758176,2.0,12.0,27.0,41.88199319931132,-87.69630954774439,"(41.88199319931132,-87.69630954774439)",2015-02-06
159315,02/05/2015,Completed - Dup,02/08/2015,15-00222431,Street Light Out,2800 W WARREN BLVD,60612.0,1157721.12427288,1900232.09758176,2.0,12.0,27.0,41.88199319931132,-87.69630954774439,"(41.88199319931132,-87.69630954774439)",2015-02-05
159316,02/05/2015,Completed - Dup,02/08/2015,15-00222925,Street Light Out,2941 W WARREN BLVD,60612.0,1156773.8018661998,1900212.04529477,2.0,12.0,27.0,41.88195741704274,-87.69978865988372,"(41.88195741704274,-87.69978865988374)",2015-02-05
159317,02/05/2015,Completed - Dup,02/08/2015,15-00223013,Street Light Out,2849 W WARREN BLVD,60612.0,1157389.72427288,1900225.19758176,2.0,12.0,27.0,41.881981008827246,-87.69752663611126,"(41.881981008827246,-87.69752663611126)",2015-02-05
159318,02/04/2015,Completed - Dup,02/08/2015,15-00209214,Street Light Out,2900 W WARREN BLVD,60612.0,1157051.5018661998,1900218.24529477,2.0,12.0,27.0,41.881968800390695,-87.69876877746691,"(41.881968800390695,-87.69876877746691)",2015-02-04
159319,02/04/2015,Completed - Dup,02/08/2015,15-00214741,Street Light Out,2849 W WARREN BLVD,60612.0,1157389.72427288,1900225.19758176,2.0,12.0,27.0,41.881981008827246,-87.69752663611126,"(41.881981008827246,-87.69752663611126)",2015-02-04
159320,02/04/2015,Completed - Dup,02/08/2015,15-00214996,Street Light Out,2800 W WARREN BLVD,60612.0,1157721.12427288,1900232.09758176,2.0,12.0,27.0,41.88199319931132,-87.69630954774439,"(41.88199319931132,-87.69630954774439)",2015-02-04
159321,02/04/2015,Completed - Dup,02/08/2015,15-00214997,Street Light Out,2900 W WARREN BLVD,60612.0,1157051.5018661998,1900218.24529477,2.0,12.0,27.0,41.881968800390695,-87.69876877746691,"(41.881968800390695,-87.69876877746691)",2015-02-04
159322,02/04/2015,Completed - Dup,02/08/2015,15-00215017,Street Light Out,2900 W WARREN BLVD,60612.0,1157051.5018661998,1900218.24529477,2.0,12.0,27.0,41.881968800390695,-87.69876877746691,"(41.881968800390695,-87.69876877746691)",2015-02-04
159323,02/04/2015,Completed - Dup,02/08/2015,15-00215267,Street Light Out,2800 W WARREN BLVD,60612.0,1157721.12427288,1900232.09758176,2.0,12.0,27.0,41.88199319931132,-87.69630954774439,"(41.88199319931132,-87.69630954774439)",2015-02-04
159324,02/03/2015,Completed - Dup,02/08/2015,15-00204822,Street Light Out,2900 W WARREN BLVD,60612.0,1157051.5018661998,1900218.24529477,2.0,12.0,27.0,41.881968800390695,-87.69876877746691,"(41.881968800390695,-87.69876877746691)",2015-02-03
159325,02/03/2015,Completed - Dup,02/08/2015,15-00204823,Street Light Out,2800 W WARREN BLVD,60612.0,1157721.12427288,1900232.09758176,2.0,12.0,27.0,41.88199319931132,-87.69630954774439,"(41.88199319931132,-87.69630954774439)",2015-02-03
159376,02/01/2015,Completed - Dup,02/09/2015,15-00184773,Street Light Out,1024 E 52ND ST,60615.0,1184070.979116,1870883.39667875,4.0,2.0,41.0,41.800881154252885,-87.60047383028584,"(41.80088115425288,-87.60047383028584)",2015-02-01
159377,02/01/2015,Completed - Dup,02/09/2015,15-00186619,Street Light Out,1024 E 52ND ST,60615.0,1184070.979116,1870883.39667875,4.0,2.0,41.0,41.800881154252885,-87.60047383028584,"(41.80088115425288,-87.60047383028584)",2015-02-01
159378,02/02/2015,Completed - Dup,02/09/2015,15-00194373,Street Light Out,8111 S KILBOURN AVE,60652.0,1147818.75259058,1850275.14027492,13.0,8.0,70.0,41.74509991312564,-87.7339507192934,"(41.745099913125635,-87.7339507192934)",2015-02-02
159379,02/02/2015,Completed - Dup,02/09/2015,15-00194552,Street Light Out,8111 S KILBOURN AVE,60652.0,1147818.75259058,1850275.14027492,13.0,8.0,70.0,41.74509991312564,-87.7339507192934,"(41.745099913125635,-87.7339507192934)",2015-02-02
159380,02/02/2015,Completed,02/09/2015,15-00191372,Street Light Out,4231 N LEAVITT ST,60618.0,1160934.26611817,1928066.66357586,47.0,19.0,5.0,41.958307146244564,-87.68373669682491,"(41.95830714624456,-87.6837366968249)",2015-02-02
159381,02/02/2015,Completed,02/09/2015,15-00194018,Street Light Out,10920 S GREEN ST,60643.0,1172592.5297714,1832427.88812602,34.0,22.0,75.0,41.695615102136344,-87.6436992687977,"(41.69561510213634,-87.6436992687977)",2015-02-02
159382,02/02/2015,Completed,02/09/2015,15-00195875,Street Light Out,325 S CHRISTIANA AVE,60624.0,1154093.18257233,1898209.40598375,28.0,11.0,27.0,41.876515848840334,-87.70968534159323,"(41.876515848840334,-87.70968534159323)",2015-02-02
159383,02/03/2015,Completed - Dup,02/09/2015,15-00202023,Street Light Out,3648 N PANAMA AVE,60634.0,1121423.87799868,1923258.46480136,36.0,16.0,17.0,41.94584283831805,-87.829098209449,"(41.94584283831805,-87.829098209449)",2015-02-03
159384,02/03/2015,Completed - Dup,02/09/2015,15-00202945,Street Light Out,4507 W 81ST ST,60652.0,1147785.85259058,1850345.84027492,13.0,8.0,70.0,41.745294555465755,-87.73406946782484,"(41.74529455546576,-87.73406946782484)",2015-02-03
159385,02/03/2015,Completed - Dup,02/09/2015,15-00203926,Street Light Out,3644 N PANAMA AVE,60634.0,1121424.77799868,1923231.66480136,36.0,16.0,17.0,41.94576928116346,-87.82909548078491,"(41.945769281163464,-87.8290954807849)",2015-02-03
159386,02/03/2015,Completed - Dup,02/09/2015,15-00204585,Street Light Out,2500 N LARAMIE AVE,60639.0,1141300.27537464,1916139.67043001,31.0,25.0,19.0,41.92596405189337,-87.75621439940822,"(41.92596405189337,-87.75621439940822)",2015-02-03
159387,02/03/2015,Completed - Dup,02/09/2015,15-00204985,Street Light Out,1001 E 52ND ST,60615.0,1183847.53812685,1870878.07963303,4.0,2.0,41.0,41.800871788629024,-87.60129341960985,"(41.800871788629024,-87.60129341960986)",2015-02-03
159388,02/03/2015,Completed,02/09/2015,15-00196107,Street Light Out,1 E KINZIE ST,60611.0,1176294.81801203,1903022.80770004,42.0,18.0,8.0,41.88925248733396,-87.6280234174316,"(41.889252487333955,-87.6280234174316)",2015-02-03
159389,02/03/2015,Completed,02/09/2015,15-00206537,Street Light Out,3043 W HOWARD ST,60645.0,1154901.73660969,1950217.12459495,50.0,24.0,2.0,42.01921243214434,-87.70531740792505,"(42.01921243214434,-87.70531740792504)",2015-02-03
