,Creation Date,Status,Completion Date,Service Request Number,Type of Service Request,Street Address,ZIP Code,X Coordinate,Y Coordinate,Ward,Police District,Community Area,Latitude,Longitude,Location,date
49284,10/01/2012,Completed - Dup,01/29/2013,12-01696427,Street Light - 1/Out,3500 W 38TH PL,60632.0,1153662.54037275,1878847.22318444,12.0,9.0,58.0,41.82339230349697,-87.71178109069756,"(41.82339230349697,-87.71178109069757)",2012-10-01
49285,10/01/2012,Completed - Dup,10/01/2012,12-01690788,Street Light - 1/Out,2730 W ADDISON ST,60618.0,1157490.78639652,1923808.65359874,33.0,17.0,16.0,41.94669383740332,-87.69651253582055,"(41.94669383740333,-87.69651253582055)",2012-10-01
49286,10/01/2012,Completed - Dup,10/01/2012,12-01690791,Street Light - 1/Out,2728 W ADDISON ST,60618.0,1157502.68639652,1923808.85359874,33.0,17.0,16.0,41.946694143594,-87.69646878941552,"(41.946694143593994,-87.69646878941552)",2012-10-01
49287,10/01/2012,Completed - Dup,10/01/2012,12-01690877,Street Light - 1/Out,2748 N TROY ST,60647.0,1154904.12822344,1918104.68772375,35.0,14.0,22.0,41.931094081928954,-87.70617373938344,"(41.93109408192895,-87.70617373938346)",2012-10-01
49288,10/01/2012,Completed - Dup,10/01/2012,12-01690878,Street Light - 1/Out,1000 W MONTROSE AVE,60613.0,1168808.8049965,1929392.82188566,46.0,19.0,3.0,41.96177871999711,-87.65474851071266,"(41.96177871999712,-87.65474851071265)",2012-10-01
49289,10/01/2012,Completed - Dup,10/01/2012,12-01690892,Street Light - 1/Out,40 N PULASKI RD,60624.0,1149723.79029691,1899888.21269848,28.0,11.0,26.0,41.88120868306494,-87.72568480974674,"(41.88120868306494,-87.72568480974675)",2012-10-01
49290,10/01/2012,Completed - Dup,10/01/2012,12-01690914,Street Light - 1/Out,7400 S DREXEL AVE,60619.0,1183512.38507608,1856138.79451126,6.0,3.0,69.0,41.760433690383394,-87.60298162907914,"(41.760433690383394,-87.60298162907914)",2012-10-01
49291,10/01/2012,Completed - Dup,10/01/2012,12-01690915,Street Light - 1/Out,6800 S INDIANA AVE,60637.0,1178766.41411206,1859972.82169809,20.0,3.0,69.0,41.77106392902215,-87.62025911832328,"(41.77106392902215,-87.62025911832326)",2012-10-01
49292,10/01/2012,Completed - Dup,10/01/2012,12-01690916,Street Light - 1/Out,10700 S BENSLEY AVE,60617.0,1194558.95732441,1834559.81002301,10.0,4.0,51.0,41.70095454399143,-87.56320394338873,"(41.70095454399143,-87.56320394338873)",2012-10-01
49293,10/01/2012,Completed - Dup,10/01/2012,12-01690918,Street Light - 1/Out,10700 S MICHIGAN AVE,60628.0,1178798.32403281,1834041.8417327,9.0,5.0,49.0,41.69990542116854,-87.62092895066642,"(41.69990542116854,-87.62092895066642)",2012-10-01
49294,10/01/2012,Completed - Dup,10/01/2012,12-01690921,Street Light - 1/Out,7300 S RACINE AVE,60636.0,1169584.50551345,1856382.93656607,17.0,7.0,67.0,41.761416801376,-87.65402050239096,"(41.761416801375994,-87.65402050239095)",2012-10-01
49295,10/01/2012,Completed - Dup,10/01/2012,12-01690922,Street Light - 1/Out,8900 S LAFLIN ST,60620.0,1167893.74001669,1845690.41439525,21.0,22.0,73.0,41.732111495340774,-87.66052373346305,"(41.732111495340774,-87.66052373346307)",2012-10-01
49296,10/01/2012,Completed - Dup,10/01/2012,12-01690924,Street Light - 1/Out,139 E 119TH PL,60628.0,1179277.60971621,1825757.99811072,9.0,5.0,53.0,41.6771624678061,-87.61942538637823,"(41.6771624678061,-87.61942538637824)",2012-10-01
49297,10/01/2012,Completed - Dup,10/01/2012,12-01691867,Street Light - 1/Out,8055 S WOOD ST,60620.0,1165749.29609731,1851267.39029677,21.0,6.0,71.0,41.74746127312483,-87.66822184769754,"(41.747461273124834,-87.66822184769755)",2012-10-01
49298,10/01/2012,Completed - Dup,10/01/2012,12-01692167,Street Light - 1/Out,8051 S WOOD ST,60620.0,1165748.59609731,1851294.29029677,21.0,6.0,71.0,41.74753510544976,-87.66822365078873,"(41.747535105449764,-87.66822365078872)",2012-10-01
49299,10/01/2012,Completed - Dup,10/01/2012,12-01692275,Street Light - 1/Out,9600 S DAMEN AVE,60643.0,1164712.96340628,1840983.41840619,19.0,22.0,72.0,41.719262399558346,-87.6723087023896,"(41.71926239955834,-87.6723087023896)",2012-10-01
49300,10/01/2012,Completed - Dup,10/01/2012,12-01692320,Street Light - 1/Out,8029 S HERMITAGE AVE,60620.0,1166075.97382639,1851449.90289781,21.0,6.0,71.0,41.747955178266324,-87.66701962302967,"(41.747955178266324,-87.66701962302967)",2012-10-01
49301,10/01/2012,Completed - Dup,10/01/2012,12-01692362,Street Light - 1/Out,8029 S HERMITAGE AVE,60620.0,1166075.97382639,1851449.90289781,21.0,6.0,71.0,41.747955178266324,-87.66701962302967,"(41.747955178266324,-87.66701962302967)",2012-10-01
49302,10/01/2012,Completed - Dup,10/01/2012,12-01692587,Street Light - 1/Out,5242 S KILBOURN AVE,60632.0,1147250.83868707,1869478.27352919,23.0,8.0,57.0,41.797807380575314,-87.73554260401268,"(41.79780738057531,-87.73554260401268)",2012-10-01
49303,10/01/2012,Completed - Dup,10/01/2012,12-01693067,Street Light - 1/Out,845 N LECLAIRE AVE,60651.0,1142201.85393039,1905146.64408622,37.0,15.0,25.0,41.895781278784455,-87.75317472143749,"(41.895781278784455,-87.75317472143749)",2012-10-01
49304,10/01/2012,Completed - Dup,10/01/2012,12-01693098,Street Light - 1/Out,3759 W RUMSEY AVE,60652.0,1152570.43471011,1847859.3207790002,18.0,8.0,70.0,41.73837834121162,-87.71660301615624,"(41.738378341211614,-87.71660301615624)",2012-10-01
49305,10/01/2012,Completed - Dup,10/01/2012,12-01693237,Street Light - 1/Out,4635 W 82ND ST,60652.0,1147123.14998766,1849696.09989204,13.0,8.0,70.0,41.743524188989184,-87.73651427284928,"(41.74352418898919,-87.73651427284928)",2012-10-01
49306,10/01/2012,Completed - Dup,10/01/2012,12-01693275,Street Light - 1/Out,4637 W 82ND ST,60652.0,1147102.34998766,1849692.39989204,13.0,8.0,70.0,41.74351443136136,-87.73659058070034,"(41.74351443136137,-87.73659058070034)",2012-10-01
49307,10/01/2012,Completed - Dup,10/01/2012,12-01695313,Street Light - 1/Out,1101 W GRANVILLE AVE,60660.0,1167722.20333364,1941336.26577561,48.0,24.0,77.0,41.99457540909971,-87.65839746853113,"(41.99457540909971,-87.65839746853113)",2012-10-01
49308,10/01/2012,Completed - Dup,10/01/2012,12-01696079,Street Light - 1/Out,6658 W 64TH ST,60638.0,1133132.33081708,1861349.06467621,23.0,8.0,64.0,41.7757570831299,-87.78750782526554,"(41.77575708312991,-87.78750782526555)",2012-10-01
49309,10/01/2012,Completed - Dup,10/01/2012,12-01696176,Street Light - 1/Out,4030 N SHERIDAN RD,60613.0,1168875.83600406,1927064.87990835,46.0,19.0,3.0,41.9553893083157,-87.65456986202695,"(41.9553893083157,-87.65456986202693)",2012-10-01
49310,10/01/2012,Completed - Dup,10/01/2012,12-01696296,Street Light - 1/Out,8303 S MERRILL AVE,60617.0,1191961.91928629,1850342.54240941,8.0,4.0,46.0,41.74432725531712,-87.57220226198022,"(41.744327255317124,-87.57220226198024)",2012-10-01
49311,10/01/2012,Completed - Dup,10/01/2012,12-01696378,Street Light - 1/Out,1123 W GRANVILLE AVE,60660.0,1167505.34432728,1941330.98241566,48.0,24.0,77.0,41.994565598865954,-87.65919532342095,"(41.99456559886595,-87.65919532342093)",2012-10-01
49312,10/01/2012,Completed - Dup,10/02/2012,12-01693703,Street Light - 1/Out,2726 W FARGO AVE,60645.0,1156807.0799791,1949293.09747368,50.0,24.0,2.0,42.01663829713089,-87.69833118872738,"(42.01663829713089,-87.69833118872738)",2012-10-01
49313,10/01/2012,Completed - Dup,10/02/2012,12-01694328,Street Light - 1/Out,8919 S WALLACE ST,60620.0,1173864.95952015,1845785.78631685,21.0,22.0,71.0,41.732243039718476,-87.6386458755788,"(41.732243039718476,-87.63864587557879)",2012-10-01
49314,10/01/2012,Completed - Dup,10/02/2012,12-01696124,Street Light - 1/Out,7300 S RICHMOND ST,60629.0,1157970.36927251,1856081.02446685,18.0,8.0,66.0,41.76083210644604,-87.69659576109687,"(41.76083210644604,-87.69659576109687)",2012-10-01
49315,10/01/2012,Completed - Dup,10/02/2012,12-01696202,Street Light - 1/Out,12321 S WENTWORTH AVE,60628.0,1177165.36612028,1823239.92370494,9.0,5.0,53.0,41.67030024455665,-87.62723231344627,"(41.67030024455665,-87.62723231344626)",2012-10-01
49316,10/01/2012,Completed - Dup,10/02/2012,12-01696327,Street Light - 1/Out,2616 W ESTES AVE,60645.0,1157631.43241542,1947010.67922545,50.0,24.0,2.0,42.010358448554285,-87.69536038507826,"(42.01035844855429,-87.69536038507826)",2012-10-01
49317,10/01/2012,Completed - Dup,10/03/2012,12-01690943,Street Light - 1/Out,7400 S DREXEL AVE,60619.0,1183512.38507608,1856138.79451126,6.0,3.0,69.0,41.760433690383394,-87.60298162907914,"(41.760433690383394,-87.60298162907914)",2012-10-01
49318,10/01/2012,Completed - Dup,10/03/2012,12-01690946,Street Light - 1/Out,8920 S HARPER AVE,60619.0,1188006.10319255,1846137.93687773,8.0,4.0,48.0,41.73288449881535,-87.58683023120814,"(41.732884498815345,-87.58683023120813)",2012-10-01
49319,10/01/2012,Completed - Dup,10/03/2012,12-01695671,Street Light - 1/Out,7943 S DORCHESTER AVE,60619.0,1186920.6900656999,1852600.98777062,8.0,4.0,45.0,41.75064552879182,-87.5906021920866,"(41.75064552879182,-87.5906021920866)",2012-10-01
49320,10/01/2012,Completed - Dup,10/03/2012,12-01695961,Street Light - 1/Out,2707 W 22ND PL,60608.0,1158667.9294088,1888951.19599716,28.0,10.0,30.0,41.85101793238379,-87.69314179472794,"(41.85101793238379,-87.69314179472794)",2012-10-01
49321,10/01/2012,Completed - Dup,10/03/2012,12-01696278,Street Light - 1/Out,8145 S TALMAN AVE,60652.0,1160124.84912594,1850421.59997056,18.0,8.0,70.0,41.74525774800004,-87.68885479646356,"(41.74525774800004,-87.68885479646357)",2012-10-01
49322,10/01/2012,Completed - Dup,10/03/2012,12-01696397,Street Light - 1/Out,8145 S TALMAN AVE,60652.0,1160124.84912594,1850421.59997056,18.0,8.0,70.0,41.74525774800004,-87.68885479646356,"(41.74525774800004,-87.68885479646357)",2012-10-01
49323,10/01/2012,Completed - Dup,10/04/2012,12-01690927,Street Light - 1/Out,139 E 119TH PL,60628.0,1179277.60971621,1825757.99811072,9.0,5.0,53.0,41.6771624678061,-87.61942538637823,"(41.6771624678061,-87.61942538637824)",2012-10-01
49324,10/01/2012,Completed - Dup,10/04/2012,12-01690931,Street Light - 1/Out,7240 S RACINE AVE,60636.0,1169577.29257063,1856670.89007017,17.0,7.0,67.0,41.76220713932041,-87.65403860432005,"(41.76220713932041,-87.65403860432005)",2012-10-01
49325,10/01/2012,Completed - Dup,10/04/2012,12-01690947,Street Light - 1/Out,9219 S CREGIER AVE,60617.0,1189793.03510338,1844125.68987111,8.0,4.0,48.0,41.727319975006644,-87.5803484633467,"(41.727319975006644,-87.58034846334668)",2012-10-01
49326,10/01/2012,Completed - Dup,10/04/2012,12-01691105,Street Light - 1/Out,11212 S STEWART AVE,60628.0,1175621.19001827,1830498.1999938,34.0,22.0,49.0,41.690252669321815,-87.63266780476125,"(41.69025266932181,-87.63266780476125)",2012-10-01
49327,10/01/2012,Completed - Dup,10/04/2012,12-01691183,Street Light - 1/Out,8321 S KERFOOT AVE,60620.0,1173042.47997932,1849687.13002201,21.0,6.0,71.0,41.742967025560475,-87.6415440753118,"(41.742967025560475,-87.6415440753118)",2012-10-01
49328,10/01/2012,Completed - Dup,10/04/2012,12-01691827,Street Light - 1/Out,9033 S GREENWOOD AVE,60619.0,1185125.69237382,1845307.80091501,8.0,4.0,47.0,41.730674585073,-87.5974083763713,"(41.730674585073,-87.59740837637132)",2012-10-01
49329,10/01/2012,Completed - Dup,10/05/2012,12-01690917,Street Light - 1/Out,2912 E 89TH ST,60617.0,1197063.45750059,1846515.85687324,10.0,4.0,46.0,41.733701182646186,-87.55363707449025,"(41.733701182646186,-87.55363707449027)",2012-10-01
49330,10/01/2012,Completed - Dup,10/05/2012,12-01696325,Street Light - 1/Out,2057 W 18TH ST,60608.0,1162936.7370059,1891398.81703328,25.0,12.0,31.0,41.85764604529007,-87.6774057240418,"(41.85764604529006,-87.67740572404179)",2012-10-01
49331,10/01/2012,Completed - Dup,10/09/2012,12-01691701,Street Light - 1/Out,5000 S HOMAN AVE,60632.0,1154553.29987148,1871270.15997175,14.0,8.0,63.0,41.802582092980245,-87.70871524383304,"(41.80258209298024,-87.70871524383305)",2012-10-01
49332,10/01/2012,Completed - Dup,10/09/2012,12-01696257,Street Light - 1/Out,8743 S BURLEY AVE,60617.0,1199187.40987389,1847611.75259746,10.0,4.0,46.0,41.736655340381226,-87.54581940326632,"(41.736655340381226,-87.54581940326631)",2012-10-01
49333,10/01/2012,Completed - Dup,10/10/2012,12-01690919,Street Light - 1/Out,9400 S WOODLAWN AVE,60619.0,1185849.18592133,1842902.46292714,8.0,4.0,47.0,41.72405706625915,-87.59483360572544,"(41.72405706625915,-87.59483360572543)",2012-10-01
49334,10/01/2012,Completed - Dup,10/10/2012,12-01691784,Street Light - 1/Out,2801 S SPRINGFIELD AVE,60623.0,1150830.1518977,1885092.40138248,22.0,10.0,30.0,41.840585656988566,-87.72200912845543,"(41.84058565698857,-87.72200912845544)",2012-10-01
49335,10/01/2012,Completed - Dup,10/10/2012,12-01693023,Street Light - 1/Out,7610 W ADDISON ST,60634.0,1124669.23490672,1923045.24153302,36.0,16.0,17.0,41.94520471844179,-87.81717383897848,"(41.9452047184418,-87.81717383897849)",2012-10-01
49336,10/01/2012,Completed - Dup,10/10/2012,12-01693045,Street Light - 1/Out,10249 S YATES AVE,60617.0,1194172.21422354,1837491.38823316,10.0,4.0,51.0,41.70900857569758,-87.56452420218443,"(41.70900857569758,-87.56452420218444)",2012-10-01
49337,10/01/2012,Completed - Dup,10/10/2012,12-01694827,Street Light - 1/Out,11500 S OAKLEY AVE,60643.0,1162946.79987977,1828280.54346644,19.0,22.0,75.0,41.684440557494284,-87.67913106904902,"(41.684440557494284,-87.67913106904902)",2012-10-01
49338,10/01/2012,Completed - Dup,10/10/2012,12-01696036,Street Light - 1/Out,5622 S CARPENTER ST,60621.0,1170273.16136819,1867531.51418304,16.0,7.0,68.0,41.79199489168346,-87.65117239630789,"(41.79199489168346,-87.65117239630789)",2012-10-01
49339,10/01/2012,Completed - Dup,10/10/2012,12-01696060,Street Light - 1/Out,9123 S BURNSIDE AVE,60619.0,1179561.28589057,1844371.70460005,6.0,6.0,49.0,41.728234566711095,-87.61782099903597,"(41.728234566711095,-87.61782099903597)",2012-10-01
49340,10/01/2012,Completed - Dup,10/10/2012,12-01696081,Street Light - 1/Out,8020 S BRANDON AVE,60617.0,1198876.2131268,1852402.47060623,7.0,4.0,46.0,41.74980922580699,-87.54679907629185,"(41.74980922580699,-87.54679907629185)",2012-10-01
49341,10/01/2012,Completed - Dup,10/10/2012,12-01696177,Street Light - 1/Out,1331 S CALIFORNIA BLVD,60608.0,1157899.35727936,1893670.01363257,28.0,10.0,29.0,41.8639825591644,-87.69583403749355,"(41.8639825591644,-87.69583403749357)",2012-10-01
49342,10/01/2012,Completed - Dup,10/10/2012,12-01696243,Street Light - 1/Out,7807 S OGLESBY AVE,60649.0,1193221.79879068,1853661.20598795,7.0,4.0,43.0,41.753403271247024,-87.56747777371704,"(41.753403271247024,-87.56747777371704)",2012-10-01
49343,10/01/2012,Completed - Dup,10/10/2012,12-01696439,Street Light - 1/Out,11229 S FORRESTVILLE AVE,,1181928.06999945,1830617.25326735,9.0,5.0,50.0,41.690436274933326,-87.60957456842718,"(41.690436274933326,-87.60957456842718)",2012-10-01
49344,10/01/2012,Completed - Dup,10/11/2012,12-01691679,Street Light - 1/Out,5862 S STONY ISLAND AVE,60637.0,1187885.574383,1866181.55006797,5.0,2.0,41.0,41.78788884303161,-87.58663440359078,"(41.78788884303161,-87.58663440359076)",2012-10-01
49345,10/01/2012,Completed - Dup,10/11/2012,12-01696074,Street Light - 1/Out,1 E PEARSON ST,60611.0,1176215.88531969,1906035.07987448,42.0,18.0,8.0,41.897520096560854,-87.62822237762863,"(41.897520096560854,-87.62822237762863)",2012-10-01
49346,10/01/2012,Completed - Dup,10/12/2012,12-01696394,Street Light - 1/Out,74 E 49TH ST,60615.0,1177780.53622225,1872562.48007647,3.0,2.0,38.0,41.805633570020746,-87.6234919457752,"(41.805633570020746,-87.62349194577521)",2012-10-01
49347,10/01/2012,Completed - Dup,10/15/2012,12-01694670,Street Light - 1/Out,1521 E 65TH ST,60637.0,1187534.95007704,1862194.9651759998,5.0,3.0,42.0,41.77695768417953,-87.58804667533991,"(41.776957684179536,-87.5880466753399)",2012-10-01
49348,10/01/2012,Completed - Dup,10/15/2012,12-01695915,Street Light - 1/Out,3300 N KILPATRICK AVE,60641.0,1144601.36622087,1921528.93682962,30.0,17.0,15.0,41.940691101431305,-87.74394822543978,"(41.940691101431305,-87.74394822543978)",2012-10-01
49349,10/01/2012,Completed - Dup,10/15/2012,12-01696261,Street Light - 1/Out,8138 S TALMAN AVE,60652.0,1160123.84912594,1850455.29997056,18.0,8.0,70.0,41.74535024662643,-87.68885753581337,"(41.74535024662643,-87.68885753581338)",2012-10-01
49350,10/01/2012,Completed - Dup,10/18/2012,12-01696078,Street Light - 1/Out,16 W 109TH PL,60628.0,1178096.79701029,1832362.64990188,34.0,5.0,49.0,41.695313375025655,-87.6235483079394,"(41.69531337502566,-87.62354830793939)",2012-10-01
49351,10/01/2012,Completed - Dup,10/18/2012,12-01696319,Street Light - 1/Out,8721 S CLYDE AVE,60617.0,1191691.82012007,1847479.79616592,8.0,4.0,48.0,41.73647817128185,-87.57328455953821,"(41.736478171281846,-87.57328455953822)",2012-10-01
49352,10/01/2012,Completed - Dup,10/19/2012,12-01690885,Street Light - 1/Out,8250 S MORGAN ST,60620.0,1171072.87008921,1850451.38778419,21.0,6.0,71.0,41.74510747574682,-87.64873850817601,"(41.74510747574682,-87.648738508176)",2012-10-01
49353,10/01/2012,Completed - Dup,10/22/2012,12-01690936,Street Light - 1/Out,10751 S BENSLEY AVE,60617.0,1194565.72560807,1834218.49992704,10.0,4.0,51.0,41.70001778767554,-87.56319033633898,"(41.70001778767554,-87.56319033633899)",2012-10-01
49354,10/01/2012,Completed - Dup,10/25/2012,12-01694149,Street Light - 1/Out,11230 S AVENUE M,60617.0,1201557.41177527,1831105.64041797,10.0,4.0,52.0,41.691301407395656,-87.53769551125082,"(41.691301407395656,-87.53769551125082)",2012-10-01
49355,10/01/2012,Completed - Dup,10/25/2012,12-01696314,Street Light - 1/Out,12814 S COMMERCIAL AVE,60633.0,1198083.34001907,1820477.13728495,10.0,4.0,55.0,41.662223012972376,-87.55076754693222,"(41.662223012972376,-87.55076754693222)",2012-10-01
49356,10/01/2012,Completed - Dup,10/31/2012,12-01690691,Street Light - 1/Out,3206 W PALMER ST,60647.0,1154686.78599707,1914301.73798049,26.0,14.0,22.0,41.920662844961946,-87.70707450163474,"(41.920662844961946,-87.70707450163474)",2012-10-01
49357,10/01/2012,Completed - Dup,10/31/2012,12-01690701,Street Light - 1/Out,2235 N KEDZIE BLVD,60647.0,1154665.19240067,1914867.74217859,26.0,14.0,22.0,41.92221643946957,-87.7071386555093,"(41.922216439469565,-87.7071386555093)",2012-10-01
49358,10/01/2012,Completed - Dup,10/31/2012,12-01696015,Street Light - 1/Out,6712 S NORMAL BLVD,60621.0,1174118.77619045,1860366.03541803,6.0,7.0,68.0,41.7722474306921,-87.63728391840523,"(41.7722474306921,-87.63728391840523)",2012-10-01
49359,10/01/2012,Completed - Dup,11/01/2012,12-01695976,Street Light - 1/Out,714 W 54TH PL,60609.0,1172465.93049261,1868735.2339044,3.0,9.0,61.0,41.79525000139099,-87.64309646735084,"(41.79525000139099,-87.64309646735084)",2012-10-01
49360,10/01/2012,Completed - Dup,11/01/2012,12-01696011,Street Light - 1/Out,6700 S NORMAL BLVD,60621.0,1174120.37619045,1860491.83541803,6.0,7.0,68.0,41.77259260476585,-87.63727432107108,"(41.77259260476584,-87.63727432107108)",2012-10-01
49361,10/01/2012,Completed - Dup,11/19/2012,12-01692308,Street Light - 1/Out,1517 E 73RD ST,60619.0,1187643.14497259,1856890.065586,5.0,3.0,43.0,41.762398010067336,-87.58781861252966,"(41.762398010067336,-87.58781861252965)",2012-10-01
49362,10/01/2012,Completed,10/01/2012,12-01691430,Street Light - 1/Out,10652 S LAWNDALE AVE,60655.0,1153566.97990623,1833708.34788786,19.0,22.0,74.0,41.69952584102602,-87.71332522989425,"(41.69952584102602,-87.71332522989427)",2012-10-01
49363,10/01/2012,Completed,10/01/2012,12-01692584,Street Light - 1/Out,1403 S TALMAN AVE,60608.0,1158942.61009812,1893181.55839073,28.0,10.0,29.0,41.86262086620464,-87.69201768653771,"(41.86262086620464,-87.69201768653771)",2012-10-01
49364,10/01/2012,Completed,10/01/2012,12-01692680,Street Light - 1/Out,1403 S TALMAN AVE,60608.0,1158942.61009812,1893181.55839073,28.0,10.0,29.0,41.86262086620464,-87.69201768653771,"(41.86262086620464,-87.69201768653771)",2012-10-01
49365,10/01/2012,Completed,10/01/2012,12-01693928,Street Light - 1/Out,5820 N WHIPPLE ST,60659.0,1154976.0599827,1938509.90946702,40.0,20.0,2.0,41.98708585040182,-87.70535988781276,"(41.98708585040182,-87.70535988781276)",2012-10-01
49366,10/01/2012,Completed,10/01/2012,12-01695450,Street Light - 1/Out,2151 W COULTER ST,60608.0,1162407.70649874,1887895.60629303,25.0,10.0,31.0,41.84804395927332,-87.67944549976913,"(41.84804395927332,-87.67944549976912)",2012-10-01
49367,10/01/2012,Completed,10/01/2012,12-01695614,Street Light - 1/Out,9048 S CRANDON AVE,60617.0,1193079.98951703,1845422.94447883,7.0,4.0,48.0,41.730800229889105,-87.56826584727413,"(41.7308002298891,-87.56826584727413)",2012-10-01
49368,10/01/2012,Completed,10/01/2012,12-01696426,Street Light - 1/Out,602 W 29TH ST,60616.0,1172743.88970447,1885682.64652908,11.0,9.0,60.0,41.84174918431648,-87.64157687384838,"(41.84174918431648,-87.64157687384838)",2012-10-01
49369,10/01/2012,Completed,10/01/2012,12-01696448,Street Light - 1/Out,4342 N KENMORE AVE,60613.0,1168387.34342248,1928982.76790646,46.0,19.0,3.0,41.96066266588479,-87.65630994523593,"(41.96066266588479,-87.65630994523593)",2012-10-01
49370,10/01/2012,Completed,10/02/2012,12-01695446,Street Light - 1/Out,5652 N OVERHILL AVE,60631.0,1124005.85003074,1936579.69310351,41.0,16.0,10.0,41.98235574756286,-87.81931380567767,"(41.98235574756286,-87.81931380567765)",2012-10-01
49371,10/01/2012,Completed,10/02/2012,12-01696207,Street Light - 1/Out,2611 W 99TH ST,60655.0,1160658.82692819,1838894.91908707,19.0,22.0,72.0,41.71361566402725,-87.68721523850364,"(41.71361566402725,-87.68721523850364)",2012-10-01
49372,10/01/2012,Completed,10/03/2012,12-01690880,Street Light - 1/Out,2748 N TROY ST,60647.0,1154904.12822344,1918104.68772375,35.0,14.0,22.0,41.931094081928954,-87.70617373938344,"(41.93109408192895,-87.70617373938346)",2012-10-01
49373,10/01/2012,Completed,10/03/2012,12-01693257,Street Light - 1/Out,4455 N MANOR AVE,60625.0,1157178.42972666,1929566.09000368,33.0,17.0,14.0,41.962498955594654,-87.69750365562119,"(41.96249895559466,-87.69750365562119)",2012-10-01
49374,10/01/2012,Completed,10/03/2012,12-01693550,Street Light - 1/Out,3820 W 47TH ST,60632.0,1151610.23619108,1873195.10906957,14.0,8.0,57.0,41.80792261245613,-87.71945843567552,"(41.807922612456125,-87.71945843567553)",2012-10-01
49375,10/01/2012,Completed,10/03/2012,12-01696049,Street Light - 1/Out,6201 S CLAREMONT AVE,60636.0,1161790.64012895,1863468.88762663,15.0,8.0,66.0,41.781026992460276,-87.68238924212616,"(41.781026992460276,-87.68238924212616)",2012-10-01
49376,10/01/2012,Completed,10/03/2012,12-01696108,Street Light - 1/Out,3410 W 55TH ST,60632.0,1154540.01219319,1867936.86088535,14.0,8.0,63.0,41.79343531248208,-87.70885278539663,"(41.793435312482075,-87.70885278539663)",2012-10-01
49377,10/01/2012,Completed,10/03/2012,12-01696214,Street Light - 1/Out,2309 W 103RD ST,60643.0,1162775.81946937,1836280.71512204,19.0,22.0,72.0,41.706397992842845,-87.67953468197086,"(41.70639799284284,-87.67953468197086)",2012-10-01
49378,10/01/2012,Completed,10/05/2012,12-01695409,Street Light - 1/Out,5720 W WILSON AVE,60630.0,1137375.99242182,1930008.61349347,38.0,16.0,15.0,41.9640934185582,-87.77029968624191,"(41.9640934185582,-87.77029968624191)",2012-10-01
49379,10/01/2012,Completed,10/09/2012,12-01692224,Street Light - 1/Out,6158 W BERENICE AVE,60634.0,1134620.96401342,1924951.71401792,38.0,16.0,17.0,41.95026600700727,-87.7805492100523,"(41.950266007007265,-87.7805492100523)",2012-10-01
49380,10/01/2012,Completed,10/09/2012,12-01695352,Street Light - 1/Out,237 W 25TH PL,60616.0,1174995.85273337,1887402.76907776,11.0,9.0,34.0,41.84641926522206,-87.63326149951824,"(41.84641926522206,-87.63326149951824)",2012-10-01
49381,10/01/2012,Completed,10/09/2012,12-01696353,Street Light - 1/Out,3070 W BRYN MAWR AVE,60659.0,1154774.54350572,1937050.65722382,40.0,20.0,2.0,41.98308564037581,-87.70614037643047,"(41.983085640375805,-87.70614037643047)",2012-10-01
49382,10/01/2012,Completed,10/10/2012,12-01690929,Street Light - 1/Out,8900 S LAFLIN ST,60620.0,1167893.74001669,1845690.41439525,21.0,22.0,73.0,41.732111495340774,-87.66052373346305,"(41.732111495340774,-87.66052373346307)",2012-10-01
49383,10/01/2012,Completed,10/10/2012,12-01690933,Street Light - 1/Out,9400 S WOODLAWN AVE,60619.0,1185849.18592133,1842902.46292714,8.0,4.0,47.0,41.72405706625915,-87.59483360572544,"(41.72405706625915,-87.59483360572543)",2012-10-01
49384,10/01/2012,Completed,10/10/2012,12-01692269,Street Light - 1/Out,1844 W CHASE AVE,60626.0,1162588.46002241,1948275.84827172,49.0,24.0,1.0,42.013727282392026,-87.67708599995629,"(42.01372728239202,-87.67708599995628)",2012-10-01
49385,10/01/2012,Completed,10/10/2012,12-01693084,Street Light - 1/Out,3759 W RUMSEY AVE,60652.0,1152570.43471011,1847859.3207790002,18.0,8.0,70.0,41.73837834121162,-87.71660301615624,"(41.738378341211614,-87.71660301615624)",2012-10-01
49386,10/01/2012,Completed,10/10/2012,12-01695538,Street Light - 1/Out,7221 N PAULINA ST,60626.0,1163870.97513126,1947989.26760547,49.0,24.0,1.0,42.01291382270515,-87.6723750636207,"(42.01291382270516,-87.6723750636207)",2012-10-01
49387,10/01/2012,Completed,10/11/2012,12-01690935,Street Light - 1/Out,10703 S MICHIGAN AVE,60628.0,1178798.92403281,1834021.7417327,9.0,5.0,49.0,41.69985025034224,-87.62092736250864,"(41.69985025034224,-87.62092736250864)",2012-10-01
49388,10/01/2012,Completed,10/11/2012,12-01696293,Street Light - 1/Out,3512 N KEATING AVE,60641.0,1144204.4305146001,1923046.90892763,30.0,17.0,15.0,41.94486403469188,-87.74536885372575,"(41.944864034691875,-87.74536885372576)",2012-10-01
49389,10/01/2012,Completed,10/12/2012,12-01696072,Street Light - 1/Out,200 W GRAND AVE,60654.0,1174641.87886782,1903860.07559026,42.0,18.0,8.0,41.89158711951997,-87.63406855858477,"(41.89158711951997,-87.63406855858477)",2012-10-01
49390,10/01/2012,Completed,10/15/2012,12-01695913,Street Light - 1/Out,3300 N KILPATRICK AVE,60641.0,1144601.36622087,1921528.93682962,30.0,17.0,15.0,41.940691101431305,-87.74394822543978,"(41.940691101431305,-87.74394822543978)",2012-10-01
49391,10/01/2012,Completed,10/16/2012,12-01696029,Street Light - 1/Out,8548 S EAST END AVE,60617.0,1189084.00489483,1848546.28239081,8.0,4.0,45.0,41.73946751473107,-87.58280449823366,"(41.73946751473107,-87.58280449823366)",2012-10-01
49392,10/01/2012,Completed,10/18/2012,12-01690879,Street Light - 1/Out,1020 W MONTROSE AVE,60613.0,1168603.36569937,1929387.38532426,46.0,19.0,3.0,41.96176826380988,-87.6555039758362,"(41.96176826380988,-87.6555039758362)",2012-10-01
49393,10/01/2012,Completed,10/18/2012,12-01690909,Street Light - 1/Out,2934 E 95TH ST,60617.0,1197432.91002991,1842528.40467647,10.0,4.0,48.0,41.72275008994039,-87.5524161391959,"(41.72275008994039,-87.5524161391959)",2012-10-01
49394,10/01/2012,Completed,10/19/2012,12-01690787,Street Light - 1/Out,2728 W ADDISON ST,60618.0,1157502.68639652,1923808.85359874,33.0,17.0,16.0,41.946694143594,-87.69646878941552,"(41.946694143593994,-87.69646878941552)",2012-10-01
49395,10/01/2012,Completed,10/19/2012,12-01695388,Street Light - 1/Out,11259 S LAFLIN ST,60643.0,1168127.79180984,1829981.34330495,34.0,22.0,75.0,41.688998311766575,-87.66011623994648,"(41.68899831176658,-87.66011623994648)",2012-10-01
49396,10/01/2012,Completed,10/22/2012,12-01696344,Street Light - 1/Out,4216 N DAMEN AVE,60618.0,1162260.58492877,1927894.17412902,47.0,19.0,5.0,41.95780613396766,-87.67886550788879,"(41.95780613396766,-87.6788655078888)",2012-10-01
49397,10/01/2012,Completed,10/25/2012,12-01690941,Street Light - 1/Out,6800 S INDIANA AVE,60637.0,1178766.41411206,1859972.82169809,20.0,3.0,69.0,41.77106392902215,-87.62025911832328,"(41.77106392902215,-87.62025911832326)",2012-10-01
49398,10/01/2012,Completed,10/31/2012,12-01690683,Street Light - 1/Out,3204 W PALMER ST,60647.0,1154643.08599707,1914344.53798049,26.0,14.0,22.0,41.92078116729478,-87.7072339170434,"(41.92078116729477,-87.7072339170434)",2012-10-01
49399,10/01/2012,Completed,11/03/2012,12-01695784,Street Light - 1/Out,1422 N ORLEANS ST,60610.0,1173650.53991226,1909835.48191344,27.0,18.0,8.0,41.90800606674424,-87.63753127087205,"(41.908006066744235,-87.63753127087203)",2012-10-01
49400,10/01/2012,Completed,12/19/2012,12-01690907,Street Light - 1/Out,2918 E 95TH ST,60617.0,1197042.5740052,1842518.55872463,10.0,4.0,48.0,41.72273277943259,-87.55384619064041,"(41.72273277943259,-87.5538461906404)",2012-10-01
49450,10/02/2012,Completed - Dup,03/05/2013,12-01696603,Street Light - 1/Out,35 W WACKER DR,60601.0,1175946.60150921,1902174.80918064,42.0,1.0,32.0,41.88693338026768,-87.6293277447328,"(41.88693338026768,-87.62932774473279)",2012-10-02
49451,10/02/2012,Completed - Dup,10/02/2012,12-01696515,Street Light - 1/Out,3133 W FRANKLIN BLVD,60612.0,1155401.80979139,1903165.45443004,27.0,13.0,23.0,41.8900895424332,-87.70474717802219,"(41.890089542433195,-87.7047471780222)",2012-10-02
49452,10/02/2012,Completed - Dup,10/02/2012,12-01696605,Street Light - 1/Out,1044 W GEORGE ST,60657.0,1168819.41360371,1919428.36247678,44.0,19.0,6.0,41.93443561006856,-87.65499944802906,"(41.93443561006856,-87.65499944802906)",2012-10-02
49453,10/02/2012,Completed - Dup,10/02/2012,12-01696606,Street Light - 1/Out,1940 N HERMITAGE AVE,60622.0,1164374.86878875,1912962.84347176,32.0,14.0,22.0,41.91678917121661,-87.67151646985614,"(41.916789171216614,-87.67151646985614)",2012-10-02
49454,10/02/2012,Completed - Dup,10/02/2012,12-01696608,Street Light - 1/Out,2338 N MAPLEWOOD AVE,60647.0,1158922.7611681002,1915612.30000577,1.0,14.0,22.0,41.924173181151225,-87.6914745769194,"(41.924173181151225,-87.6914745769194)",2012-10-02
49455,10/02/2012,Completed - Dup,10/02/2012,12-01696610,Street Light - 1/Out,1300 S SAWYER AVE,60623.0,1154901.6545068,1893857.71297979,24.0,10.0,29.0,41.86455818344989,-87.70683349673264,"(41.86455818344988,-87.70683349673264)",2012-10-02
49456,10/02/2012,Completed - Dup,10/02/2012,12-01696613,Street Light - 1/Out,831 N KILDARE AVE,60651.0,1147556.82000462,1905288.58000276,37.0,11.0,23.0,41.89606971779861,-87.73350326066019,"(41.89606971779861,-87.73350326066019)",2012-10-02
49457,10/02/2012,Completed - Dup,10/02/2012,12-01696614,Street Light - 1/Out,4600 W CONGRESS PKWY,60644.0,1145805.04080033,1897296.12689051,24.0,11.0,25.0,41.874170926693424,-87.74014016939459,"(41.87417092669342,-87.7401401693946)",2012-10-02
49458,10/02/2012,Completed - Dup,10/02/2012,12-01696617,Street Light - 1/Out,900 N LOREL AVE,60651.0,1140508.92551463,1905479.42162794,37.0,15.0,25.0,41.896725705215935,-87.75938438399122,"(41.896725705215935,-87.75938438399122)",2012-10-02
49459,10/02/2012,Completed - Dup,10/02/2012,12-01696619,Street Light - 1/Out,5500 W PENSACOLA AVE,60641.0,1138896.196421,1928381.55802289,38.0,16.0,15.0,41.95960108223593,-87.76474996185875,"(41.95960108223593,-87.76474996185875)",2012-10-02
49460,10/02/2012,Completed - Dup,10/02/2012,12-01696620,Street Light - 1/Out,10 S LAVERGNE AVE,60644.0,1143265.43001868,1899531.85997834,28.0,15.0,25.0,41.88035384037424,-87.74940872150962,"(41.88035384037424,-87.74940872150962)",2012-10-02
49461,10/02/2012,Completed - Dup,10/02/2012,12-01696693,Street Light - 1/Out,11757 S BELL AVE,60643.0,1163377.46998108,1826674.62001048,19.0,22.0,75.0,41.680024628336405,-87.6775992456209,"(41.68002462833641,-87.67759924562091)",2012-10-02
49462,10/02/2012,Completed - Dup,10/02/2012,12-01696694,Street Light - 1/Out,9000 S LAFLIN ST,60620.0,1167912.80457222,1845055.30129266,21.0,22.0,73.0,41.73036824229876,-87.66047208049667,"(41.73036824229876,-87.66047208049667)",2012-10-02
49463,10/02/2012,Completed - Dup,10/02/2012,12-01696695,Street Light - 1/Out,8900 S WALLACE ST,60620.0,1173861.45952015,1845908.88631685,21.0,22.0,71.0,41.73258092019486,-87.63865505775782,"(41.73258092019486,-87.63865505775782)",2012-10-02
49464,10/02/2012,Completed - Dup,10/02/2012,12-01696696,Street Light - 1/Out,10100 S EGGLESTON AVE,60628.0,1175283.67167054,1837943.73029443,9.0,22.0,73.0,41.71069182574283,-87.63368202902069,"(41.71069182574283,-87.63368202902068)",2012-10-02
49465,10/02/2012,Completed - Dup,10/02/2012,12-01696699,Street Light - 1/Out,7730 S TROY ST,60652.0,1156718.86000618,1853174.39721696,18.0,8.0,70.0,41.75288119244567,-87.70126091937061,"(41.75288119244567,-87.70126091937061)",2012-10-02
49466,10/02/2012,Completed - Dup,10/02/2012,12-01696700,Street Light - 1/Out,3209 W MANN DR,60629.0,1156147.31920931,1859813.0652979,18.0,8.0,66.0,41.77111023771523,-87.7031771891562,"(41.77111023771523,-87.70317718915618)",2012-10-02
49467,10/02/2012,Completed - Dup,10/02/2012,12-01696701,Street Light - 1/Out,5354 S KOSTNER AVE,60632.0,1147939.57479881,1868711.54471555,23.0,8.0,62.0,41.79569018683879,-87.73303649546446,"(41.79569018683879,-87.73303649546446)",2012-10-02
49468,10/02/2012,Completed - Dup,10/02/2012,12-01696705,Street Light - 1/Out,2200 W CERMAK RD,60608.0,1162042.84947845,1889370.42157691,25.0,12.0,31.0,41.85209861828778,-87.68074340852863,"(41.85209861828778,-87.68074340852863)",2012-10-02
49469,10/02/2012,Completed - Dup,10/02/2012,12-01698540,Street Light - 1/Out,2329 N KEDVALE AVE,60639.0,1148331.15193133,1915161.4454979,31.0,25.0,20.0,41.923146952437385,-87.73040438186781,"(41.923146952437385,-87.73040438186781)",2012-10-02
49470,10/02/2012,Completed - Dup,10/02/2012,12-01698945,Street Light - 1/Out,3971 W BELMONT AVE,60618.0,1149350.02002441,1920983.30997031,31.0,25.0,21.0,41.93910293707602,-87.72650927150507,"(41.93910293707602,-87.72650927150508)",2012-10-02
49471,10/02/2012,Completed - Dup,10/02/2012,12-01701596,Street Light - 1/Out,5322 S KILPATRICK AVE,60632.0,1145926.56889732,1868985.59161609,23.0,8.0,56.0,41.79648055220628,-87.74041145317437,"(41.79648055220628,-87.74041145317439)",2012-10-02
49472,10/02/2012,Completed - Dup,10/02/2012,12-01701669,Street Light - 1/Out,1518 W 86TH ST,60620.0,1167642.41519817,1847701.80791499,21.0,6.0,71.0,41.73763644095124,-87.66138691423441,"(41.737636440951235,-87.66138691423441)",2012-10-02
49473,10/02/2012,Completed - Dup,10/02/2012,12-01702134,Street Light - 1/Out,882 N SACRAMENTO BLVD,60622.0,1156022.24051209,1906030.26753421,26.0,13.0,23.0,41.89793835985517,-87.70239129946239,"(41.897938359855175,-87.70239129946239)",2012-10-02
49474,10/02/2012,Completed - Dup,10/03/2012,12-01696748,Street Light - 1/Out,6637 N GREENVIEW AVE,60626.0,1165068.25542805,1944183.29941406,40.0,24.0,1.0,42.002444720891575,-87.66807849244269,"(42.00244472089158,-87.66807849244269)",2012-10-02
49475,10/02/2012,Completed - Dup,10/03/2012,12-01696875,Street Light - 1/Out,5206 S HARPER AVE,60615.0,1187169.54127152,1870920.22419791,4.0,2.0,41.0,41.800909154752226,-87.58910935247566,"(41.80090915475223,-87.58910935247565)",2012-10-02
49476,10/02/2012,Completed - Dup,10/03/2012,12-01698715,Street Light - 1/Out,7915 S SACRAMENTO AVE,60652.0,1157754.14990869,1851953.51386873,18.0,8.0,70.0,41.749509961089295,-87.69750002579254,"(41.749509961089295,-87.69750002579255)",2012-10-02
49477,10/02/2012,Completed - Dup,10/03/2012,12-01700799,Street Light - 1/Out,3812 W CORNELIA AVE,60618.0,1150301.09919785,1922997.37701431,30.0,17.0,21.0,41.94461117106207,-87.72296106927885,"(41.94461117106207,-87.72296106927885)",2012-10-02
49478,10/02/2012,Completed - Dup,10/03/2012,12-01702377,Street Light - 1/Out,11100 S HOYNE AVE,60643.0,1164321.11067335,1831006.49371074,19.0,22.0,75.0,41.691892295874595,-87.67402371488353,"(41.69189229587459,-87.67402371488353)",2012-10-02
49479,10/02/2012,Completed - Dup,10/03/2012,12-01702410,Street Light - 1/Out,3834 N OCTAVIA AVE,60634.0,1126727.73740544,1924613.63400553,36.0,16.0,17.0,41.9494743087375,-87.80957217607343,"(41.9494743087375,-87.80957217607344)",2012-10-02
49480,10/02/2012,Completed - Dup,10/03/2012,12-01702418,Street Light - 1/Out,4728 N ARTESIAN AVE,60625.0,1159182.30002061,1931327.35110988,47.0,19.0,4.0,41.96729090793843,-87.69008758304784,"(41.96729090793843,-87.69008758304784)",2012-10-02
49481,10/02/2012,Completed - Dup,10/04/2012,12-01696625,Street Light - 1/Out,914 N LOREL AVE,60651.0,1140506.42551463,1905573.62162794,37.0,15.0,25.0,41.896984247197146,-87.75939125169347,"(41.896984247197146,-87.75939125169349)",2012-10-02
49482,10/02/2012,Completed - Dup,10/04/2012,12-01696704,Street Light - 1/Out,4545 S HARDING AVE,60632.0,1150782.96017481,1874211.38538352,14.0,8.0,57.0,41.81072759550192,-87.72246621072466,"(41.810727595501916,-87.72246621072465)",2012-10-02
49483,10/02/2012,Completed - Dup,10/04/2012,12-01696710,Street Light - 1/Out,4545 S HARDING AVE,60632.0,1150782.96017481,1874211.38538352,14.0,8.0,57.0,41.81072759550192,-87.72246621072466,"(41.810727595501916,-87.72246621072465)",2012-10-02
49484,10/02/2012,Completed - Dup,10/04/2012,12-01698847,Street Light - 1/Out,1137 N FRANCISCO AVE,60622.0,1156846.3399236999,1907430.63418813,26.0,13.0,24.0,41.9017644185465,-87.69932644149971,"(41.9017644185465,-87.69932644149971)",2012-10-02
49485,10/02/2012,Completed - Dup,10/04/2012,12-01700192,Street Light - 1/Out,7127 S ARTESIAN AVE,60629.0,1161274.20057608,1857326.21193229,18.0,8.0,66.0,41.764181336981785,-87.68445253828028,"(41.76418133698178,-87.68445253828028)",2012-10-02
49486,10/02/2012,Completed - Dup,10/04/2012,12-01701752,Street Light - 1/Out,914 N LOREL AVE,60651.0,1140506.42551463,1905573.62162794,37.0,15.0,25.0,41.896984247197146,-87.75939125169347,"(41.896984247197146,-87.75939125169349)",2012-10-02
49487,10/02/2012,Completed - Dup,10/04/2012,12-01702045,Street Light - 1/Out,7255 S CAMPBELL AVE,60629.0,1160965.02339739,1856463.93692849,18.0,8.0,66.0,41.76182152287338,-87.68560955312981,"(41.76182152287338,-87.68560955312981)",2012-10-02
49488,10/02/2012,Completed - Dup,10/04/2012,12-01702261,Street Light - 1/Out,1800 S LAFLIN ST,60608.0,1166652.67658623,1891496.28522656,25.0,12.0,31.0,41.857834798188364,-87.66376326246531,"(41.85783479818837,-87.66376326246532)",2012-10-02
49489,10/02/2012,Completed - Dup,10/04/2012,12-01702508,Street Light - 1/Out,9747 S COMMERCIAL AVE,60617.0,1197829.3418283998,1840895.2289141999,10.0,4.0,51.0,41.71825863777653,-87.5510184473279,"(41.718258637776536,-87.5510184473279)",2012-10-02
49490,10/02/2012,Completed - Dup,10/05/2012,12-01696607,Street Light - 1/Out,1403 S TALMAN AVE,60608.0,1158942.61009812,1893181.55839073,28.0,10.0,29.0,41.86262086620464,-87.69201768653771,"(41.86262086620464,-87.69201768653771)",2012-10-02
49491,10/02/2012,Completed - Dup,10/05/2012,12-01696641,Street Light - 1/Out,1426 S TALMAN AVE,60608.0,1158947.20302759,1892991.62008872,28.0,10.0,29.0,41.86209956196747,-87.69200603485949,"(41.86209956196747,-87.69200603485949)",2012-10-02
49492,10/02/2012,Completed - Dup,10/05/2012,12-01698893,Street Light - 1/Out,1357 N ADA ST,60642.0,1167049.26588144,1909232.91631303,32.0,14.0,24.0,41.906496967866524,-87.66179810838793,"(41.90649696786652,-87.66179810838793)",2012-10-02
49493,10/02/2012,Completed - Dup,10/05/2012,12-01700220,Street Light - 1/Out,2624 N MENARD AVE,60639.0,1137273.19878116,1916854.69263043,30.0,25.0,19.0,41.92799957499572,-87.77099493064459,"(41.92799957499571,-87.7709949306446)",2012-10-02
49494,10/02/2012,Completed - Dup,10/05/2012,12-01701450,Street Light - 1/Out,2628 N MENARD AVE,60639.0,1137272.39878116,1916881.59263043,30.0,25.0,19.0,41.92807340596297,-87.7709972221112,"(41.92807340596297,-87.7709972221112)",2012-10-02
49495,10/02/2012,Completed - Dup,10/06/2012,12-01696621,Street Light - 1/Out,5 S LAVERGNE AVE,60644.0,1143264.83001868,1899550.35997834,28.0,15.0,25.0,41.880404617850026,-87.74941046248802,"(41.88040461785002,-87.74941046248802)",2012-10-02
49496,10/02/2012,Completed - Dup,10/09/2012,12-01696540,Street Light - 1/Out,2229 S TRUMBULL AVE,60623.0,1153800.51151231,1888954.89800404,22.0,10.0,30.0,41.85112627886637,-87.71100625797052,"(41.85112627886637,-87.71100625797052)",2012-10-02
49497,10/02/2012,Completed - Dup,10/09/2012,12-01697712,Street Light - 1/Out,8743 S BURLEY AVE,60617.0,1199187.40987389,1847611.75259746,10.0,4.0,46.0,41.736655340381226,-87.54581940326632,"(41.736655340381226,-87.54581940326631)",2012-10-02
49498,10/02/2012,Completed - Dup,10/09/2012,12-01700926,Street Light - 1/Out,9817 S HOXIE AVE,60617.0,1195081.69248915,1840386.9200888001,7.0,4.0,51.0,41.71693186296943,-87.5610985617921,"(41.71693186296943,-87.56109856179208)",2012-10-02
49499,10/02/2012,Completed - Dup,10/09/2012,12-01702105,Street Light - 1/Out,7709 S LANGLEY AVE,60619.0,1182229.79227634,1854047.63602512,6.0,6.0,69.0,41.754725119641954,-87.60774696310844,"(41.754725119641954,-87.60774696310843)",2012-10-02
49500,10/02/2012,Completed - Dup,10/09/2012,12-01702271,Street Light - 1/Out,6900 S HERMITAGE AVE,60636.0,1165870.51818539,1858938.67101382,17.0,7.0,67.0,41.76850975989697,-87.66756010923645,"(41.76850975989697,-87.66756010923646)",2012-10-02
49501,10/02/2012,Completed - Dup,10/10/2012,12-01696656,Street Light - 1/Out,11527 S OAKLEY AVE,60643.0,1162952.19987977,1828103.24346644,19.0,22.0,75.0,41.68395390176881,-87.67911622979517,"(41.68395390176881,-87.67911622979517)",2012-10-02
49502,10/02/2012,Completed - Dup,10/10/2012,12-01698989,Street Light - 1/Out,11229 S FORRESTVILLE AVE,60628.0,1181928.06999945,1830617.25326735,9.0,5.0,50.0,41.690436274933326,-87.60957456842718,"(41.690436274933326,-87.60957456842718)",2012-10-02
49503,10/02/2012,Completed - Dup,10/10/2012,12-01702034,Street Light - 1/Out,3428 W MEDILL AVE,60647.0,1153191.31428396,1915414.0401156002,26.0,14.0,22.0,41.92374493282847,-87.7125396159351,"(41.92374493282847,-87.71253961593509)",2012-10-02
49504,10/02/2012,Completed - Dup,10/10/2012,12-01702198,Street Light - 1/Out,3424 W MEDILL AVE,60647.0,1153209.31428396,1915414.4401156001,26.0,14.0,22.0,41.92374567285745,-87.712473466034,"(41.923745672857464,-87.712473466034)",2012-10-02
49505,10/02/2012,Completed - Dup,10/10/2012,12-01702208,Street Light - 1/Out,10131 S VERNON AVE,60628.0,1181032.40380293,1837887.728822,9.0,5.0,49.0,41.71040804156735,-87.61263088147949,"(41.71040804156735,-87.61263088147949)",2012-10-02
49506,10/02/2012,Completed - Dup,10/10/2012,12-01702210,Street Light - 1/Out,11229 S FORRESTVILLE AVE,60628.0,1181928.06999945,1830617.25326735,9.0,5.0,50.0,41.690436274933326,-87.60957456842718,"(41.690436274933326,-87.60957456842718)",2012-10-02
49507,10/02/2012,Completed - Dup,10/10/2012,12-01702277,Street Light - 1/Out,2556 W 104TH PL,60655.0,1161117.19502655,1835254.02992017,19.0,22.0,72.0,41.70361498566249,-87.68563681095333,"(41.703614985662504,-87.68563681095333)",2012-10-02
49508,10/02/2012,Completed - Dup,10/10/2012,12-01702300,Street Light - 1/Out,5536 S CARPENTER ST,60621.0,1170259.65988372,1868015.72242625,16.0,7.0,68.0,41.79332390773101,-87.65120781606747,"(41.79332390773101,-87.65120781606747)",2012-10-02
49509,10/02/2012,Completed - Dup,10/11/2012,12-01696881,Street Light - 1/Out,8900 S HARPER AVE,60619.0,1188002.80319255,1846272.13687773,8.0,4.0,48.0,41.733252835967775,-87.58683805642849,"(41.73325283596777,-87.58683805642848)",2012-10-02
49510,10/02/2012,Completed - Dup,10/11/2012,12-01700024,Street Light - 1/Out,2313 S CALIFORNIA AVE,60608.0,1158059.70012367,1888470.50171295,12.0,10.0,30.0,41.849711275944564,-87.69538724011483,"(41.84971127594456,-87.69538724011483)",2012-10-02
49511,10/02/2012,Completed - Dup,10/11/2012,12-01702350,Street Light - 1/Out,10141 S WALLACE ST,60628.0,1174091.97649141,1837636.81657883,9.0,22.0,73.0,41.70987609868409,-87.63805531831291,"(41.70987609868409,-87.6380553183129)",2012-10-02
49512,10/02/2012,Completed - Dup,10/12/2012,12-01696692,Street Light - 1/Out,2544 W 113TH ST,60655.0,1161265.93987639,1829606.31430581,19.0,22.0,75.0,41.68811357649154,-87.68524774272858,"(41.68811357649154,-87.68524774272858)",2012-10-02
49513,10/02/2012,Completed - Dup,10/13/2012,12-01702258,Street Light - 1/Out,473 W 28TH PL,60616.0,1173410.95056579,1886031.92671485,11.0,9.0,60.0,41.84269286863045,-87.63911863030414,"(41.84269286863045,-87.63911863030414)",2012-10-02
49514,10/02/2012,Completed - Dup,10/15/2012,12-01697200,Street Light - 1/Out,2226 W 118TH ST,60643.0,1163542.4944791,1826417.5993659,19.0,22.0,75.0,41.67931586888303,-87.67700234338665,"(41.67931586888303,-87.67700234338666)",2012-10-02
49515,10/02/2012,Completed - Dup,10/15/2012,12-01699653,Street Light - 1/Out,6840 S OAKLEY AVE,60636.0,1162245.96909096,1859250.75000128,17.0,8.0,66.0,41.76944237091335,-87.68083723923584,"(41.76944237091335,-87.68083723923584)",2012-10-02
49516,10/02/2012,Completed - Dup,10/16/2012,12-01697915,Street Light - 1/Out,2345 W SHAKESPEARE AVE,60647.0,1160250.47008324,1914328.62572814,32.0,14.0,22.0,41.92062331369386,-87.68663160062412,"(41.92062331369386,-87.68663160062412)",2012-10-02
49517,10/02/2012,Completed - Dup,10/17/2012,12-01702388,Street Light - 1/Out,7745 S RIDGELAND AVE,60649.0,1189213.72529496,1853967.59799577,8.0,4.0,43.0,41.75434100568542,-87.58215583095829,"(41.75434100568542,-87.5821558309583)",2012-10-02
49518,10/02/2012,Completed - Dup,10/17/2012,12-01702533,Street Light - 1/Out,4146 W POTOMAC AVE,60651.0,1148500.77790159,1908337.90698647,37.0,25.0,23.0,41.904419225348356,-87.72995749544386,"(41.90441922534836,-87.72995749544386)",2012-10-02
49519,10/02/2012,Completed - Dup,10/18/2012,12-01701535,Street Light - 1/Out,851 E 83RD ST,60619.0,1183436.23242496,1850147.08493315,8.0,6.0,44.0,41.74399359030283,-87.6034470203523,"(41.74399359030283,-87.60344702035232)",2012-10-02
49520,10/02/2012,Completed - Dup,10/18/2012,12-01702133,Street Light - 1/Out,1859 S ALLPORT ST,60608.0,1168330.26497386,1891150.92132708,25.0,12.0,31.0,41.856851025593954,-87.65761550077728,"(41.85685102559395,-87.65761550077728)",2012-10-02
49521,10/02/2012,Completed - Dup,10/23/2012,12-01696631,Street Light - 1/Out,831 N KILDARE AVE,60651.0,1147556.82000462,1905288.58000276,37.0,11.0,23.0,41.89606971779861,-87.73350326066019,"(41.89606971779861,-87.73350326066019)",2012-10-02
49522,10/02/2012,Completed - Dup,10/23/2012,12-01696636,Street Light - 1/Out,2338 N MAPLEWOOD AVE,60647.0,1158922.7611681002,1915612.30000577,1.0,14.0,22.0,41.924173181151225,-87.6914745769194,"(41.924173181151225,-87.6914745769194)",2012-10-02
49523,10/02/2012,Completed - Dup,10/25/2012,12-01696702,Street Light - 1/Out,5329 S MCVICKER AVE,60638.0,1136940.76733435,1868595.70341968,23.0,8.0,56.0,41.79557598306775,-87.77337313459297,"(41.79557598306775,-87.77337313459297)",2012-10-02
49524,10/02/2012,Completed - Dup,10/29/2012,12-01696584,Street Light - 1/Out,1600 N HAMLIN AVE,60647.0,1150804.15012136,1910366.04730896,30.0,25.0,23.0,41.90993986745698,-87.72144336821242,"(41.90993986745698,-87.7214433682124)",2012-10-02
49525,10/02/2012,Completed - Dup,10/29/2012,12-01696611,Street Light - 1/Out,2400 N CENTRAL PARK AVE,60647.0,1151976.8698298999,1915718.11953233,35.0,25.0,22.0,41.9246033920474,-87.71699394659004,"(41.92460339204741,-87.71699394659004)",2012-10-02
49526,10/02/2012,Completed - Dup,10/29/2012,12-01702412,Street Light - 1/Out,10900 S PROSPECT AVE,60643.0,1166307.85482245,1832308.46319894,19.0,22.0,75.0,41.695423160692506,-87.66671306143165,"(41.695423160692506,-87.66671306143165)",2012-10-02
49527,10/02/2012,Completed - Dup,10/30/2012,12-01702025,Street Light - 1/Out,2114 N CAMPBELL AVE,60647.0,1159542.24001968,1914087.25902693,1.0,14.0,22.0,41.91997561227632,-87.68924044539548,"(41.91997561227632,-87.68924044539548)",2012-10-02
49528,10/02/2012,Completed - Dup,11/02/2012,12-01702071,Street Light - 1/Out,8526 S BUFFALO AVE,60617.0,1199620.77437712,1849065.44077962,10.0,4.0,46.0,41.740633473968785,-87.54418289808653,"(41.74063347396879,-87.54418289808653)",2012-10-02
49529,10/02/2012,Completed - Dup,11/07/2012,12-01702205,Street Light - 1/Out,2312 W WABANSIA AVE,60647.0,1160630.55006556,1911408.10591972,1.0,14.0,24.0,41.91260132207906,-87.68531618882713,"(41.91260132207906,-87.68531618882712)",2012-10-02
49530,10/02/2012,Completed - Dup,11/14/2012,12-01702193,Street Light - 1/Out,4217 S RICHMOND ST,60632.0,1157392.27721413,1876537.50561124,14.0,9.0,58.0,41.81697929208316,-87.69816061995388,"(41.81697929208316,-87.69816061995387)",2012-10-02
49531,10/02/2012,Completed - Dup,11/16/2012,12-01696634,Street Light - 1/Out,1315 S SAWYER AVE,60623.0,1154906.5545068001,1893691.61297979,24.0,10.0,29.0,41.86410228881898,-87.70681995864919,"(41.86410228881898,-87.7068199586492)",2012-10-02
49532,10/02/2012,Completed - Dup,11/21/2012,12-01699509,Street Light - 1/Out,445 W 101ST PL,60628.0,1175049.29133151,1837602.85001364,9.0,22.0,73.0,41.70976162441515,-87.6345505045821,"(41.70976162441515,-87.63455050458211)",2012-10-02
49533,10/02/2012,Completed - Dup,11/21/2012,12-01700260,Street Light - 1/Out,2416 W POLK ST,60612.0,1160406.59360426,1896303.05007655,2.0,11.0,28.0,41.87115640716219,-87.68655724054578,"(41.87115640716219,-87.68655724054578)",2012-10-02
49534,10/02/2012,Completed - Dup,12/07/2012,12-01697036,Street Light - 1/Out,3016 W WALNUT ST,60612.0,1156236.47850837,1901480.71610509,27.0,13.0,27.0,41.88544964075468,-87.70172742497374,"(41.88544964075468,-87.70172742497373)",2012-10-02
49535,10/02/2012,Completed,10/02/2012,12-01696798,Street Light - 1/Out,1211 W 109TH ST,60643.0,1170192.08608925,1832503.75988722,34.0,22.0,75.0,41.69587571181357,-87.65248592403455,"(41.695875711813564,-87.65248592403456)",2012-10-02
49536,10/02/2012,Completed,10/02/2012,12-01696802,Street Light - 1/Out,1341 W 109TH ST,60643.0,1169329.19988465,1832482.28410946,34.0,22.0,75.0,41.69583545287456,-87.65564588215499,"(41.695835452874555,-87.65564588215499)",2012-10-02
49537,10/02/2012,Completed,10/02/2012,12-01697600,Street Light - 1/Out,2719 W BARRY AVE,60618.0,1157528.21199435,1920579.19828005,1.0,14.0,21.0,41.937831235364754,-87.69646316461021,"(41.93783123536476,-87.69646316461022)",2012-10-02
49538,10/02/2012,Completed,10/02/2012,12-01698760,Street Light - 1/Out,7015 S LOWE AVE,60621.0,1173179.54182883,1858372.0444125999,6.0,7.0,68.0,41.76679649198368,-87.64078571735676,"(41.76679649198369,-87.64078571735676)",2012-10-02
49539,10/02/2012,Completed,10/02/2012,12-01699164,Street Light - 1/Out,10400 S GREEN BAY AVE,60617.0,1200511.59600951,1836597.92977759,10.0,4.0,52.0,41.706399187932576,-87.54133934959968,"(41.70639918793257,-87.54133934959968)",2012-10-02
49540,10/02/2012,Completed,10/02/2012,12-01702228,Street Light - 1/Out,475 W 28TH PL,60616.0,1173394.95056579,1886031.52671485,11.0,9.0,60.0,41.84269212587171,-87.63917735750425,"(41.84269212587171,-87.63917735750425)",2012-10-02
49541,10/02/2012,Completed,10/02/2012,12-01702442,Street Light - 1/Out,200 N MOZART ST,60612.0,1157376.24533286,1901036.48617289,2.0,13.0,27.0,41.88420753589501,-87.69755406066555,"(41.88420753589501,-87.69755406066555)",2012-10-02
49542,10/02/2012,Completed,10/02/2012,12-01702450,Street Light - 1/Out,3216 W BERWYN AVE,60625.0,1153903.65738455,1935035.76699189,40.0,17.0,13.0,41.977574125885724,-87.70939730889141,"(41.97757412588573,-87.70939730889141)",2012-10-02
49543,10/02/2012,Completed,10/03/2012,12-01696713,Street Light - 1/Out,5354 S KOSTNER AVE,60632.0,1147939.57479881,1868711.54471555,23.0,8.0,62.0,41.79569018683879,-87.73303649546446,"(41.79569018683879,-87.73303649546446)",2012-10-02
49544,10/02/2012,Completed,10/03/2012,12-01696715,Street Light - 1/Out,7730 S TROY ST,60652.0,1156718.86000618,1853174.39721696,18.0,8.0,70.0,41.75288119244567,-87.70126091937061,"(41.75288119244567,-87.70126091937061)",2012-10-02
49545,10/02/2012,Completed,10/03/2012,12-01696721,Street Light - 1/Out,9001 S LAFLIN ST,60620.0,1167913.00457222,1845048.60129266,21.0,22.0,73.0,41.7303498522169,-87.6604715397002,"(41.7303498522169,-87.6604715397002)",2012-10-02
49546,10/02/2012,Completed,10/03/2012,12-01696745,Street Light - 1/Out,6614 N GREENVIEW AVE,60626.0,1165072.65542805,1944028.89941406,40.0,24.0,1.0,42.00202095009843,-87.66806671884304,"(42.00202095009842,-87.66806671884304)",2012-10-02
49547,10/02/2012,Completed,10/03/2012,12-01696828,Street Light - 1/Out,5410 W OHIO ST,60644.0,1140112.07878459,1903440.98646693,37.0,15.0,25.0,41.89113926633927,-87.76089190783594,"(41.89113926633927,-87.76089190783593)",2012-10-02
49548,10/02/2012,Completed,10/03/2012,12-01697876,Street Light - 1/Out,11625 S WALLACE ST,60628.0,1174388.93627317,1827935.25989247,34.0,5.0,53.0,41.683246979218275,-87.63725493759537,"(41.68324697921827,-87.63725493759536)",2012-10-02
49549,10/02/2012,Completed,10/03/2012,12-01701255,Street Light - 1/Out,11327 S TALMAN AVE,60655.0,1160744.05989589,1829413.56521434,19.0,22.0,75.0,41.687595395958276,-87.68716361023519,"(41.68759539595827,-87.68716361023519)",2012-10-02
49550,10/02/2012,Completed,10/04/2012,12-01698532,Street Light - 1/Out,5306 N LARAMIE AVE,60630.0,1140741.57849345,1934790.82008638,45.0,16.0,11.0,41.977154840329206,-87.75780713922408,"(41.9771548403292,-87.7578071392241)",2012-10-02
49551,10/02/2012,Completed,10/04/2012,12-01698849,Street Light - 1/Out,5344 N LATROBE AVE,60630.0,1140487.25171307,1935118.23996574,45.0,16.0,11.0,41.97805799195229,-87.75873434989109,"(41.978057991952284,-87.7587343498911)",2012-10-02
49552,10/02/2012,Completed,10/04/2012,12-01700694,Street Light - 1/Out,2029 W 68TH PL,60636.0,1164013.36597242,1859229.39990573,17.0,7.0,67.0,41.76934680670981,-87.67435934154379,"(41.769346806709805,-87.67435934154379)",2012-10-02
49553,10/02/2012,Completed,10/04/2012,12-01702237,Street Light - 1/Out,1615 S STATE ST,60616.0,1176591.06686602,1892365.06550464,3.0,1.0,33.0,41.86000032083907,-87.62725745368326,"(41.86000032083907,-87.62725745368326)",2012-10-02
49554,10/02/2012,Completed,10/05/2012,12-01702163,Street Light - 1/Out,7227 W IBSEN ST,60631.0,1127201.47547662,1945323.14977567,41.0,16.0,9.0,42.00629539934626,-87.80736331543699,"(42.00629539934626,-87.80736331543699)",2012-10-02
49555,10/02/2012,Completed,10/05/2012,12-01702251,Street Light - 1/Out,5206 W PARKER AVE,60639.0,1141201.93830315,1917789.03251029,31.0,25.0,19.0,41.9304918876463,-87.75653497463617,"(41.9304918876463,-87.75653497463617)",2012-10-02
49556,10/02/2012,Completed,10/09/2012,12-01698576,Street Light - 1/Out,723 N LEAMINGTON AVE,60644.0,1141894.44768267,1904298.66162274,28.0,15.0,25.0,41.8934600129994,-87.75432478948143,"(41.8934600129994,-87.75432478948144)",2012-10-02
49557,10/02/2012,Completed,10/09/2012,12-01700053,Street Light - 1/Out,3009 N HARLEM AVE,60634.0,1127561.74791464,1919214.66001366,36.0,25.0,18.0,41.934644850163686,-87.80662834590353,"(41.934644850163686,-87.80662834590353)",2012-10-02
49558,10/02/2012,Completed,10/10/2012,12-01696714,Street Light - 1/Out,3209 W MANN DR,60629.0,1156147.31920931,1859813.0652979,18.0,8.0,66.0,41.77111023771523,-87.7031771891562,"(41.77111023771523,-87.70317718915618)",2012-10-02
49559,10/02/2012,Completed,10/10/2012,12-01700363,Street Light - 1/Out,3001 S TRIPP AVE,60623.0,1148528.03257413,1884365.37802812,22.0,10.0,30.0,41.838635261341075,-87.7304758329358,"(41.83863526134108,-87.7304758329358)",2012-10-02
49560,10/02/2012,Completed,10/10/2012,12-01702122,Street Light - 1/Out,2556 W 104TH PL,60655.0,1161117.19502655,1835254.02992017,19.0,22.0,72.0,41.70361498566249,-87.68563681095333,"(41.703614985662504,-87.68563681095333)",2012-10-02
49561,10/02/2012,Completed,10/10/2012,12-01702128,Street Light - 1/Out,11336 S FRONT AVE,60628.0,1181322.94998767,1829891.270021,9.0,5.0,49.0,41.688458006397816,-87.61181218685844,"(41.68845800639782,-87.61181218685843)",2012-10-02
49562,10/02/2012,Completed,10/10/2012,12-01702218,Street Light - 1/Out,4800 N KOSTNER AVE,60630.0,1146176.78320366,1931540.55489532,39.0,17.0,14.0,41.96813393082443,-87.73790228851402,"(41.96813393082443,-87.73790228851401)",2012-10-02
49563,10/02/2012,Completed,10/10/2012,12-01702431,Street Light - 1/Out,3730 W BERTEAU AVE,60618.0,1150639.5723841002,1927653.07412563,39.0,17.0,16.0,41.957380133150494,-87.72159483077135,"(41.957380133150494,-87.72159483077135)",2012-10-02
49564,10/02/2012,Completed,10/11/2012,12-01696624,Street Light - 1/Out,5557 W PENSACOLA AVE,60641.0,1138510.68841171,1928372.62160966,38.0,16.0,15.0,41.959583570354475,-87.76616749872444,"(41.95958357035448,-87.76616749872444)",2012-10-02
49565,10/02/2012,Completed,10/11/2012,12-01696642,Street Light - 1/Out,1938 N HERMITAGE AVE,60622.0,1164375.26878875,1912949.34347176,32.0,14.0,22.0,41.916752117871496,-87.67151538301559,"(41.916752117871496,-87.6715153830156)",2012-10-02
49566,10/02/2012,Completed,10/11/2012,12-01696709,Street Light - 1/Out,2200 W CERMAK RD,60608.0,1162042.84947845,1889370.42157691,25.0,12.0,31.0,41.85209861828778,-87.68074340852863,"(41.85209861828778,-87.68074340852863)",2012-10-02
49567,10/02/2012,Completed,10/11/2012,12-01702219,Street Light - 1/Out,4750 N KOSTNER AVE,60630.0,1146194.67020423,1930959.90339956,39.0,17.0,16.0,41.96654023816011,-87.7378513574936,"(41.96654023816011,-87.7378513574936)",2012-10-02
49568,10/02/2012,Completed,10/12/2012,12-01696725,Street Light - 1/Out,2544 W 113TH ST,60655.0,1161265.93987639,1829606.31430581,19.0,22.0,75.0,41.68811357649154,-87.68524774272858,"(41.68811357649154,-87.68524774272858)",2012-10-02
49569,10/02/2012,Completed,10/12/2012,12-01701615,Street Light - 1/Out,28 S PEORIA ST,60607.0,1170418.99577016,1900107.41997063,2.0,12.0,28.0,41.88138297044526,-87.64968693682431,"(41.88138297044526,-87.6496869368243)",2012-10-02
49570,10/02/2012,Completed,10/12/2012,12-01702009,Street Light - 1/Out,3812 S MICHIGAN AVE,60653.0,1177822.49339007,1879714.48846725,3.0,2.0,35.0,41.82525834251476,-87.62312127028017,"(41.82525834251476,-87.62312127028017)",2012-10-02
49571,10/02/2012,Completed,10/12/2012,12-01702484,Street Light - 1/Out,1643 W PRATT BLVD,60626.0,1164084.70011964,1945236.62609453,49.0,24.0,1.0,42.005355986824824,-87.67166694422691,"(42.00535598682483,-87.6716669442269)",2012-10-02
49572,10/02/2012,Completed,10/15/2012,12-01696722,Street Light - 1/Out,11757 S BELL AVE,60643.0,1163377.46998108,1826674.62001048,19.0,22.0,75.0,41.680024628336405,-87.6775992456209,"(41.68002462833641,-87.67759924562091)",2012-10-02
49573,10/02/2012,Completed,10/15/2012,12-01702201,Street Light - 1/Out,1830 N MERRIMAC AVE,60639.0,1134532.24680414,1911512.08921234,29.0,25.0,25.0,41.91338772392442,-87.7811934845872,"(41.91338772392442,-87.7811934845872)",2012-10-02
49574,10/02/2012,Completed,10/17/2012,12-01699146,Street Light - 1/Out,8215 S BLACKSTONE AVE,60619.0,1187591.67253365,1850809.86670865,8.0,4.0,45.0,41.74571459893855,-87.58820026907183,"(41.74571459893855,-87.58820026907183)",2012-10-02
49575,10/02/2012,Completed,10/17/2012,12-01701178,Street Light - 1/Out,4148 W POTOMAC AVE,60651.0,1148487.27790159,1908337.60698647,37.0,25.0,23.0,41.904418662674686,-87.73000709283959,"(41.904418662674686,-87.73000709283959)",2012-10-02
49576,10/02/2012,Completed,10/23/2012,12-01696643,Street Light - 1/Out,1014 W GEORGE ST,60657.0,1169019.41360371,1919434.16247678,44.0,19.0,6.0,41.93444718087343,-87.65426428428735,"(41.93444718087343,-87.65426428428736)",2012-10-02
49577,10/02/2012,Completed,10/23/2012,12-01700616,Street Light - 1/Out,8050 S ST LAWRENCE AVE,60619.0,1181623.30028395,1852092.28058389,6.0,6.0,44.0,41.749373427798574,-87.61002979755665,"(41.74937342779858,-87.61002979755665)",2012-10-02
49578,10/02/2012,Completed,10/25/2012,12-01701556,Street Light - 1/Out,13231 S AVENUE O,60633.0,1201081.5228088999,1817710.48180312,10.0,4.0,55.0,41.65455578418902,-87.53988930101774,"(41.65455578418902,-87.53988930101774)",2012-10-02
49579,10/02/2012,Completed,10/30/2012,12-01697455,Street Light - 1/Out,5620 S WELLS ST,60621.0,1175561.12419995,1867664.6893797,3.0,7.0,68.0,41.792243561144716,-87.63177843565714,"(41.792243561144716,-87.63177843565714)",2012-10-02
49580,10/02/2012,Completed,10/31/2012,12-01696493,Street Light - 1/Out,2308 N KEDZIE BLVD,60647.0,1154653.31189454,1915274.83002035,26.0,14.0,22.0,41.92333375960049,-87.70717138611059,"(41.923333759600496,-87.70717138611059)",2012-10-02
49581,10/02/2012,Completed,11/01/2012,12-01702238,Street Light - 1/Out,1212 S PLYMOUTH CT,60605.0,1176263.1100295,1894910.17001209,2.0,1.0,33.0,41.86699164947547,-87.62838456824194,"(41.866991649475466,-87.62838456824193)",2012-10-02
49582,10/02/2012,Completed,11/02/2012,12-01696716,Street Light - 1/Out,8300 S LANGLEY AVE,60619.0,1182345.62988248,1850113.34168018,6.0,6.0,44.0,41.74392631019207,-87.60744409321737,"(41.743926310192066,-87.60744409321737)",2012-10-02
49583,10/02/2012,Completed,11/02/2012,12-01697922,Street Light - 1/Out,2246 W 80TH ST,60620.0,1162706.8609953998,1851563.90991473,18.0,8.0,70.0,41.748338961640016,-87.67936200986355,"(41.748338961640016,-87.67936200986354)",2012-10-02
49584,10/02/2012,Completed,11/06/2012,12-01696648,Street Light - 1/Out,1640 S PRAIRIE AVE,60616.0,1178341.69162443,1892313.76062407,2.0,1.0,33.0,41.85981985081817,-87.62083302477839,"(41.85981985081817,-87.62083302477839)",2012-10-02
49585,10/02/2012,Completed,11/07/2012,12-01702236,Street Light - 1/Out,1615 S STATE ST,60616.0,1176591.06686602,1892365.06550464,3.0,1.0,33.0,41.86000032083907,-87.62725745368326,"(41.86000032083907,-87.62725745368326)",2012-10-02
49586,10/02/2012,Completed,11/15/2012,12-01696697,Street Light - 1/Out,8300 S LANGLEY AVE,60619.0,1182345.62988248,1850113.34168018,6.0,6.0,44.0,41.74392631019207,-87.60744409321737,"(41.743926310192066,-87.60744409321737)",2012-10-02
49587,10/02/2012,Completed,11/19/2012,12-01696507,Street Light - 1/Out,3130 W FRANKLIN SD,60612.0,1155286.90007764,1903249.21499462,27.0,13.0,23.0,41.89032169859856,-87.70516692844231,"(41.89032169859856,-87.70516692844231)",2012-10-02
49588,10/02/2012,Completed,11/20/2012,12-01696628,Street Light - 1/Out,4542 W CONGRESS PKWY,60624.0,1146051.58446654,1897301.95309214,24.0,11.0,26.0,41.87418223534695,-87.73923481630281,"(41.87418223534695,-87.73923481630281)",2012-10-02
49589,10/02/2012,Completed,11/21/2012,12-01696718,Street Light - 1/Out,10100 S EGGLESTON AVE,60628.0,1175283.67167054,1837943.73029443,9.0,22.0,73.0,41.71069182574283,-87.63368202902069,"(41.71069182574283,-87.63368202902068)",2012-10-02
49590,10/02/2012,Completed,11/21/2012,12-01700201,Street Light - 1/Out,18 N LAMON AVE,60644.0,1143721.22989086,1899658.95282738,28.0,15.0,25.0,41.880694076482136,-87.74773186713762,"(41.88069407648213,-87.74773186713762)",2012-10-02
49591,10/02/2012,Completed,12/05/2012,12-01696719,Street Light - 1/Out,8900 S WALLACE ST,60620.0,1173861.45952015,1845908.88631685,21.0,22.0,71.0,41.73258092019486,-87.63865505775782,"(41.73258092019486,-87.63865505775782)",2012-10-02
49592,10/02/2012,Completed,12/12/2012,12-01696633,Street Light - 1/Out,2837 W 21ST ST,60623.0,1157596.69000458,1889931.86102176,12.0,10.0,30.0,41.85373083262893,-87.69704681592411,"(41.853730832628926,-87.69704681592411)",2012-10-02
49777,10/03/2012,Completed - Dup,10/03/2012,12-01702649,Street Light - 1/Out,899 W ALDINE AVE,60657.0,1169575.1859243999,1922106.61950088,44.0,19.0,6.0,41.941768421795686,-87.65214379499659,"(41.941768421795686,-87.6521437949966)",2012-10-03
49778,10/03/2012,Completed - Dup,10/03/2012,12-01702650,Street Light - 1/Out,2100 W BERTEAU AVE,60618.0,1161601.02898436,1927875.95977726,47.0,19.0,5.0,41.95776994966967,-87.68129076698574,"(41.95776994966967,-87.68129076698574)",2012-10-03
49779,10/03/2012,Completed - Dup,10/03/2012,12-01702652,Street Light - 1/Out,2640 N DRAKE AVE,60647.0,1152265.94473258,1917325.52146792,35.0,14.0,22.0,41.92900853109807,-87.71588922305544,"(41.92900853109807,-87.71588922305543)",2012-10-03
49780,10/03/2012,Completed - Dup,10/03/2012,12-01702654,Street Light - 1/Out,3800 W CORNELIA AVE,60618.0,1150439.09919785,1923000.87701431,30.0,17.0,21.0,41.94461807766653,-87.72245374367428,"(41.94461807766653,-87.72245374367428)",2012-10-03
49781,10/03/2012,Completed - Dup,10/03/2012,12-01702655,Street Light - 1/Out,2116 N LECLAIRE AVE,60639.0,1142044.84309183,1913591.56009212,37.0,25.0,19.0,41.918957986236265,-87.75354174757116,"(41.918957986236265,-87.75354174757116)",2012-10-03
49782,10/03/2012,Completed - Dup,10/03/2012,12-01702658,Street Light - 1/Out,3615 W CORNELIA AVE,60618.0,1151590.07340065,1923021.24201624,35.0,17.0,21.0,41.94465137387096,-87.71822267845491,"(41.944651373870954,-87.7182226784549)",2012-10-03
49783,10/03/2012,Completed - Dup,10/03/2012,12-01702661,Street Light - 1/Out,2100 W BERTEAU AVE,60618.0,1161601.02898436,1927875.95977726,47.0,19.0,5.0,41.95776994966967,-87.68129076698574,"(41.95776994966967,-87.68129076698574)",2012-10-03
49784,10/03/2012,Completed - Dup,10/03/2012,12-01702878,Street Light - 1/Out,2549 W 82ND PL,60652.0,1160678.82033221,1849879.54809166,18.0,8.0,70.0,41.743758869645106,-87.68683986215375,"(41.74375886964511,-87.68683986215373)",2012-10-03
49785,10/03/2012,Completed - Dup,10/03/2012,12-01702879,Street Light - 1/Out,8029 S HERMITAGE AVE,60620.0,1166075.97382639,1851449.90289781,21.0,6.0,71.0,41.747955178266324,-87.66701962302967,"(41.747955178266324,-87.66701962302967)",2012-10-03
49786,10/03/2012,Completed - Dup,10/03/2012,12-01702881,Street Light - 1/Out,929 W 112TH ST,60643.0,1171986.53707555,1830556.80989949,34.0,22.0,75.0,41.69049386180922,-87.64597268195887,"(41.69049386180922,-87.64597268195888)",2012-10-03
49787,10/03/2012,Completed - Dup,10/03/2012,12-01702883,Street Light - 1/Out,9200 S THROOP ST,60620.0,1169276.79953246,1843760.12069055,21.0,22.0,73.0,41.72678470900733,-87.65551268952277,"(41.726784709007326,-87.65551268952277)",2012-10-03
49788,10/03/2012,Completed - Dup,10/03/2012,12-01702885,Street Light - 1/Out,1 W 125TH PL,60628.0,1178543.49243251,1821810.51810426,9.0,5.0,53.0,41.666346635305054,-87.62223169148788,"(41.666346635305054,-87.62223169148788)",2012-10-03
49789,10/03/2012,Completed - Dup,10/03/2012,12-01702886,Street Light - 1/Out,7400 S DREXEL AVE,60619.0,1183512.38507608,1856138.79451126,6.0,3.0,69.0,41.760433690383394,-87.60298162907914,"(41.760433690383394,-87.60298162907914)",2012-10-03
49790,10/03/2012,Completed - Dup,10/03/2012,12-01702887,Street Light - 1/Out,800 E 79TH ST,60619.0,1182931.38363419,1852800.34381547,6.0,6.0,69.0,41.75128615322453,-87.60521454816528,"(41.75128615322452,-87.60521454816528)",2012-10-03
49791,10/03/2012,Completed - Dup,10/03/2012,12-01702889,Street Light - 1/Out,7900 S PERRY AVE,60620.0,1176978.34209771,1852614.01079513,17.0,6.0,44.0,41.75091100808071,-87.62703497583173,"(41.750911008080706,-87.62703497583173)",2012-10-03
49792,10/03/2012,Completed - Dup,10/03/2012,12-01705025,Street Light - 1/Out,5300 S LAFLIN ST,60609.0,1167236.84820943,1869589.72629011,16.0,9.0,61.0,41.79770844228895,-87.66224712663015,"(41.79770844228895,-87.66224712663016)",2012-10-03
49793,10/03/2012,Completed - Dup,10/03/2012,12-01707779,Street Light - 1/Out,10033 S RHODES AVE,60628.0,1181678.339999,1838557.65136819,9.0,5.0,49.0,41.712231534466326,-87.61024476175957,"(41.712231534466326,-87.61024476175957)",2012-10-03
49794,10/03/2012,Completed - Dup,10/03/2012,12-01707874,Street Light - 1/Out,2707 W 22ND PL,60608.0,1158667.9294088,1888951.19599716,28.0,10.0,30.0,41.85101793238379,-87.69314179472794,"(41.85101793238379,-87.69314179472794)",2012-10-03
49795,10/03/2012,Completed - Dup,10/03/2012,12-01707996,Street Light - 1/Out,7029 N ASHLAND BLVD,60626.0,1164496.58500901,1946901.49561681,49.0,24.0,1.0,42.00991567799447,-87.67010414098293,"(42.009915677994464,-87.67010414098293)",2012-10-03
49796,10/03/2012,Completed - Dup,10/03/2012,12-01708050,Street Light - 1/Out,2709 W 22ND PL,60608.0,1158654.4294088,1888950.89599716,28.0,10.0,30.0,41.851017385321725,-87.69319135096895,"(41.851017385321725,-87.69319135096895)",2012-10-03
49797,10/03/2012,Completed - Dup,10/04/2012,12-01702912,Street Light - 1/Out,2549 W 82ND PL,60652.0,1160678.82033221,1849879.54809166,18.0,8.0,70.0,41.743758869645106,-87.68683986215375,"(41.74375886964511,-87.68683986215373)",2012-10-03
49798,10/03/2012,Completed - Dup,10/04/2012,12-01703753,Street Light - 1/Out,8601 S MUSKEGON AVE,60617.0,1196644.22382326,1848491.6707958,10.0,4.0,46.0,41.739133387729495,-87.55510745474493,"(41.739133387729495,-87.55510745474493)",2012-10-03
49799,10/03/2012,Completed - Dup,10/04/2012,12-01706236,Street Light - 1/Out,8600 S MUSKEGON AVE,60617.0,1196644.12382326,1848498.3707958001,10.0,4.0,46.0,41.739151775545245,-87.5551075991387,"(41.739151775545245,-87.5551075991387)",2012-10-03
49800,10/03/2012,Completed - Dup,10/04/2012,12-01707676,Street Light - 1/Out,914 N LOREL AVE,60651.0,1140506.42551463,1905573.62162794,37.0,15.0,25.0,41.896984247197146,-87.75939125169347,"(41.896984247197146,-87.75939125169349)",2012-10-03
49801,10/03/2012,Completed - Dup,10/04/2012,12-01707836,Street Light - 1/Out,2748 W SHERWIN AVE,60645.0,1156779.48010585,1948630.19999458,50.0,24.0,2.0,42.014819847063116,-87.69845084131303,"(42.01481984706312,-87.69845084131303)",2012-10-03
49802,10/03/2012,Completed - Dup,10/04/2012,12-01707946,Street Light - 1/Out,8145 S TALMAN AVE,60652.0,1160124.84912594,1850421.59997056,18.0,8.0,70.0,41.74525774800004,-87.68885479646356,"(41.74525774800004,-87.68885479646357)",2012-10-03
49803,10/03/2012,Completed - Dup,10/05/2012,12-01703548,Street Light - 1/Out,9528 S WENTWORTH AVE,60628.0,1176625.91892167,1841764.00410672,21.0,5.0,49.0,41.72114514542043,-87.62865196461566,"(41.72114514542043,-87.62865196461566)",2012-10-03
49804,10/03/2012,Completed - Dup,10/05/2012,12-01705503,Street Light - 1/Out,8000 S SAGINAW AVE,60617.0,1195234.70089515,1852436.96677799,7.0,4.0,46.0,41.749994458344155,-87.56014170014925,"(41.749994458344155,-87.56014170014925)",2012-10-03
49805,10/03/2012,Completed - Dup,10/05/2012,12-01706835,Street Light - 1/Out,2600 N MENARD AVE,60639.0,1137278.49878116,1916693.49263043,30.0,25.0,19.0,41.927557128995595,-87.77097933978598,"(41.92755712899559,-87.77097933978598)",2012-10-03
49806,10/03/2012,Completed - Dup,10/05/2012,12-01707826,Street Light - 1/Out,13130 S BUFFALO AVE,60633.0,1200083.72927878,1818507.73931144,10.0,4.0,55.0,41.656768693023295,-87.54351342854868,"(41.656768693023295,-87.54351342854868)",2012-10-03
49807,10/03/2012,Completed - Dup,10/05/2012,12-01707883,Street Light - 1/Out,5900 N OCONTO AVE,60631.0,1126977.47739942,1938572.28988554,41.0,16.0,10.0,41.98777417659364,-87.80833973182156,"(41.98777417659364,-87.80833973182156)",2012-10-03
49808,10/03/2012,Completed - Dup,10/06/2012,12-01703083,Street Light - 1/Out,3401 S MAY ST,60608.0,1169204.8661761002,1882341.47967156,11.0,9.0,60.0,41.83265819427857,-87.65466077687013,"(41.832658194278565,-87.65466077687014)",2012-10-03
49809,10/03/2012,Completed - Dup,10/09/2012,12-01704395,Street Light - 1/Out,260 W CERMAK RD,60616.0,1174854.76100597,1889748.74840354,25.0,9.0,34.0,41.852859964456634,-87.63370915117324,"(41.85285996445663,-87.63370915117324)",2012-10-03
49810,10/03/2012,Completed - Dup,10/09/2012,12-01706007,Street Light - 1/Out,2420 W HURON ST,60612.0,1160146.20280588,1904598.27768121,1.0,13.0,24.0,41.89392463750174,-87.68728396672695,"(41.89392463750174,-87.68728396672695)",2012-10-03
49811,10/03/2012,Completed - Dup,10/09/2012,12-01706466,Street Light - 1/Out,7900 S MUSKEGON AVE,60617.0,1196544.02007878,1853135.53716963,7.0,4.0,46.0,41.751879000033114,-87.55532074045132,"(41.75187900003311,-87.55532074045132)",2012-10-03
49812,10/03/2012,Completed - Dup,10/10/2012,12-01703750,Street Light - 1/Out,7524 S RIDGELAND AVE,60649.0,1189174.64992213,1855433.90202931,8.0,4.0,43.0,41.75836561043685,-87.58225211448713,"(41.75836561043685,-87.58225211448713)",2012-10-03
49813,10/03/2012,Completed - Dup,10/10/2012,12-01704850,Street Light - 1/Out,8016 S BRANDON AVE,60617.0,1198875.5131268,1852429.17060623,7.0,4.0,46.0,41.7498825100132,-87.546800746944,"(41.7498825100132,-87.54680074694402)",2012-10-03
49814,10/03/2012,Completed - Dup,10/10/2012,12-01705631,Street Light - 1/Out,3044 S CENTRAL PARK AVE,60623.0,1152850.13871503,1884191.43462889,22.0,10.0,30.0,41.838073599048855,-87.71462030998913,"(41.83807359904886,-87.71462030998912)",2012-10-03
49815,10/03/2012,Completed - Dup,10/10/2012,12-01705824,Street Light - 1/Out,406 N ABERDEEN ST,60642.0,1169065.80991413,1902937.31452688,27.0,13.0,24.0,41.88917787247698,-87.65457355293381,"(41.88917787247698,-87.65457355293381)",2012-10-03
49816,10/03/2012,Completed - Dup,10/10/2012,12-01707131,Street Light - 1/Out,11229 S FORRESTVILLE AVE,60628.0,1181928.06999945,1830617.25326735,9.0,5.0,50.0,41.690436274933326,-87.60957456842718,"(41.690436274933326,-87.60957456842718)",2012-10-03
49817,10/03/2012,Completed - Dup,10/10/2012,12-01707463,Street Light - 1/Out,8016 S BRANDON AVE,60617.0,1198875.5131268,1852429.17060623,7.0,4.0,46.0,41.7498825100132,-87.546800746944,"(41.7498825100132,-87.54680074694402)",2012-10-03
49818,10/03/2012,Completed - Dup,10/10/2012,12-01707893,Street Light - 1/Out,9400 S WOODLAWN AVE,60619.0,1185849.18592133,1842902.46292714,8.0,4.0,47.0,41.72405706625915,-87.59483360572544,"(41.72405706625915,-87.59483360572543)",2012-10-03
49819,10/03/2012,Completed - Dup,10/10/2012,12-01708075,Street Light - 1/Out,1628 S MICHIGAN AVE,60616.0,1177484.16010756,1892334.93003404,2.0,1.0,33.0,41.85989742588704,-87.62398010218462,"(41.85989742588704,-87.62398010218462)",2012-10-03
49820,10/03/2012,Completed - Dup,10/12/2012,12-01702553,Street Light - 1/Out,13200 S ESCANABA AVE,60633.0,1197439.74881259,1818027.9792221,10.0,4.0,55.0,41.65551824845174,-87.55320380476482,"(41.65551824845174,-87.55320380476483)",2012-10-03
49821,10/03/2012,Completed - Dup,10/12/2012,12-01702897,Street Light - 1/Out,7433 S DREXEL AVE,60619.0,1183518.38507608,1855917.19451126,8.0,3.0,69.0,41.759825458050564,-87.60296653467232,"(41.75982545805056,-87.60296653467232)",2012-10-03
49822,10/03/2012,Completed - Dup,10/12/2012,12-01702905,Street Light - 1/Out,11221 S SANGAMON ST,60643.0,1171995.83707555,1830449.80989949,34.0,22.0,75.0,41.69020003316226,-87.6459417601354,"(41.69020003316226,-87.6459417601354)",2012-10-03
49823,10/03/2012,Completed - Dup,10/12/2012,12-01703937,Street Light - 1/Out,1021 S LAFLIN ST,60607.0,1166536.83351404,1895612.55939864,2.0,12.0,28.0,41.86913268767096,-87.66407068934532,"(41.86913268767096,-87.66407068934532)",2012-10-03
49824,10/03/2012,Completed - Dup,10/12/2012,12-01707769,Street Light - 1/Out,1833 S LAWNDALE AVE,60623.0,1151988.49671736,1890877.22741073,24.0,10.0,29.0,41.85643722389988,-87.7176062073556,"(41.85643722389988,-87.71760620735559)",2012-10-03
49825,10/03/2012,Completed - Dup,10/15/2012,12-01702664,Street Light - 1/Out,2226 W 118TH ST,60643.0,1163542.4944791,1826417.5993659,19.0,22.0,75.0,41.67931586888303,-87.67700234338665,"(41.67931586888303,-87.67700234338666)",2012-10-03
49826,10/03/2012,Completed - Dup,10/15/2012,12-01702907,Street Light - 1/Out,8029 S HERMITAGE AVE,60620.0,1166075.97382639,1851449.90289781,21.0,6.0,71.0,41.747955178266324,-87.66701962302967,"(41.747955178266324,-87.66701962302967)",2012-10-03
49827,10/03/2012,Completed - Dup,10/15/2012,12-01703889,Street Light - 1/Out,8906 S MACKINAW AVE,60617.0,1199971.94191006,1846550.38969728,10.0,4.0,46.0,41.73372314703782,-87.54298091016695,"(41.73372314703782,-87.54298091016696)",2012-10-03
49828,10/03/2012,Completed - Dup,10/15/2012,12-01705294,Street Light - 1/Out,8145 S TALMAN AVE,60652.0,1160124.84912594,1850421.59997056,18.0,8.0,70.0,41.74525774800004,-87.68885479646356,"(41.74525774800004,-87.68885479646357)",2012-10-03
49829,10/03/2012,Completed - Dup,10/15/2012,12-01706358,Street Light - 1/Out,9318 S WINCHESTER AVE,60643.0,1164982.28067346,1842863.92976983,19.0,22.0,72.0,41.72441714141059,-87.6712693030834,"(41.72441714141059,-87.6712693030834)",2012-10-03
49830,10/03/2012,Completed - Dup,10/16/2012,12-01702660,Street Light - 1/Out,2638 N DRAKE AVE,60647.0,1152266.34473258,1917312.12146792,35.0,14.0,22.0,41.9289717524854,-87.71588810776741,"(41.9289717524854,-87.71588810776741)",2012-10-03
49831,10/03/2012,Completed - Dup,10/17/2012,12-01706463,Street Light - 1/Out,8000 S BURNHAM AVE,60617.0,1196228.12170728,1852464.41702105,7.0,4.0,46.0,41.75004522895146,-87.55650054325226,"(41.750045228951464,-87.55650054325227)",2012-10-03
49832,10/03/2012,Completed - Dup,10/18/2012,12-01702900,Street Light - 1/Out,12530 S STATE ST,60628.0,1178544.99243251,1821778.91810426,9.0,5.0,53.0,41.66625988599532,-87.62222715621013,"(41.666259885995316,-87.62222715621014)",2012-10-03
49833,10/03/2012,Completed - Dup,10/19/2012,12-01705929,Street Light - 1/Out,2312 N ASHLAND AVE,60614.0,1165262.99210735,1915519.48562047,32.0,18.0,7.0,41.923785900945134,-87.66818067311398,"(41.92378590094513,-87.66818067311397)",2012-10-03
49834,10/03/2012,Completed - Dup,10/19/2012,12-01707882,Street Light - 1/Out,1320 W 77TH ST,60620.0,1169218.06803172,1853717.9811749,17.0,6.0,71.0,41.754111745033214,-87.65544049286734,"(41.754111745033214,-87.65544049286733)",2012-10-03
49835,10/03/2012,Completed - Dup,10/23/2012,12-01707714,Street Light - 1/Out,7711 S EAST END AVE,60649.0,1188874.3089747,1854186.86128693,8.0,4.0,43.0,41.75495080948483,-87.58339266065725,"(41.754950809484825,-87.58339266065725)",2012-10-03
49836,10/03/2012,Completed - Dup,10/23/2012,12-01707734,Street Light - 1/Out,1759 W 94TH ST,60643.0,1166145.90191756,1842352.56820081,19.0,22.0,72.0,41.72298924880446,-87.66702146501059,"(41.72298924880446,-87.66702146501059)",2012-10-03
49837,10/03/2012,Completed - Dup,10/24/2012,12-01704875,Street Light - 1/Out,1800 S PEORIA ST,60608.0,1170866.20981401,1891612.30449359,25.0,12.0,31.0,41.85806195580617,-87.64829373548815,"(41.85806195580617,-87.64829373548815)",2012-10-03
49838,10/03/2012,Completed - Dup,11/01/2012,12-01707814,Street Light - 1/Out,11718 S LOWE AVE,60628.0,1174046.17459072,1827432.88183164,34.0,5.0,53.0,41.681875966986254,-87.63852449383768,"(41.681875966986254,-87.63852449383769)",2012-10-03
49839,10/03/2012,Completed - Dup,11/16/2012,12-01702892,Street Light - 1/Out,820 E 79TH ST,60619.0,1183151.01357401,1852805.79597898,6.0,6.0,69.0,41.75129601132455,-87.60440955150294,"(41.75129601132455,-87.60440955150294)",2012-10-03
49840,10/03/2012,Completed - Dup,11/21/2012,12-01707991,Street Light - 1/Out,400 W 101ST PL,60628.0,1175293.29133151,1837607.05001364,9.0,22.0,73.0,41.70976771267409,-87.63365681877502,"(41.70976771267409,-87.63365681877502)",2012-10-03
49841,10/03/2012,Completed,10/03/2012,12-01702672,Street Light - 1/Out,3216 W BERWYN AVE,60625.0,1153903.65738455,1935035.76699189,40.0,17.0,13.0,41.977574125885724,-87.70939730889141,"(41.97757412588573,-87.70939730889141)",2012-10-03
49842,10/03/2012,Completed,10/03/2012,12-01702792,Street Light - 1/Out,2917 N LARAMIE AVE,60641.0,1141201.54686635,1918980.51059767,31.0,25.0,19.0,41.93376143172189,-87.75650695543791,"(41.933761431721884,-87.75650695543791)",2012-10-03
49843,10/03/2012,Completed,10/03/2012,12-01703029,Street Light - 1/Out,5500 W AGATITE AVE,60630.0,1138875.35327114,1929046.00370674,45.0,16.0,15.0,41.961424761736076,-87.7648103843052,"(41.96142476173608,-87.76481038430522)",2012-10-03
49844,10/03/2012,Completed,10/03/2012,12-01704130,Street Light - 1/Out,200 W MADISON ST,60606.0,1174737.03080563,1900347.28937774,42.0,1.0,32.0,41.88194570316149,-87.6338242756812,"(41.881945703161485,-87.6338242756812)",2012-10-03
49845,10/03/2012,Completed,10/03/2012,12-01705282,Street Light - 1/Out,8145 S TALMAN AVE,60652.0,1160124.84912594,1850421.59997056,18.0,8.0,70.0,41.74525774800004,-87.68885479646356,"(41.74525774800004,-87.68885479646357)",2012-10-03
49846,10/03/2012,Completed,10/03/2012,12-01705392,Street Light - 1/Out,4715 S LECLAIRE AVE,60638.0,1143153.17063268,1872890.61209029,23.0,8.0,56.0,41.80724860044612,-87.7504848134013,"(41.807248600446115,-87.7504848134013)",2012-10-03
49847,10/03/2012,Completed,10/03/2012,12-01705616,Street Light - 1/Out,7445 S MERRILL AVE,60649.0,1191838.83701318,1856020.70637389,5.0,3.0,43.0,41.759911605182,-87.57246925129064,"(41.75991160518199,-87.57246925129064)",2012-10-03
49848,10/03/2012,Completed,10/03/2012,12-01705641,Street Light - 1/Out,5323 S COTTAGE GROVE AVE,60615.0,1182488.49211395,1869889.8100718998,5.0,2.0,41.0,41.79819154785301,-87.60630809528676,"(41.79819154785301,-87.60630809528676)",2012-10-03
49849,10/03/2012,Completed,10/03/2012,12-01707840,Street Light - 1/Out,10652 S LAWNDALE AVE,60655.0,1153566.97990623,1833708.34788786,19.0,22.0,74.0,41.69952584102602,-87.71332522989425,"(41.69952584102602,-87.71332522989427)",2012-10-03
49850,10/03/2012,Completed,10/04/2012,12-01705360,Street Light - 1/Out,10610 S HOMAN AVE,60655.0,1155557.83752627,1834011.90121024,19.0,22.0,74.0,41.700319287907995,-87.70602739269,"(41.70031928790799,-87.70602739269002)",2012-10-03
49851,10/03/2012,Completed,10/04/2012,12-01707653,Street Light - 1/Out,4424 S DR MARTIN LUTHER KING JR DR,60653.0,1179597.85647682,1875765.95969225,3.0,2.0,38.0,41.81438280812728,-87.6167288155996,"(41.81438280812728,-87.6167288155996)",2012-10-03
49852,10/03/2012,Completed,10/05/2012,12-01708036,Street Light - 1/Out,4825 N AUSTIN AVE,60630.0,1135258.82742008,1931550.30308334,38.0,16.0,15.0,41.96836187373021,-87.77804726292284,"(41.96836187373021,-87.77804726292284)",2012-10-03
49853,10/03/2012,Completed,10/09/2012,12-01702665,Street Light - 1/Out,5158 N SPAULDING AVE,60625.0,1153446.92767855,1934150.97393021,39.0,17.0,13.0,41.97515531926389,-87.71110056482006,"(41.975155319263884,-87.71110056482006)",2012-10-03
49854,10/03/2012,Completed,10/09/2012,12-01703079,Street Light - 1/Out,3347 S MAY ST,60608.0,1169196.27292197,1882648.42059178,11.0,9.0,60.0,41.833500655766464,-87.65468340934356,"(41.83350065576646,-87.65468340934356)",2012-10-03
49855,10/03/2012,Completed,10/09/2012,12-01704376,Street Light - 1/Out,268 W CERMAK RD,60616.0,1174792.96100597,1889748.64840354,25.0,9.0,34.0,41.852861071536225,-87.63393597780413,"(41.852861071536225,-87.63393597780413)",2012-10-03
49856,10/03/2012,Completed,10/09/2012,12-01704770,Street Light - 1/Out,3500 S ARCHER AVE,60609.0,1162926.66847074,1881456.54072268,11.0,9.0,59.0,41.83036362571804,-87.67772126762895,"(41.83036362571804,-87.67772126762895)",2012-10-03
49857,10/03/2012,Completed,10/09/2012,12-01707768,Street Light - 1/Out,5932 N CHRISTIANA AVE,60659.0,1152968.67987832,1939220.65020067,39.0,17.0,13.0,41.98907631174304,-87.71272417321778,"(41.98907631174304,-87.71272417321778)",2012-10-03
49858,10/03/2012,Completed,10/09/2012,12-01707830,Street Light - 1/Out,7014 W CORNELIA AVE,60634.0,1128798.85009485,1922461.85746641,36.0,16.0,17.0,41.943534601673775,-87.80200792249431,"(41.94353460167377,-87.80200792249431)",2012-10-03
49859,10/03/2012,Completed,10/09/2012,12-01707978,Street Light - 1/Out,5211 W SEMINOLE ST,60646.0,1140201.53608201,1937617.71241435,45.0,16.0,11.0,41.98492199717018,-87.7597235288217,"(41.98492199717019,-87.75972352882171)",2012-10-03
49860,10/03/2012,Completed,10/10/2012,12-01702653,Street Light - 1/Out,3614 W CORNELIA AVE,60618.0,1151600.97340065,1923020.94201624,35.0,17.0,21.0,41.9446503359991,-87.7181826222477,"(41.9446503359991,-87.7181826222477)",2012-10-03
49861,10/03/2012,Completed,10/10/2012,12-01702657,Street Light - 1/Out,3810 W CORNELIA AVE,60618.0,1150324.09919785,1922997.97701431,30.0,17.0,21.0,41.944612368053185,-87.7228765145809,"(41.94461236805319,-87.7228765145809)",2012-10-03
49862,10/03/2012,Completed,10/10/2012,12-01702669,Street Light - 1/Out,2800 W SHERWIN AVE,60645.0,1156448.58931876,1948617.96328977,50.0,24.0,2.0,42.014792997071865,-87.69966873081768,"(42.01479299707187,-87.69966873081769)",2012-10-03
49863,10/03/2012,Completed,10/10/2012,12-01702768,Street Light - 1/Out,10700 S LANGLEY AVE,60628.0,1182809.47617904,1834151.67990395,9.0,5.0,50.0,41.70011484450844,-87.60623849480787,"(41.70011484450844,-87.60623849480787)",2012-10-03
49864,10/03/2012,Completed,10/10/2012,12-01702902,Street Light - 1/Out,9200 S THROOP ST,60620.0,1169276.79953246,1843760.12069055,21.0,22.0,73.0,41.72678470900733,-87.65551268952277,"(41.726784709007326,-87.65551268952277)",2012-10-03
49865,10/03/2012,Completed,10/10/2012,12-01703924,Street Light - 1/Out,3142 N MONTICELLO AVE,60618.0,1151516.84009801,1920650.70039208,35.0,25.0,21.0,41.93814786424749,-87.71855434482505,"(41.93814786424749,-87.71855434482507)",2012-10-03
49866,10/03/2012,Completed,10/10/2012,12-01706349,Street Light - 1/Out,2456 W BERWYN AVE,60625.0,1158784.40581233,1935112.26592048,40.0,20.0,4.0,41.97768508751604,-87.69144632344154,"(41.97768508751604,-87.69144632344154)",2012-10-03
49867,10/03/2012,Completed,10/11/2012,12-01702656,Street Light - 1/Out,2116 N LECLAIRE AVE,60639.0,1142044.84309183,1913591.56009212,37.0,25.0,19.0,41.918957986236265,-87.75354174757116,"(41.918957986236265,-87.75354174757116)",2012-10-03
49868,10/03/2012,Completed,10/11/2012,12-01702765,Street Light - 1/Out,335 W PERSHING RD,60609.0,1174699.34000348,1879086.59849682,3.0,9.0,37.0,41.82360563144655,-87.63459793835243,"(41.82360563144655,-87.63459793835244)",2012-10-03
49869,10/03/2012,Completed,10/11/2012,12-01704420,Street Light - 1/Out,5710 S MENARD AVE,60638.0,1138684.83738186,1866133.1190317,23.0,8.0,56.0,41.78878687071948,-87.76703692105914,"(41.78878687071948,-87.76703692105916)",2012-10-03
49870,10/03/2012,Completed,10/11/2012,12-01708037,Street Light - 1/Out,5956 W BERTEAU AVE,60634.0,1135805.53452562,1927308.30998173,38.0,16.0,15.0,41.95671169565692,-87.77613844430225,"(41.95671169565692,-87.77613844430225)",2012-10-03
49871,10/03/2012,Completed,10/12/2012,12-01707729,Street Light - 1/Out,10833 S TALMAN AVE,60655.0,1160638.11557305,1832691.20216925,19.0,22.0,75.0,41.696592005920074,-87.6874614936364,"(41.696592005920074,-87.6874614936364)",2012-10-03
49872,10/03/2012,Completed,10/12/2012,12-01707852,Street Light - 1/Out,7339 N CALIFORNIA AVE,60645.0,1156448.88931876,1948652.56328977,50.0,24.0,2.0,42.014887934521,-87.69966668444869,"(42.014887934521,-87.69966668444869)",2012-10-03
49873,10/03/2012,Completed,10/15/2012,12-01702822,Street Light - 1/Out,9929 S CHARLES ST,60643.0,1167742.46417777,1838798.83151597,19.0,22.0,72.0,41.713203187518,-87.66127501596995,"(41.713203187518,-87.66127501596995)",2012-10-03
49874,10/03/2012,Completed,10/15/2012,12-01702890,Street Light - 1/Out,7900 S PERRY AVE,60620.0,1176978.34209771,1852614.01079513,17.0,6.0,44.0,41.75091100808071,-87.62703497583173,"(41.750911008080706,-87.62703497583173)",2012-10-03
49875,10/03/2012,Completed,10/18/2012,12-01703799,Street Light - 1/Out,11315 S EMERALD AVE,60628.0,1173338.32372848,1829825.93169924,34.0,22.0,49.0,41.688458511130314,-87.64104522985343,"(41.68845851113031,-87.64104522985343)",2012-10-03
49876,10/03/2012,Completed,10/18/2012,12-01705099,Street Light - 1/Out,716 S ADA ST,60607.0,1167571.79997676,1897096.29118487,25.0,12.0,28.0,41.873181961737316,-87.66022836781828,"(41.87318196173731,-87.66022836781828)",2012-10-03
49877,10/03/2012,Completed,10/19/2012,12-01705918,Street Light - 1/Out,2360 N CLYBOURN AVE,60614.0,1165118.10352886,1915852.52367683,32.0,18.0,7.0,41.924702860006434,-87.66870356317837,"(41.92470286000644,-87.66870356317838)",2012-10-03
49878,10/03/2012,Completed,10/22/2012,12-01705304,Street Light - 1/Out,1920 W PATTERSON AVE,60613.0,1162892.48219171,1924256.48981208,47.0,19.0,5.0,41.947810878873504,-87.67664491539514,"(41.9478108788735,-87.67664491539514)",2012-10-03
49879,10/03/2012,Completed,10/22/2012,12-01706000,Street Light - 1/Out,130 W ERIE ST,60654.0,1175110.47366775,1904748.99789245,42.0,18.0,8.0,41.89401587817992,-87.63232097172987,"(41.894015878179914,-87.63232097172987)",2012-10-03
49880,10/03/2012,Completed,10/23/2012,12-01702663,Street Light - 1/Out,865 W ALDINE AVE,60657.0,1169745.10709534,1922110.72482699,44.0,19.0,6.0,41.94177597997457,-87.65151914782179,"(41.94177597997457,-87.65151914782179)",2012-10-03
49881,10/03/2012,Completed,10/23/2012,12-01705942,Street Light - 1/Out,1560 N ASHLAND AVE,60622.0,1165438.21003262,1910551.50997654,1.0,14.0,24.0,41.910149733731274,-87.66767854066762,"(41.91014973373127,-87.66767854066762)",2012-10-03
49882,10/03/2012,Completed,10/24/2012,12-01703778,Street Light - 1/Out,5500 S THROOP ST,60636.0,1168599.20000725,1868162.37303149,16.0,7.0,67.0,41.793762326731894,-87.6572923338813,"(41.7937623267319,-87.6572923338813)",2012-10-03
49883,10/03/2012,Completed,11/01/2012,12-01706381,Street Light - 1/Out,27 E 26TH ST,60616.0,1177024.25886974,1887122.80739041,2.0,1.0,35.0,41.84560541480487,-87.62582589064161,"(41.845605414804865,-87.62582589064161)",2012-10-03
49884,10/03/2012,Completed,11/21/2012,12-01707989,Street Light - 1/Out,10132 S NORMAL AVE,60628.0,1174756.74482509,1837588.16011491,9.0,22.0,73.0,41.70972782298385,-87.63562228546856,"(41.70972782298385,-87.63562228546856)",2012-10-03
49885,10/03/2012,Completed,12/11/2012,12-01707804,Street Light - 1/Out,3006 W TAYLOR ST,60612.0,1156473.49119591,1895556.01596714,28.0,11.0,27.0,41.86918688284469,-87.70101735374935,"(41.869186882844694,-87.70101735374935)",2012-10-03
50123,10/04/2012,Completed - Dup,10/04/2012,12-01708279,Street Light - 1/Out,139 E 119TH PL,60628.0,1179277.60971621,1825757.99811072,9.0,5.0,53.0,41.6771624678061,-87.61942538637823,"(41.6771624678061,-87.61942538637824)",2012-10-04
50124,10/04/2012,Completed - Dup,10/04/2012,12-01708280,Street Light - 1/Out,3625 W 26TH ST,60623.0,1152535.71656852,1886484.25260785,22.0,10.0,30.0,41.84437158680758,-87.71571358125355,"(41.844371586807576,-87.71571358125354)",2012-10-04
50125,10/04/2012,Completed - Dup,10/04/2012,12-01708283,Street Light - 1/Out,5100 S KEDZIE AVE,60632.0,1155907.45941657,1870638.18219362,14.0,8.0,63.0,41.80082074774668,-87.70376588348864,"(41.80082074774668,-87.70376588348864)",2012-10-04
50126,10/04/2012,Completed - Dup,10/04/2012,12-01708284,Street Light - 1/Out,6611 S WOOD ST,60636.0,1165479.4459183,1860845.13250064,15.0,7.0,67.0,41.77374964214359,-87.66893960128809,"(41.773749642143585,-87.6689396012881)",2012-10-04
50127,10/04/2012,Completed - Dup,10/04/2012,12-01708286,Street Light - 1/Out,10816 S AVENUE H,60617.0,1202851.49269785,1833848.20239024,10.0,4.0,52.0,41.69879433583813,-87.53286456418135,"(41.69879433583813,-87.53286456418135)",2012-10-04
50128,10/04/2012,Completed - Dup,10/04/2012,12-01708337,Street Light - 1/Out,2200 W IOWA ST,60622.0,1161574.75209414,1905965.74521258,32.0,13.0,24.0,41.89764744196377,-87.681999245465,"(41.897647441963784,-87.681999245465)",2012-10-04
50129,10/04/2012,Completed - Dup,10/04/2012,12-01708339,Street Light - 1/Out,4333 N RIDGEWAY AVE,60618.0,1150613.26520237,1928538.18579719,39.0,17.0,16.0,41.95980945814603,-87.72166831845628,"(41.95980945814603,-87.7216683184563)",2012-10-04
50130,10/04/2012,Completed - Dup,10/04/2012,12-01708340,Street Light - 1/Out,4100 W TAYLOR ST,60624.0,1149201.35123145,1895457.80888026,24.0,11.0,26.0,41.86906128199131,-87.72771797977707,"(41.86906128199131,-87.72771797977707)",2012-10-04
50131,10/04/2012,Completed - Dup,10/04/2012,12-01708342,Street Light - 1/Out,910 N LOREL AVE,60651.0,1140507.12551463,1905546.72162794,37.0,15.0,25.0,41.89691041752479,-87.7593893416073,"(41.89691041752479,-87.7593893416073)",2012-10-04
50132,10/04/2012,Completed - Dup,10/04/2012,12-01708345,Street Light - 1/Out,5500 W CORTLAND ST,60639.0,1139432.17991066,1911909.9426871997,37.0,25.0,25.0,41.91439150867265,-87.76318216714273,"(41.91439150867265,-87.76318216714274)",2012-10-04
50133,10/04/2012,Completed - Dup,10/04/2012,12-01708347,Street Light - 1/Out,1100 N MASSASOIT AVE,60651.0,1137819.61159937,1906752.28262439,29.0,15.0,25.0,41.90026753698991,-87.76923119922192,"(41.90026753698991,-87.76923119922192)",2012-10-04
50134,10/04/2012,Completed - Dup,10/04/2012,12-01709902,Street Light - 1/Out,13500 S BUFFALO AVE,60633.0,1200105.74067808,1816049.78512499,10.0,4.0,55.0,41.65002323504822,-87.54351529196623,"(41.65002323504822,-87.54351529196624)",2012-10-04
50135,10/04/2012,Completed - Dup,10/04/2012,12-01711789,Street Light - 1/Out,12315 S WENTWORTH AVE,60628.0,1177163.96612028,1823279.92370494,9.0,5.0,53.0,41.67041004233739,-87.62723623776286,"(41.67041004233739,-87.62723623776284)",2012-10-04
50136,10/04/2012,Completed - Dup,10/04/2012,12-01712390,Street Light - 1/Out,9146 S INDIANA AVE,60619.0,1179197.44000981,1844381.7799757,6.0,6.0,49.0,41.728270506546565,-87.6191535226686,"(41.72827050654656,-87.6191535226686)",2012-10-04
50137,10/04/2012,Completed - Dup,10/04/2012,12-01712712,Street Light - 1/Out,111 N KOSTNER AVE,60624.0,1147043.04570959,1900184.99959679,28.0,11.0,26.0,41.88207476365407,-87.73552085716759,"(41.88207476365407,-87.7355208571676)",2012-10-04
50138,10/04/2012,Completed - Dup,10/04/2012,12-01712855,Street Light - 1/Out,1800 S LAFLIN ST,60608.0,1166652.67658623,1891496.28522656,25.0,12.0,31.0,41.857834798188364,-87.66376326246531,"(41.85783479818837,-87.66376326246532)",2012-10-04
50139,10/04/2012,Completed - Dup,10/04/2012,12-01713011,Street Light - 1/Out,5602 S WABASH AVE,60637.0,1177669.87716734,1867898.17251772,20.0,2.0,40.0,41.792836779569924,-87.62403895561772,"(41.792836779569924,-87.62403895561772)",2012-10-04
50140,10/04/2012,Completed - Dup,10/04/2012,12-01713029,Street Light - 1/Out,1829 S LAFLIN ST,60608.0,1166662.35466644,1891177.90022044,25.0,12.0,31.0,41.85696091430656,-87.6637368521241,"(41.85696091430656,-87.6637368521241)",2012-10-04
50141,10/04/2012,Completed - Dup,10/05/2012,12-01708285,Street Light - 1/Out,7015 S LOWE AVE,60621.0,1173179.54182883,1858372.0444125999,6.0,7.0,68.0,41.76679649198368,-87.64078571735676,"(41.76679649198369,-87.64078571735676)",2012-10-04
50142,10/04/2012,Completed - Dup,10/06/2012,12-01712728,Street Light - 1/Out,3333 S MAY ST,60608.0,1169193.97292197,1882730.62059178,11.0,9.0,60.0,41.83372627025649,-87.65468946568791,"(41.83372627025649,-87.65468946568791)",2012-10-04
50143,10/04/2012,Completed - Dup,10/09/2012,12-01710146,Street Light - 1/Out,5820 W BERENICE AVE,60634.0,1136867.95938492,1925002.55930213,38.0,16.0,15.0,41.9503654658004,-87.77228810555846,"(41.950365465800395,-87.77228810555846)",2012-10-04
50144,10/04/2012,Completed - Dup,10/09/2012,12-01712582,Street Light - 1/Out,855 W 51ST PL,60609.0,1171475.853603,1870696.23822913,3.0,9.0,61.0,41.80065296580464,-87.64666964232613,"(41.80065296580464,-87.64666964232612)",2012-10-04
50145,10/04/2012,Completed - Dup,10/09/2012,12-01712730,Street Light - 1/Out,7618 S HERMITAGE AVE,60620.0,1166003.16103143,1854176.36376846,17.0,6.0,71.0,41.75543851983589,-87.6672090836018,"(41.755438519835884,-87.66720908360179)",2012-10-04
50146,10/04/2012,Completed - Dup,10/09/2012,12-01712745,Street Light - 1/Out,5653 S ROCKWELL ST,60629.0,1160002.84743174,1867082.2697658,16.0,8.0,63.0,41.79097955949486,-87.68884439548685,"(41.79097955949486,-87.68884439548684)",2012-10-04
50147,10/04/2012,Completed - Dup,10/09/2012,12-01712948,Street Light - 1/Out,9817 S HOXIE AVE,60617.0,1195081.69248915,1840386.9200888001,7.0,4.0,51.0,41.71693186296943,-87.5610985617921,"(41.71693186296943,-87.56109856179208)",2012-10-04
50148,10/04/2012,Completed - Dup,10/09/2012,12-01713061,Street Light - 1/Out,200 N LA CROSSE AVE,60644.0,1144007.07426575,1901024.24370699,28.0,15.0,25.0,41.88443524218005,-87.74664798609648,"(41.88443524218005,-87.74664798609648)",2012-10-04
50149,10/04/2012,Completed - Dup,10/09/2012,12-01713084,Street Light - 1/Out,8529 S SANGAMON ST,60620.0,1171468.17242051,1848273.45840118,21.0,6.0,71.0,41.73912230442424,-87.64735367454544,"(41.73912230442424,-87.64735367454543)",2012-10-04
50150,10/04/2012,Completed - Dup,10/09/2012,12-01713112,Street Light - 1/Out,200 N LA CROSSE AVE,60644.0,1144007.07426575,1901024.24370699,28.0,15.0,25.0,41.88443524218005,-87.74664798609648,"(41.88443524218005,-87.74664798609648)",2012-10-04
50151,10/04/2012,Completed - Dup,10/10/2012,12-01709187,Street Light - 1/Out,2801 S SPRINGFIELD AVE,60623.0,1150830.1518977,1885092.40138248,22.0,10.0,30.0,41.840585656988566,-87.72200912845543,"(41.84058565698857,-87.72200912845544)",2012-10-04
50152,10/04/2012,Completed - Dup,10/10/2012,12-01711459,Street Light - 1/Out,1555 W CULLERTON ST,60608.0,1166319.32502244,1890493.211875,25.0,12.0,31.0,41.85508940156897,-87.66501551873735,"(41.85508940156897,-87.66501551873736)",2012-10-04
50153,10/04/2012,Completed - Dup,10/10/2012,12-01712216,Street Light - 1/Out,11229 S FORRESTVILLE AVE,60628.0,1181928.06999945,1830617.25326735,9.0,5.0,50.0,41.690436274933326,-87.60957456842718,"(41.690436274933326,-87.60957456842718)",2012-10-04
50154,10/04/2012,Completed - Dup,10/10/2012,12-01712864,Street Light - 1/Out,10137 S YATES AVE,60617.0,1194157.74121064,1838228.58917293,10.0,4.0,51.0,41.711031883246925,-87.56455309984308,"(41.71103188324692,-87.56455309984308)",2012-10-04
50155,10/04/2012,Completed - Dup,10/10/2012,12-01712944,Street Light - 1/Out,4913 S KNOX AVE,60632.0,1146188.50130117,1871647.40322241,23.0,8.0,56.0,41.803780017945634,-87.73938346123394,"(41.803780017945634,-87.73938346123393)",2012-10-04
50156,10/04/2012,Completed - Dup,10/10/2012,12-01713121,Street Light - 1/Out,11500 S OAKLEY AVE,60643.0,1162946.79987977,1828280.54346644,19.0,22.0,75.0,41.684440557494284,-87.67913106904902,"(41.684440557494284,-87.67913106904902)",2012-10-04
50157,10/04/2012,Completed - Dup,10/10/2012,12-01713140,Street Light - 1/Out,9331 S LEAVITT ST,60643.0,1163334.88650699,1842702.70650505,19.0,22.0,72.0,41.72400932875996,-87.67730820554087,"(41.72400932875996,-87.67730820554088)",2012-10-04
50158,10/04/2012,Completed - Dup,10/11/2012,12-01708293,Street Light - 1/Out,6611 S WOOD ST,60636.0,1165479.4459183,1860845.13250064,15.0,7.0,67.0,41.77374964214359,-87.66893960128809,"(41.773749642143585,-87.6689396012881)",2012-10-04
50159,10/04/2012,Completed - Dup,10/11/2012,12-01712321,Street Light - 1/Out,8631 S DREXEL AVE,60619.0,1183732.63562117,1847941.12841327,8.0,6.0,44.0,41.737933301554754,-87.60242963297947,"(41.73793330155475,-87.60242963297947)",2012-10-04
50160,10/04/2012,Completed - Dup,10/11/2012,12-01712515,Street Light - 1/Out,2618 S WALLACE ST,60616.0,1172733.87322732,1886949.92182792,11.0,9.0,60.0,41.84522691426485,-87.64157617341637,"(41.84522691426485,-87.64157617341637)",2012-10-04
50161,10/04/2012,Completed - Dup,10/15/2012,12-01708297,Street Light - 1/Out,139 E 119TH PL,60628.0,1179277.60971621,1825757.99811072,9.0,5.0,53.0,41.6771624678061,-87.61942538637823,"(41.6771624678061,-87.61942538637824)",2012-10-04
50162,10/04/2012,Completed - Dup,10/15/2012,12-01708525,Street Light - 1/Out,7937 S YALE AVE,60620.0,1175994.97002512,1852333.66133018,17.0,6.0,44.0,41.75016379070564,-87.63064690254559,"(41.750163790705635,-87.63064690254558)",2012-10-04
50163,10/04/2012,Completed - Dup,10/15/2012,12-01710578,Street Light - 1/Out,1521 E 65TH ST,60637.0,1187534.95007704,1862194.9651759998,5.0,3.0,42.0,41.77695768417953,-87.58804667533991,"(41.776957684179536,-87.5880466753399)",2012-10-04
50164,10/04/2012,Completed - Dup,10/15/2012,12-01712825,Street Light - 1/Out,8138 S TALMAN AVE,60652.0,1160123.84912594,1850455.29997056,18.0,8.0,70.0,41.74535024662643,-87.68885753581337,"(41.74535024662643,-87.68885753581338)",2012-10-04
50165,10/04/2012,Completed - Dup,10/15/2012,12-01713114,Street Light - 1/Out,139 E 119TH PL,60628.0,1179277.60971621,1825757.99811072,9.0,5.0,53.0,41.6771624678061,-87.61942538637823,"(41.6771624678061,-87.61942538637824)",2012-10-04
50166,10/04/2012,Completed - Dup,10/16/2012,12-01708121,Street Light - 1/Out,1669 N MILWAUKEE AVE,60647.0,1162218.79282537,1911087.69331212,32.0,14.0,24.0,41.911689010475115,-87.67949036855316,"(41.91168901047512,-87.67949036855315)",2012-10-04
50167,10/04/2012,Completed - Dup,10/18/2012,12-01709263,Street Light - 1/Out,7550 S EGGLESTON AVE,60620.0,1174592.31168475,1855198.85869448,17.0,6.0,69.0,41.75805756310971,-87.63570170911724,"(41.75805756310971,-87.63570170911724)",2012-10-04
50168,10/04/2012,Completed - Dup,10/19/2012,12-01712601,Street Light - 1/Out,2707 W 22ND PL,60608.0,1158667.9294088,1888951.19599716,28.0,10.0,30.0,41.85101793238379,-87.69314179472794,"(41.85101793238379,-87.69314179472794)",2012-10-04
50169,10/04/2012,Completed - Dup,10/22/2012,12-01709635,Street Light - 1/Out,1912 W PATTERSON AVE,60613.0,1162945.68219171,1924257.88981208,47.0,19.0,5.0,41.94781360189328,-87.67644932556938,"(41.94781360189328,-87.67644932556938)",2012-10-04
50170,10/04/2012,Completed - Dup,10/24/2012,12-01709756,Street Light - 1/Out,405 N WABASH AVE,60611.0,1176655.25626856,1903090.7674003998,42.0,18.0,8.0,41.88943083488131,-87.62669770222256,"(41.88943083488131,-87.62669770222256)",2012-10-04
50171,10/04/2012,Completed - Dup,10/24/2012,12-01710737,Street Light - 1/Out,1816 S PEORIA ST,60608.0,1170872.83037931,1891429.50999077,25.0,12.0,31.0,41.85756020812144,-87.6482747875617,"(41.85756020812144,-87.6482747875617)",2012-10-04
