Creation Date,Status,Completion Date,Service Request Number,Type of Service Request,Location of Trees,Street Address,ZIP Code,X Coordinate,Y Coordinate,Ward,Police District,Community Area,Latitude,Longitude,Location,date
10/01/2012,Completed - Dup,01/07/2013,12-01694392,Tree Trim,Parkway,7418 S WABASH AVE,60619.0,1178004.69612018,1855844.46639547,6.0,3.0,69.0,41.75975256617612,-87.62317622054421,"(41.75975256617612, -87.6231762205442)",2012-10-01
10/01/2012,Completed - Dup,01/08/2013,12-01696149,Tree Trim,Alley,5713 N RICHMOND ST,60659.0,1155659.6612336999,1937812.80328085,40.0,20.0,2.0,41.985159175553825,-87.7028644512298,"(41.98515917555383, -87.70286445122979)",2012-10-01
10/01/2012,Completed - Dup,01/16/2013,12-01694200,Tree Trim,Parkway,8027 S CHAPPEL AVE,60617.0,1191257.98933322,1852151.53309105,8.0,4.0,46.0,41.749308343209314,-87.57472305872544,"(41.74930834320931, -87.57472305872544)",2012-10-01
10/01/2012,Completed - Dup,01/18/2013,12-01693377,Tree Trim,Vacant Lot,8811 S OGLESBY AVE,60617.0,1193377.90471371,1847024.78341485,8.0,4.0,48.0,41.73518854912634,-87.56712226331236,"(41.73518854912634, -87.56712226331236)",2012-10-01
10/01/2012,Completed - Dup,01/28/2013,12-01695706,Tree Trim,Parkway,5347 W THOMAS ST,60651.0,1140382.77440795,1906809.49307271,37.0,15.0,25.0,41.90037789470218,-87.75981506554281,"(41.90037789470218, -87.75981506554281)",2012-10-01
10/01/2012,Completed - Dup,02/08/2013,12-01694361,Tree Trim,Parkway,1738 N NORTH PARK AVE,60614.0,1173844.92622142,1912013.23251363,43.0,18.0,7.0,41.913977589393504,-87.63675223351093,"(41.9139775893935, -87.63675223351093)",2012-10-01
10/01/2012,Completed - Dup,02/15/2013,12-01693254,Tree Trim,,5159 N KEATING AVE,60630.0,1143699.44006996,1933895.8764924,39.0,17.0,14.0,41.97464400004264,-87.74695213988696,"(41.97464400004264, -87.74695213988696)",2012-10-01
10/01/2012,Completed - Dup,02/18/2013,12-01694098,Tree Trim,Parkway,1059 N LONG AVE,60651.0,1140112.40350533,1906610.48007303,37.0,15.0,25.0,41.89983673496217,-87.76081304196924,"(41.89983673496217, -87.76081304196924)",2012-10-01
10/01/2012,Completed - Dup,02/27/2013,12-01693179,Tree Trim,Parkway,3621 N SACRAMENTO AVE,60618.0,1155742.21057634,1923922.27489017,33.0,17.0,16.0,41.94704109146732,-87.70293672668707,"(41.94704109146732, -87.70293672668708)",2012-10-01
10/01/2012,Completed - Dup,02/28/2013,12-01693024,Tree Trim,Parkway,6500 S CARPENTER ST,60621.0,1170430.76743261,1861712.04791438,17.0,7.0,68.0,41.77602216381893,-87.65076387881041,"(41.77602216381893, -87.65076387881041)",2012-10-01
10/01/2012,Completed - Dup,03/05/2013,12-01695044,Tree Trim,Parkway,5201 S CAMPBELL AVE,60632.0,1160584.00839087,1870107.74199651,14.0,9.0,63.0,41.799269877947175,-87.6866299415835,"(41.799269877947175, -87.6866299415835)",2012-10-01
10/01/2012,Completed - Dup,03/05/2013,12-01695878,Tree Trim,Vacant Lot,507 W 60TH PL,60621.0,1173959.08728686,1864791.54150924,20.0,7.0,68.0,41.784395060133036,-87.63773806484836,"(41.78439506013303, -87.63773806484838)",2012-10-01
10/01/2012,Completed - Dup,03/18/2013,12-01696259,Tree Trim,Parkway,7740 S MORGAN ST,60620.0,1170985.71119987,1853499.80193114,17.0,6.0,71.0,41.75347463018871,-87.64896902855914,"(41.75347463018871, -87.64896902855912)",2012-10-01
10/01/2012,Completed - Dup,10/04/2012,12-01692493,Tree Trim,Parkway,3001 N ODELL AVE,60707.0,1126566.44001992,1919141.09879908,36.0,25.0,17.0,41.934459710197316,-87.81028784232961,"(41.93445971019732, -87.81028784232963)",2012-10-01
10/01/2012,Completed - Dup,10/04/2012,12-01695721,Tree Trim,Parkway,3407 N NORMANDY AVE,60634.0,1131142.52636649,1921914.69403051,36.0,16.0,17.0,41.941992935404336,-87.79340618907239,"(41.941992935404336, -87.79340618907237)",2012-10-01
10/01/2012,Completed - Dup,10/10/2012,12-01692304,Tree Trim,Parkway,2424 W BYRON ST,60618.0,1159521.70706991,1925827.45670735,47.0,19.0,5.0,41.95219190317831,-87.68899168254265,"(41.95219190317831, -87.68899168254264)",2012-10-01
10/01/2012,Completed - Dup,10/11/2012,12-01693410,Tree Trim,Parkway,1261 W ARGYLE ST,60640.0,1166898.59996664,1933337.46031252,46.0,20.0,3.0,41.972644242347094,-87.66165777917902,"(41.97264424234709, -87.66165777917901)",2012-10-01
10/01/2012,Completed - Dup,10/31/2012,12-01695365,Tree Trim,Parkway,1006 N LAVERGNE AVE,60651.0,1142842.50168013,1906250.70612496,37.0,15.0,25.0,41.89879904083392,-87.75079420036931,"(41.898799040833914, -87.75079420036931)",2012-10-01
10/01/2012,Completed - Dup,11/09/2012,12-01692034,Tree Trim,Parkway,10401 S HOYNE AVE,60643.0,1164206.43927097,1835652.80327573,19.0,22.0,72.0,41.70464497219576,-87.6743133840063,"(41.70464497219576, -87.67431338400628)",2012-10-01
10/01/2012,Completed - Dup,11/09/2012,12-01692095,Tree Trim,Parkway,10401 S HOYNE AVE,60643.0,1164206.43927097,1835652.80327573,19.0,22.0,72.0,41.70464497219576,-87.6743133840063,"(41.70464497219576, -87.67431338400628)",2012-10-01
10/01/2012,Completed - Dup,11/19/2012,12-01694452,Tree Trim,Parkway,2869 W DICKENS AVE,60647.0,1156780.38648043,1913920.22931519,35.0,14.0,22.0,41.91957374286427,-87.69939251757806,"(41.91957374286427, -87.69939251757806)",2012-10-01
10/01/2012,Completed - Dup,11/20/2012,12-01694902,Tree Trim,Parkway,11328 S MORGAN ST,60643.0,1171685.79011675,1829547.09998118,34.0,22.0,75.0,41.687729636269715,-87.64710317967855,"(41.68772963626971, -87.64710317967855)",2012-10-01
10/01/2012,Completed - Dup,11/27/2012,12-01693279,Tree Trim,,1850 S SANGAMON ST,60608.0,1170425.08718715,1891271.82942615,25.0,12.0,31.0,41.85713731113562,-87.64992286540975,"(41.857137311135624, -87.64992286540975)",2012-10-01
10/01/2012,Completed - Dup,12/04/2012,12-01693771,Tree Trim,,2242 N KEELER AVE,60639.0,1148014.65791184,1914573.96407539,31.0,25.0,20.0,41.92154094877896,-87.7315824493925,"(41.92154094877896, -87.73158244939252)",2012-10-01
10/01/2012,Completed - Dup,12/04/2012,12-01694101,Tree Trim,Parkway,10136 S NORMAL AVE,60628.0,1174757.24482509,1837569.06011491,9.0,22.0,73.0,41.709675398723185,-87.6356210211594,"(41.709675398723185, -87.63562102115941)",2012-10-01
10/01/2012,Completed - Dup,12/11/2012,12-01692296,Tree Trim,,5019 N HERMITAGE AVE,60640.0,1163889.62007103,1933458.1776041,47.0,20.0,3.0,41.97303969812813,-87.67271892139576,"(41.97303969812813, -87.67271892139576)",2012-10-01
10/01/2012,Completed - Dup,12/11/2012,12-01695099,Tree Trim,Parkway,5900 N KOLMAR AVE,60646.0,1145022.90981653,1938813.99141051,39.0,17.0,12.0,41.98811469374883,-87.74196041525248,"(41.98811469374883, -87.74196041525248)",2012-10-01
10/01/2012,Completed - Dup,12/14/2012,12-01692072,Tree Trim,Parkway,2143 W CUYLER AVE,60618.0,1161343.17772707,1926882.5562178001,47.0,19.0,5.0,41.95504937883346,-87.68226646107205,"(41.95504937883346, -87.68226646107205)",2012-10-01
10/01/2012,Completed - Dup,12/20/2012,12-01692626,Tree Trim,Parkway,2539 S NORMAL AVE,60616.0,1173166.28988655,1887317.74241427,11.0,9.0,60.0,41.84622667501309,-87.63997836925984,"(41.846226675013085, -87.63997836925985)",2012-10-01
10/01/2012,Completed,01/09/2013,12-01695954,Tree Trim,Vacant Lot,2250 W JACKSON BLVD,60612.0,1161350.90012382,1898653.5952179001,2.0,12.0,28.0,41.87758694096951,-87.6830249593667,"(41.87758694096951, -87.6830249593667)",2012-10-01
10/01/2012,Completed,01/10/2013,12-01692281,Tree Trim,Parkway,3443 N WESTERN AVE,60618.0,1159766.26170342,1922803.4088897998,32.0,19.0,5.0,41.943888688994655,-87.68817637090432,"(41.94388868899466, -87.68817637090432)",2012-10-01
10/01/2012,Completed,01/10/2013,12-01693072,Tree Trim,Parkway,2225 N JANSSEN AVE,60614.0,1166388.91007942,1914901.8477154998,32.0,18.0,7.0,41.922067026848076,-87.66406134465488,"(41.922067026848076, -87.66406134465487)",2012-10-01
10/01/2012,Completed,01/11/2013,12-01693633,Tree Trim,Parkway,1711 W CARMEN AVE,60640.0,1163986.87530982,1933919.89299605,47.0,20.0,3.0,41.97430460420546,-87.67234819385601,"(41.97430460420546, -87.67234819385602)",2012-10-01
10/01/2012,Completed,01/11/2013,12-01693642,Tree Trim,Parkway,1709 W CARMEN AVE,60640.0,1163999.27530982,1933920.19299605,47.0,20.0,3.0,41.97430516486818,-87.67230258708393,"(41.97430516486817, -87.67230258708393)",2012-10-01
10/01/2012,Completed,01/17/2013,12-01695410,Tree Trim,Vacant Lot,736 S KOSTNER AVE,60624.0,1147170.27639786,1896297.64482902,24.0,11.0,26.0,41.871404972213185,-87.73515314699107,"(41.87140497221319, -87.73515314699107)",2012-10-01
10/01/2012,Completed,01/18/2013,12-01692481,Tree Trim,Vacant Lot,5220 W ADAMS ST,60644.0,1141603.95007764,1898832.17189081,29.0,15.0,25.0,41.878464666388496,-87.7555268802364,"(41.878464666388496, -87.75552688023639)",2012-10-01
10/01/2012,Completed,01/18/2013,12-01693364,Tree Trim,Parkway,8811 S OGLESBY AVE,60617.0,1193377.90471371,1847024.78341485,8.0,4.0,48.0,41.73518854912634,-87.56712226331236,"(41.73518854912634, -87.56712226331236)",2012-10-01
10/01/2012,Completed,01/18/2013,12-01693700,Tree Trim,Parkway,8833 S CRANDON AVE,60617.0,1193036.26709652,1846852.35901049,8.0,4.0,48.0,41.73472374033757,-87.56837947555485,"(41.73472374033757, -87.56837947555485)",2012-10-01
10/01/2012,Completed,02/06/2013,12-01695590,Tree Trim,Parkway,8629 S ADA ST,60620.0,1168835.08649246,1847540.59570871,21.0,6.0,71.0,41.73716841499128,-87.65702192251842,"(41.73716841499128, -87.65702192251842)",2012-10-01
10/01/2012,Completed,02/07/2013,12-01692615,Tree Trim,Parkway,11 W ILLINOIS ST,60654.0,1176185.3168668002,1903607.12050916,42.0,18.0,8.0,41.89085834174365,-87.62840791686213,"(41.89085834174366, -87.62840791686212)",2012-10-01
10/01/2012,Completed,02/13/2013,12-01695364,Tree Trim,Parkway,1006 N LAVERGNE AVE,60651.0,1142842.50168013,1906250.70612496,37.0,15.0,25.0,41.89879904083392,-87.75079420036931,"(41.898799040833914, -87.75079420036931)",2012-10-01
10/01/2012,Completed,02/13/2013,12-01695371,Tree Trim,Parkway,1004 N LAVERGNE AVE,60651.0,1142843.00168013,1906230.50612496,37.0,15.0,25.0,41.89874360039957,-87.750792867658,"(41.89874360039957, -87.750792867658)",2012-10-01
10/01/2012,Completed,02/13/2013,12-01695373,Tree Trim,Parkway,1000 N LAVERGNE AVE,60651.0,1142843.90168013,1906190.00612496,37.0,15.0,25.0,41.89863244698109,-87.75079057203358,"(41.89863244698109, -87.75079057203358)",2012-10-01
10/01/2012,Completed,02/26/2013,12-01692864,Tree Trim,Parkway,5143 S CORNELL AVE,60615.0,1187905.40997938,1871279.50001829,4.0,2.0,41.0,41.801877517441326,-87.58639926507271,"(41.80187751744133, -87.58639926507271)",2012-10-01
10/01/2012,Completed,02/26/2013,12-01693742,Tree Trim,Parkway,9901 S LEAVITT ST,60643.0,1163447.5407838002,1838950.55861178,19.0,22.0,72.0,41.71371046796162,-87.67700033291145,"(41.71371046796162, -87.67700033291146)",2012-10-01
10/01/2012,Completed,02/27/2013,12-01695393,Tree Trim,Parkway,3927 N SAWYER AVE,60618.0,1154022.54539353,1925929.73092133,33.0,17.0,16.0,41.95258422247611,-87.70920403013567,"(41.95258422247612, -87.70920403013567)",2012-10-01
10/01/2012,Completed,02/28/2013,12-01691455,Tree Trim,Parkway,5811 S PEORIA ST,60621.0,1171301.94469827,1866250.85449803,16.0,7.0,68.0,41.78845815546824,-87.64743749467401,"(41.788458155468234, -87.64743749467401)",2012-10-01
10/01/2012,Completed,03/11/2013,12-01695012,Tree Trim,Parkway,5899 S WELLS ST,60621.0,1175529.72678717,1865833.13942691,20.0,7.0,68.0,41.78721830227239,-87.63194835411757,"(41.78721830227239, -87.63194835411757)",2012-10-01
10/01/2012,Completed,03/29/2013,12-01694011,Tree Trim,Parkway,1819 W MORSE AVE,60626.0,1162846.42981184,1946093.26740217,49.0,24.0,1.0,42.00773280103825,-87.67619843449438,"(42.00773280103825, -87.67619843449437)",2012-10-01
10/01/2012,Completed,10/01/2012,12-01694554,Tree Trim,,2229 N LA CROSSE AVE,60639.0,1143696.64008325,1914385.89767345,31.0,25.0,19.0,41.92110692566713,-87.74745285306429,"(41.92110692566713, -87.7474528530643)",2012-10-01
10/01/2012,Completed,10/01/2012,12-01694557,Tree Trim,,5034 W GEORGE ST,60641.0,1142314.87091281,1918813.23691676,31.0,25.0,19.0,41.93328178859199,-87.75241964834545,"(41.93328178859199, -87.75241964834545)",2012-10-01
10/01/2012,Completed,10/01/2012,12-01694559,Tree Trim,,5030 W GEORGE ST,60641.0,1142341.87091281,1918813.83691676,31.0,25.0,19.0,41.93328293299421,-87.75232040901052,"(41.93328293299421, -87.75232040901051)",2012-10-01
10/01/2012,Completed,10/01/2012,12-01694624,Tree Trim,,4348 S ST LAWRENCE AVE,60653.0,1180986.74459285,1876311.78497285,4.0,2.0,38.0,41.815848700328026,-87.61161745941412,"(41.815848700328026, -87.61161745941412)",2012-10-01
10/01/2012,Completed,10/01/2012,12-01694630,Tree Trim,,6000 S WASHTENAW AVE,60629.0,1159403.3984783,1864761.66478323,15.0,8.0,66.0,41.78462381118481,-87.69110601344399,"(41.78462381118481, -87.69110601344399)",2012-10-01
10/01/2012,Completed,10/01/2012,12-01694785,Tree Trim,,6658 W DEVON AVE,60631.0,1130745.38839622,1942071.08839158,41.0,16.0,10.0,41.9973109791554,-87.79439984491137,"(41.9973109791554, -87.79439984491137)",2012-10-01
10/01/2012,Completed,10/01/2012,12-01694787,Tree Trim,,6455 W DEVON AVE,60631.0,1132258.07887587,1942093.19757436,41.0,16.0,10.0,41.99734538844515,-87.78883461905417,"(41.99734538844515, -87.78883461905416)",2012-10-01
10/01/2012,Completed,10/01/2012,12-01694791,Tree Trim,,6036 N NEWBURG AVE,60631.0,1131717.99229584,1939628.74148878,41.0,16.0,10.0,41.99059211100655,-87.79087885590899,"(41.99059211100655, -87.79087885590899)",2012-10-01
10/01/2012,Completed,10/01/2012,12-01695079,Tree Trim,,1639 N MAYFIELD AVE,60639.0,1136841.54006834,1910295.21570487,29.0,25.0,25.0,41.91000737009762,-87.7727387056668,"(41.910007370097624, -87.77273870566678)",2012-10-01
10/01/2012,Completed,10/01/2012,12-01695080,Tree Trim,,5012 W JACKSON BLVD,60644.0,1143172.40493442,1898208.80496796,28.0,15.0,25.0,41.876724949744094,-87.74978333584961,"(41.876724949744094, -87.74978333584961)",2012-10-01
10/01/2012,Completed,10/01/2012,12-01695082,Tree Trim,,5018 W JACKSON BLVD,60644.0,1143104.20493442,1898207.20496796,28.0,15.0,25.0,41.87672183128877,-87.75003378803717,"(41.876721831288776, -87.75003378803717)",2012-10-01
10/01/2012,Completed,10/01/2012,12-01695088,Tree Trim,,5005 W JACKSON BLVD,60644.0,1143252.00493442,1898210.70496796,28.0,15.0,25.0,41.876728678100015,-87.74949101838423,"(41.876728678100015, -87.74949101838422)",2012-10-01
10/01/2012,Completed,10/01/2012,12-01695090,Tree Trim,,5001 W JACKSON BLVD,60644.0,1143297.50493442,1898211.80496796,28.0,15.0,25.0,41.876730847189975,-87.74932392701083,"(41.87673084718998, -87.74932392701085)",2012-10-01
10/01/2012,Completed,10/01/2012,12-01695092,Tree Trim,,5036 W JACKSON BLVD,60644.0,1142899.50493442,1898202.20496796,28.0,15.0,25.0,41.87671192568215,-87.75078551664842,"(41.87671192568215, -87.75078551664842)",2012-10-01
10/01/2012,Completed,10/01/2012,12-01695098,Tree Trim,,5858 S BLACKSTONE AVE,60637.0,1186914.60790254,1866434.45662754,5.0,2.0,41.0,41.78860592352221,-87.59018647702558,"(41.788605923522205, -87.59018647702558)",2012-10-01
10/01/2012,Completed,10/01/2012,12-01695100,Tree Trim,,5854 S BLACKSTONE AVE,60637.0,1186913.90790254,1866460.75662754,5.0,2.0,41.0,41.788678109386744,-87.59018821011028,"(41.78867810938674, -87.59018821011028)",2012-10-01
10/01/2012,Completed,10/01/2012,12-01695101,Tree Trim,,5850 S BLACKSTONE AVE,60637.0,1186904.22501424,1866815.70012925,5.0,2.0,41.0,41.78965233175425,-87.59021246431273,"(41.78965233175425, -87.59021246431274)",2012-10-01
10/01/2012,Completed,10/01/2012,12-01695103,Tree Trim,,5856 S BLACKSTONE AVE,60637.0,1186914.20790254,1866447.55662754,5.0,2.0,41.0,41.788641880436614,-87.59018752848148,"(41.788641880436614, -87.59018752848148)",2012-10-01
10/01/2012,Completed,10/01/2012,12-01695105,Tree Trim,,5848 S BLACKSTONE AVE,60637.0,1186912.82501424,1866500.20012925,5.0,2.0,41.0,41.788786371130115,-87.59019093053637,"(41.788786371130115, -87.59019093053638)",2012-10-01
10/01/2012,Completed,10/01/2012,12-01695107,Tree Trim,,5846 S BLACKSTONE AVE,60637.0,1186912.42501424,1866513.30012925,5.0,2.0,41.0,41.7888223280434,-87.59019198199627,"(41.788822328043395, -87.59019198199626)",2012-10-01
10/01/2012,Completed,10/01/2012,12-01695110,Tree Trim,,5842 S BLACKSTONE AVE,60637.0,1186911.72501424,1866539.60012925,5.0,2.0,41.0,41.78889451390522,-87.59019371508944,"(41.78889451390522, -87.59019371508944)",2012-10-01
10/01/2012,Completed,10/01/2012,12-01695114,Tree Trim,,5838 S BLACKSTONE AVE,60637.0,1186911.02501424,1866565.90012925,5.0,2.0,41.0,41.78896669976617,-87.59019544818536,"(41.78896669976617, -87.59019544818534)",2012-10-01
10/01/2012,Completed,10/01/2012,12-01695115,Tree Trim,,5836 S BLACKSTONE AVE,60637.0,1186910.62501424,1866579.10012925,5.0,2.0,41.0,41.78900293108615,-87.59019649647993,"(41.78900293108615, -87.59019649647993)",2012-10-01
10/01/2012,Completed,10/01/2012,12-01695118,Tree Trim,,5834 S BLACKSTONE AVE,60637.0,1186910.32501424,1866592.20012925,5.0,2.0,41.0,41.78903888562621,-87.59019718128393,"(41.78903888562621, -87.59019718128394)",2012-10-01
10/01/2012,Completed,10/01/2012,12-01695120,Tree Trim,,5832 S BLACKSTONE AVE,60637.0,1186909.92501424,1866605.40012925,5.0,2.0,41.0,41.789075116945746,-87.59019822958011,"(41.789075116945746, -87.59019822958011)",2012-10-01
10/01/2012,Completed,10/01/2012,12-01695123,Tree Trim,,5830 S BLACKSTONE AVE,60637.0,1186909.62501424,1866618.50012925,5.0,2.0,41.0,41.78911107148535,-87.59019891438525,"(41.78911107148535, -87.59019891438527)",2012-10-01
10/01/2012,Completed,10/01/2012,12-01695125,Tree Trim,,5828 S BLACKSTONE AVE,60637.0,1186909.22501424,1866631.70012925,5.0,2.0,41.0,41.78914730280445,-87.59019996268299,"(41.789147302804444, -87.59019996268299)",2012-10-01
10/01/2012,Completed,10/01/2012,12-01695127,Tree Trim,,5826 S BLACKSTONE AVE,60637.0,1186908.82501424,1866644.80012925,5.0,2.0,41.0,41.78918325971549,-87.59020101415089,"(41.789183259715486, -87.59020101415089)",2012-10-01
10/01/2012,Completed,10/01/2012,12-01695128,Tree Trim,,5813 S BLACKSTONE AVE,60637.0,1186906.52501424,1866730.20012925,5.0,2.0,41.0,41.7894176585357,-87.59020674080179,"(41.789417658535704, -87.5902067408018)",2012-10-01
10/01/2012,Completed,10/01/2012,12-01695129,Tree Trim,,5802 S BLACKSTONE AVE,60637.0,1186904.62501424,1866802.60012925,5.0,2.0,41.0,41.78961637484611,-87.59021141283459,"(41.78961637484611, -87.59021141283459)",2012-10-01
10/01/2012,Completed,10/01/2012,12-01695131,Tree Trim,,5810 S BLACKSTONE AVE,60637.0,1186906.02501424,1866750.00012925,5.0,2.0,41.0,41.789472003139494,-87.59020794659583,"(41.78947200313949, -87.59020794659583)",2012-10-01
10/01/2012,Completed,10/01/2012,12-01695136,Tree Trim,,5814 S BLACKSTONE AVE,60637.0,1186906.72501424,1866723.70012925,5.0,2.0,41.0,41.78939981728481,-87.59020621348053,"(41.789399817284824, -87.59020621348053)",2012-10-01
10/01/2012,Completed,10/01/2012,12-01695139,Tree Trim,,5818 S BLACKSTONE AVE,60637.0,1186907.42501424,1866697.40012925,5.0,2.0,41.0,41.78932763142928,-87.59020448036794,"(41.78932763142928, -87.59020448036794)",2012-10-01
10/01/2012,Completed,10/01/2012,12-01695141,Tree Trim,,5820 S BLACKSTONE AVE,60637.0,1186907.82501424,1866684.20012925,5.0,2.0,41.0,41.789291400111324,-87.59020343206622,"(41.789291400111324, -87.5902034320662)",2012-10-01
10/01/2012,Completed,10/01/2012,12-01695144,Tree Trim,,5822 S BLACKSTONE AVE,60637.0,1186908.12501424,1866671.10012925,5.0,2.0,41.0,41.78925544557283,-87.59020274725808,"(41.789255445572834, -87.59020274725806)",2012-10-01
10/01/2012,Completed,10/01/2012,12-01695235,Tree Trim,,2600 W 83RD ST,60652.0,1160442.80000784,1849504.55072658,18.0,8.0,70.0,41.74273468069183,-87.68771497442614,"(41.742734680691825, -87.68771497442614)",2012-10-01
10/01/2012,Completed,10/01/2012,12-01695236,Tree Trim,,2400 W 83RD ST,60652.0,1161816.86769908,1849544.42832834,18.0,8.0,70.0,41.74281571126675,-87.68267922338738,"(41.74281571126675, -87.68267922338738)",2012-10-01
10/01/2012,Completed,10/01/2012,12-01695243,Tree Trim,,6500 S WINCHESTER AVE,60636.0,1164473.80980603,1861556.28881966,15.0,7.0,67.0,41.77572240989212,-87.67260603382162,"(41.77572240989212, -87.67260603382162)",2012-10-01
10/01/2012,Completed,10/01/2012,12-01695249,Tree Trim,,6504 S WINCHESTER AVE,60636.0,1164474.60980603,1861529.58881966,15.0,7.0,67.0,41.77564912467317,-87.67260385310999,"(41.775649124673166, -87.67260385310998)",2012-10-01
10/01/2012,Completed,10/01/2012,12-01695251,Tree Trim,,6501 S WINCHESTER AVE,60636.0,1164474.00980603,1861549.58881966,15.0,7.0,67.0,41.77570401998414,-87.67260548934748,"(41.77570401998414, -87.67260548934749)",2012-10-01
10/01/2012,Completed,10/01/2012,12-01695253,Tree Trim,,6524 S WINCHESTER AVE,60636.0,1164478.40980603,1861395.88881966,15.0,7.0,67.0,41.77528215395439,-87.67259368842087,"(41.775282153954386, -87.67259368842087)",2012-10-01
10/01/2012,Completed,10/01/2012,12-01695257,Tree Trim,,6523 S WINCHESTER AVE,60636.0,1164478.20980603,1861402.58881966,15.0,7.0,67.0,41.77530054386372,-87.67259423288964,"(41.775300543863715, -87.67259423288962)",2012-10-01
10/01/2012,Completed,10/01/2012,12-01695260,Tree Trim,,6525 S WINCHESTER AVE,60636.0,1164478.60980603,1861389.18881966,15.0,7.0,67.0,41.77526376404499,-87.67259314395235,"(41.77526376404499, -87.67259314395235)",2012-10-01
10/01/2012,Completed,10/01/2012,12-01695261,Tree Trim,,6529 S WINCHESTER AVE,60636.0,1164479.40980603,1861362.48881966,15.0,7.0,67.0,41.77519047882018,-87.67259096326418,"(41.77519047882018, -87.67259096326417)",2012-10-01
10/01/2012,Completed,10/01/2012,12-01695262,Tree Trim,,6531 S WINCHESTER AVE,60636.0,1164479.80980603,1861349.08881966,15.0,7.0,67.0,41.77515369900075,-87.67258987432982,"(41.775153699000754, -87.67258987432982)",2012-10-01
10/01/2012,Completed,10/01/2012,12-01695264,Tree Trim,,6532 S WINCHESTER AVE,60636.0,1164479.90980603,1861342.48881966,15.0,7.0,67.0,41.77513558561265,-87.67258969363449,"(41.775135585612645, -87.67258969363448)",2012-10-01
10/01/2012,Completed,10/01/2012,12-01695266,Tree Trim,,6540 S WINCHESTER AVE,60636.0,1164481.50980603,1861288.98881966,15.0,7.0,67.0,41.77498874074547,-87.67258533509134,"(41.77498874074547, -87.67258533509134)",2012-10-01
10/01/2012,Completed,10/01/2012,12-01695268,Tree Trim,,6546 S WINCHESTER AVE,60636.0,1164482.60980603,1861248.88881966,15.0,7.0,67.0,41.774878677804324,-87.67258243207664,"(41.77487867780433, -87.67258243207664)",2012-10-01
10/01/2012,Completed,10/01/2012,12-01695270,Tree Trim,,6550 S WINCHESTER AVE,60636.0,1164473.80980603,1861556.28881966,15.0,7.0,67.0,41.77572240989212,-87.67260603382162,"(41.77572240989212, -87.67260603382162)",2012-10-01
10/01/2012,Completed,10/01/2012,12-01695272,Tree Trim,,6544 S WINCHESTER AVE,60636.0,1164482.30980603,1861262.28881966,15.0,7.0,67.0,41.774915455517146,-87.67258315441731,"(41.774915455517146, -87.67258315441731)",2012-10-01
10/01/2012,Completed,11/20/2012,12-01691494,Tree Trim,Parkway,5627 S DR MARTIN LUTHER KING JR DR,60637.0,1179884.05002247,1867794.74998186,20.0,2.0,40.0,41.7925025617192,-87.61592308750906,"(41.792502561719196, -87.61592308750907)",2012-10-01
10/01/2012,Completed,11/21/2012,12-01693111,Tree Trim,Parkway,8544 S MACKINAW AVE,60617.0,1199953.70749946,1848952.8273117,10.0,4.0,46.0,41.74031607023657,-87.54296688296098,"(41.74031607023657, -87.54296688296098)",2012-10-01
10/01/2012,Completed,11/27/2012,12-01693278,Tree Trim,Parkway,1850 S SANGAMON ST,60608.0,1170425.08718715,1891271.82942615,25.0,12.0,31.0,41.85713731113562,-87.64992286540975,"(41.857137311135624, -87.64992286540975)",2012-10-01
10/01/2012,Completed,12/03/2012,12-01694001,Tree Trim,Parkway,13204 S BRANDON AVE,60633.0,1199433.9210715,1818014.39687682,10.0,4.0,55.0,41.65543121975334,-87.54590760443405,"(41.65543121975334, -87.54590760443405)",2012-10-01
10/01/2012,Completed,12/11/2012,12-01696009,Tree Trim,Parkway,4749 N LINDER AVE,60630.0,1138812.87106954,1931000.48882971,45.0,16.0,15.0,41.9667891826941,-87.76499244276276,"(41.9667891826941, -87.76499244276276)",2012-10-01
10/01/2012,Completed,12/19/2012,12-01693967,Tree Trim,Parkway,450 W 29TH ST,60616.0,1173570.49999634,1885703.90832062,11.0,9.0,60.0,41.84178921893616,-87.63854286827262,"(41.84178921893616, -87.63854286827262)",2012-10-01
10/01/2012,Completed,12/19/2012,12-01694869,Tree Trim,Parkway,3736 S WOOD ST,60609.0,1164964.63102424,1879929.84298401,11.0,9.0,59.0,41.826131281551035,-87.67028715500858,"(41.826131281551035, -87.67028715500858)",2012-10-01
10/01/2012,Completed,12/19/2012,12-01696266,Tree Trim,Vacant Lot,3812 S HERMITAGE AVE,60609.0,1165312.65370537,1879379.69590812,11.0,9.0,59.0,41.824614241465156,-87.66902594083827,"(41.824614241465156, -87.66902594083827)",2012-10-01
10/02/2012,Completed - Dup,01/07/2013,12-01696750,Tree Trim,Parkway,8344 S MANISTEE AVE,60617.0,1195946.96532453,1850173.67619225,7.0,4.0,46.0,41.743766219523096,-87.55760647736263,"(41.74376621952309, -87.55760647736263)",2012-10-02
10/02/2012,Completed - Dup,01/08/2013,12-01701005,Tree Trim,,1746 W OLIVE AVE,60660.0,1163570.00523097,1937534.1594063998,40.0,20.0,77.0,41.984231097698405,-87.67377880527256,"(41.98423109769841, -87.67377880527256)",2012-10-02
10/02/2012,Completed - Dup,01/29/2013,12-01702120,Tree Trim,Parkway,2520 S OAKLEY AVE,60608.0,1161437.0597836,1887162.15507885,25.0,10.0,31.0,41.846051518219966,-87.68302820183233,"(41.84605151821997, -87.68302820183233)",2012-10-02
10/02/2012,Completed - Dup,02/07/2013,12-01699755,Tree Trim,Parkway,7937 S PAXTON AVE,60617.0,1192242.52120192,1852772.8324678002,7.0,4.0,46.0,41.75098936481814,-87.57109523918867,"(41.75098936481814, -87.57109523918867)",2012-10-02
10/02/2012,Completed - Dup,02/14/2013,12-01700797,Tree Trim,Parkway,8100 S PAXTON AVE,60617.0,1192264.66439453,1851695.00492588,8.0,4.0,46.0,41.748031176032036,-87.57104908906156,"(41.74803117603204, -87.57104908906156)",2012-10-02
10/02/2012,Completed - Dup,02/28/2013,12-01699193,Tree Trim,Alley,1855 W 69TH ST,60636.0,1165095.27652428,1858921.90529082,17.0,7.0,67.0,41.76848018455328,-87.67040223193341,"(41.76848018455328, -87.67040223193341)",2012-10-02
10/02/2012,Completed - Dup,02/28/2013,12-01699257,Tree Trim,Alley,1855 W 69TH ST,60636.0,1165095.27652428,1858921.90529082,17.0,7.0,67.0,41.76848018455328,-87.67040223193341,"(41.76848018455328, -87.67040223193341)",2012-10-02
10/02/2012,Completed - Dup,03/20/2013,12-01700144,Tree Trim,Parkway,57 E OAK ST,60611.0,1176616.17762751,1907223.47969373,42.0,18.0,8.0,41.9007720852021,-87.6267162187983,"(41.9007720852021, -87.6267162187983)",2012-10-02
10/02/2012,Completed - Dup,03/20/2013,12-01701179,Tree Trim,Parkway,1150 N LAKE SHORE DR,60611.0,1177121.16130771,1908208.30041773,42.0,18.0,8.0,41.90346304894826,-87.62483152817373,"(41.90346304894826, -87.62483152817373)",2012-10-02
10/02/2012,Completed - Dup,03/20/2013,12-01702130,Tree Trim,,803 W BELDEN AVE,60614.0,1170533.1862946998,1915503.65613237,43.0,18.0,7.0,41.923628653536355,-87.64881653004377,"(41.92362865353636, -87.64881653004377)",2012-10-02
10/02/2012,Completed - Dup,03/29/2013,12-01696842,Tree Trim,Parkway,10641 S AVENUE E,60617.0,1203830.27261303,1835007.59136755,10.0,4.0,52.0,41.70195077458838,-87.52924120083594,"(41.70195077458838, -87.52924120083594)",2012-10-02
10/02/2012,Completed - Dup,04/02/2013,12-01699492,Tree Trim,Parkway,8200 S MANISTEE AVE,60617.0,1195925.9877918002,1851130.7001854999,7.0,4.0,46.0,41.74639288744978,-87.5576517293276,"(41.74639288744978, -87.5576517293276)",2012-10-02
10/02/2012,Completed - Dup,04/04/2013,12-01698223,Tree Trim,Parkway,3238 W BERTEAU AVE,60618.0,1153929.70022614,1927734.75511716,33.0,17.0,16.0,41.95753918450899,-87.70949703251793,"(41.95753918450899, -87.70949703251792)",2012-10-02
10/02/2012,Completed - Dup,10/02/2012,12-01698560,Tree Trim,Parkway,5719 N KENNETH AVE,60646.0,1145654.78761285,1937584.91621205,39.0,17.0,12.0,41.98473003252757,-87.73966762738651,"(41.98473003252757, -87.73966762738651)",2012-10-02
10/02/2012,Completed - Dup,10/02/2012,12-01701116,Tree Trim,,5221 W EDDY ST,60641.0,1140928.40871099,1923113.01388971,38.0,16.0,15.0,41.94510646615551,-87.75740870994406,"(41.94510646615551, -87.75740870994407)",2012-10-02
10/02/2012,Completed - Dup,10/02/2012,12-01701120,Tree Trim,,5201 W EDDY ST,60641.0,1141063.60871099,1923118.51388971,38.0,16.0,15.0,41.94511906483642,-87.75691162482752,"(41.945119064836426, -87.75691162482752)",2012-10-02
10/02/2012,Completed - Dup,10/02/2012,12-01701123,Tree Trim,,5434 W SCHOOL ST,60641.0,1139554.72151478,1921408.02048286,38.0,16.0,15.0,41.940453011503294,-87.76249965379337,"(41.9404530115033, -87.76249965379337)",2012-10-02
10/02/2012,Completed - Dup,10/05/2012,12-01699331,Tree Trim,Parkway,1332 W NORWOOD ST,60660.0,1166304.90707585,1940306.83987089,48.0,24.0,77.0,41.99178117461614,-87.66364051818344,"(41.99178117461615, -87.66364051818344)",2012-10-02
10/02/2012,Completed - Dup,10/09/2012,12-01698899,Tree Trim,Parkway,2925 W 59TH ST,60629.0,1157786.39693383,1865379.00887054,16.0,8.0,66.0,41.786350880823946,-87.6970178974017,"(41.786350880823946, -87.69701789740171)",2012-10-02
10/02/2012,Completed - Dup,10/22/2012,12-01699326,Tree Trim,Parkway,5535 N WAYNE AVE,60640.0,1166309.55759093,1936883.3056341,48.0,20.0,77.0,41.982386805450474,-87.66372186814915,"(41.982386805450474, -87.66372186814914)",2012-10-02
10/02/2012,Completed - Dup,10/31/2012,12-01696585,Tree Trim,,3301 S EMERALD AVE,60616.0,1171838.81346762,1882996.7193916999,11.0,9.0,60.0,41.83439872087339,-87.64497718503088,"(41.83439872087338, -87.64497718503087)",2012-10-02
10/02/2012,Completed - Dup,10/31/2012,12-01700998,Tree Trim,Parkway,2325 N AUSTIN AVE,60639.0,1136010.945275,1914938.462725,37.0,25.0,19.0,41.92276384477426,-87.77567911271956,"(41.92276384477426, -87.77567911271957)",2012-10-02
10/02/2012,Completed - Dup,10/31/2012,12-01701625,Tree Trim,Parkway,1937 N HUDSON AVE,60614.0,1172953.00161953,1913169.15728693,43.0,18.0,7.0,41.91716933326182,-87.63999464518488,"(41.91716933326181, -87.63999464518487)",2012-10-02
10/02/2012,Completed - Dup,10/31/2012,12-01702200,Tree Trim,Parkway,518 W 46TH ST,60609.0,1173609.97619828,1874417.67359774,11.0,9.0,61.0,41.81081790483547,-87.63873285590094,"(41.81081790483547, -87.63873285590094)",2012-10-02
10/02/2012,Completed - Dup,11/01/2012,12-01697640,Tree Trim,Parkway,1002 E 62ND ST,60637.0,1183964.90937716,1864102.19508235,20.0,3.0,42.0,41.78227545096322,-87.60107463929094,"(41.78227545096322, -87.60107463929093)",2012-10-02
10/02/2012,Completed - Dup,11/19/2012,12-01701191,Tree Trim,Parkway,3101 N MANGO AVE,60634.0,1137501.80248727,1920034.43901276,30.0,25.0,19.0,41.93672102501166,-87.77007812115629,"(41.93672102501166, -87.7700781211563)",2012-10-02
10/02/2012,Completed - Dup,11/26/2012,12-01700906,Tree Trim,Parkway,5729 W CORNELIA AVE,60634.0,1137549.22811664,1922692.83366709,38.0,16.0,15.0,41.94401508113186,-87.76983960056296,"(41.94401508113186, -87.76983960056295)",2012-10-02
10/02/2012,Completed - Dup,12/06/2012,12-01697665,Tree Trim,Parkway,3648 N GREENVIEW AVE,60613.0,1165662.47038264,1924315.11200503,44.0,19.0,6.0,41.947913052727245,-87.66646144423932,"(41.94791305272724, -87.66646144423932)",2012-10-02
10/02/2012,Completed - Dup,12/11/2012,12-01701033,Tree Trim,,2535 W GLENLAKE AVE,60659.0,1158197.02560572,1940411.762769,50.0,24.0,2.0,41.99223919804011,-87.69346080810196,"(41.99223919804011, -87.69346080810197)",2012-10-02
10/02/2012,Completed - Dup,12/14/2012,12-01698228,Tree Trim,Parkway,5724 N MILTIMORE AVE,60646.0,1136423.47038051,1937782.89002661,45.0,16.0,11.0,41.98544384932962,-87.77361512147341,"(41.98544384932962, -87.77361512147341)",2012-10-02
10/02/2012,Completed - Dup,12/14/2012,12-01699792,Tree Trim,Parkway,1331 W EARLY AVE,60660.0,1166270.42716586,1938583.85558829,48.0,20.0,77.0,41.987054001368826,-87.66381689061703,"(41.987054001368826, -87.66381689061703)",2012-10-02
10/02/2012,Completed,01/09/2013,12-01698354,Tree Trim,Parkway,2727 N STOCKTON DR,60614.0,1173253.12883173,1918375.83773023,43.0,19.0,7.0,41.93145002281639,-87.63873703291925,"(41.93145002281639, -87.63873703291925)",2012-10-02
10/02/2012,Completed,01/09/2013,12-01700952,Tree Trim,Vacant Lot,1131 E 79TH PL,60619.0,1185388.86988767,1852530.92003318,8.0,4.0,45.0,41.750489405137344,-87.59621763300476,"(41.750489405137344, -87.59621763300477)",2012-10-02
10/02/2012,Completed,01/18/2013,12-01697745,Tree Trim,Parkway,2813 N MERRIMAC AVE,60634.0,1134256.92511735,1918035.27327831,29.0,25.0,19.0,41.93129297208076,-87.78205091188093,"(41.931292972080755, -87.78205091188093)",2012-10-02
10/02/2012,Completed,01/18/2013,12-01701642,Tree Trim,Parkway,2600 N RICHMOND ST,60647.0,1156260.37492463,1917234.40732953,35.0,14.0,22.0,41.92867863631805,-87.70121335760206,"(41.928678636318054, -87.70121335760206)",2012-10-02
10/02/2012,Completed,01/22/2013,12-01698813,Tree Trim,Parkway,7340 S CRANDON AVE,60649.0,1192816.53298481,1856739.5427336001,7.0,3.0,43.0,41.761860362822496,-87.56886264948204,"(41.761860362822496, -87.56886264948203)",2012-10-02
10/02/2012,Completed,01/27/2013,12-01697769,Tree Trim,Parkway,9231 S BEVERLY AVE,60620.0,1166524.05918955,1843344.22968935,21.0,22.0,73.0,41.72570248007101,-87.66560813395887,"(41.72570248007101, -87.66560813395888)",2012-10-02
10/02/2012,Completed,02/01/2013,12-01699263,Tree Trim,Parkway,2153 N ROCKWELL ST,60647.0,1158589.01921363,1914404.87901039,1.0,14.0,22.0,41.9208667776062,-87.6927340255152,"(41.9208667776062, -87.69273402551518)",2012-10-02
10/02/2012,Completed,02/07/2013,12-01699524,Tree Trim,Parkway,7937 S PAXTON AVE,60617.0,1192242.52120192,1852772.8324678002,7.0,4.0,46.0,41.75098936481814,-87.57109523918867,"(41.75098936481814, -87.57109523918867)",2012-10-02
10/02/2012,Completed,02/08/2013,12-01700887,Tree Trim,Parkway,957 W MONTANA ST,60614.0,1169570.48569597,1916542.16211081,43.0,19.0,7.0,41.92649939927889,-87.65232352545642,"(41.92649939927889, -87.65232352545642)",2012-10-02
10/02/2012,Completed,02/11/2013,12-01698698,Tree Trim,Parkway,626 W 44TH ST,60609.0,1172746.40993066,1875723.33257597,11.0,9.0,61.0,41.81441987050562,-87.64186178779991,"(41.81441987050562, -87.64186178779991)",2012-10-02
10/02/2012,Completed,02/11/2013,12-01698754,Tree Trim,Alley,8944 S EGGLESTON AVE,60620.0,1174861.6231982,1845644.51706647,21.0,22.0,71.0,41.73183324578775,-87.63499888402521,"(41.73183324578775, -87.6349988840252)",2012-10-02
10/02/2012,Completed,02/11/2013,12-01700077,Tree Trim,Parkway,356 E 119TH ST,60628.0,1180501.80000846,1826125.36999467,9.0,5.0,53.0,41.67814266875303,-87.61493330541815,"(41.678142668753026, -87.61493330541815)",2012-10-02
10/02/2012,Completed,02/11/2013,12-01701176,Tree Trim,Parkway,12244 S WENTWORTH AVE,60628.0,1177148.54728147,1823748.67271328,9.0,5.0,53.0,41.67169671000031,-87.62727861278273,"(41.671696710000305, -87.62727861278273)",2012-10-02
10/02/2012,Completed,02/13/2013,12-01697812,Tree Trim,Parkway,2101 W 70TH ST,60636.0,1163559.26413091,1858223.94036797,17.0,7.0,67.0,41.76659722169454,-87.67605204037716,"(41.76659722169454, -87.67605204037716)",2012-10-02
10/02/2012,Completed,02/19/2013,12-01701310,Tree Trim,Parkway,907 N LOREL AVE,60651.0,1140507.72551463,1905526.52162794,37.0,15.0,25.0,41.89685497529013,-87.75938763419222,"(41.89685497529013, -87.75938763419222)",2012-10-02
10/02/2012,Completed,02/26/2013,12-01701475,Tree Trim,Parkway,5700 W WARWICK AVE,60634.0,1137687.88471086,1924360.03121379,38.0,16.0,15.0,41.948587536933964,-87.7692896283411,"(41.94858753693396, -87.76928962834111)",2012-10-02
10/02/2012,Completed,03/06/2013,12-01698433,Tree Trim,Parkway,5920 S RICHMOND ST,60629.0,1157725.89693383,1865243.10887054,16.0,8.0,66.0,41.78597918046306,-87.69724340921465,"(41.78597918046306, -87.69724340921465)",2012-10-02
10/02/2012,Completed,03/11/2013,12-01697658,Tree Trim,Parkway,3359 N ASHLAND AVE,60657.0,1165054.70047208,1922450.45000143,44.0,19.0,6.0,41.94280928213389,-87.66874860269756,"(41.94280928213388, -87.66874860269756)",2012-10-02
10/02/2012,Completed,03/18/2013,12-01700974,Tree Trim,Parkway,5717 N KENMORE AVE,60660.0,1168213.72177241,1938149.48730507,48.0,20.0,77.0,41.98582017656531,-87.65668207049083,"(41.98582017656531, -87.65668207049083)",2012-10-02
10/02/2012,Completed,03/21/2013,12-01700864,Tree Trim,Parkway,314 W 52ND PL,60609.0,1175134.4038991001,1870152.41013374,3.0,9.0,37.0,41.799079663313016,-87.63326885707704,"(41.799079663313016, -87.63326885707704)",2012-10-02
10/02/2012,Completed,10/02/2012,12-01700814,Tree Trim,,3821 N HAMILTON AVE,60618.0,1161343.48991147,1925352.01359601,47.0,19.0,5.0,41.95084948168101,-87.68230805501095,"(41.950849481681004, -87.68230805501095)",2012-10-02
10/02/2012,Completed,10/02/2012,12-01700955,Tree Trim,,5572 N CHESTER AVE,60656.0,1118644.59999967,1935948.05752738,41.0,16.0,76.0,41.980709061019006,-87.83904507015245,"(41.980709061019006, -87.83904507015245)",2012-10-02
10/02/2012,Completed,10/02/2012,12-01700976,Tree Trim,,6619 N WASHTENAW AVE,60645.0,1157126.18419302,1943810.69597397,50.0,24.0,2.0,42.001587896356966,-87.69730685035792,"(42.00158789635697, -87.69730685035792)",2012-10-02
10/02/2012,Completed,10/02/2012,12-01701016,Tree Trim,,3525 W HIRSCH ST,60651.0,1152606.75741387,1909085.49462631,26.0,14.0,23.0,41.90639043459142,-87.71485520328655,"(41.90639043459142, -87.71485520328655)",2012-10-02
10/02/2012,Completed,10/02/2012,12-01701026,Tree Trim,,1934 N SAYRE AVE,60707.0,1129281.41623406,1912085.075902,36.0,25.0,25.0,41.91505121206987,-87.80047123782833,"(41.91505121206987, -87.80047123782833)",2012-10-02
10/02/2012,Completed,10/02/2012,12-01701029,Tree Trim,,1852 N SAYRE AVE,60707.0,1129297.51623406,1911540.875902,36.0,25.0,25.0,41.913557581752144,-87.80042450998877,"(41.913557581752144, -87.80042450998877)",2012-10-02
10/02/2012,Completed,10/02/2012,12-01701032,Tree Trim,,1848 N SAYRE AVE,60707.0,1129298.22500019,1911514.02010966,36.0,25.0,25.0,41.9134838738589,-87.80042251910987,"(41.913483873858894, -87.80042251910987)",2012-10-02
10/02/2012,Completed,10/02/2012,12-01701077,Tree Trim,,4800 S FORRESTVILLE AVE,60615.0,1180736.25992729,1873312.64681985,3.0,2.0,38.0,41.80762459151556,-87.6126285378347,"(41.80762459151556, -87.61262853783471)",2012-10-02
10/02/2012,Completed,10/02/2012,12-01701080,Tree Trim,,4804 S FORRESTVILLE AVE,60615.0,1180736.95992729,1873285.84681985,3.0,2.0,38.0,41.80755103398192,-87.61262679472846,"(41.807551033981916, -87.61262679472846)",2012-10-02
10/02/2012,Completed,10/02/2012,12-01701081,Tree Trim,,4806 S FORRESTVILLE AVE,60615.0,1180737.25992729,1873272.44681985,3.0,2.0,38.0,41.807514256365316,-87.61262610656033,"(41.80751425636532, -87.61262610656033)",2012-10-02
10/02/2012,Completed,10/02/2012,12-01701082,Tree Trim,,2531 W WALTON ST,60622.0,1159354.86438461,1906236.57708497,26.0,13.0,24.0,41.89843658407284,-87.69014519022569,"(41.89843658407284, -87.69014519022568)",2012-10-02
10/02/2012,Completed,10/02/2012,12-01701084,Tree Trim,,4814 S FORRESTVILLE AVE,60615.0,1180738.65992729,1873218.84681985,3.0,2.0,38.0,41.80736714129432,-87.61262262035861,"(41.80736714129432, -87.6126226203586)",2012-10-02
10/02/2012,Completed,10/02/2012,12-01701085,Tree Trim,,4824 S FORRESTVILLE AVE,60615.0,1180740.35992729,1873151.74681985,3.0,2.0,38.0,41.80718297419255,-87.61261844908087,"(41.80718297419255, -87.61261844908087)",2012-10-02
10/02/2012,Completed,10/02/2012,12-01701086,Tree Trim,,4830 S FORRESTVILLE AVE,60615.0,1180741.35992729,1873111.54681985,3.0,2.0,38.0,41.807072639033926,-87.61261601782982,"(41.80707263903393, -87.61261601782982)",2012-10-02
10/02/2012,Completed,10/02/2012,12-01701087,Tree Trim,,4858 S FORRESTVILLE AVE,60615.0,1180746.05086627,1872923.89170757,3.0,2.0,38.0,41.80655758980803,-87.61260458474011,"(41.80655758980803, -87.61260458474011)",2012-10-02
10/02/2012,Completed,10/02/2012,12-01701088,Tree Trim,,4900 S FORRESTVILLE AVE,60615.0,1180753.05086627,1872649.09170757,4.0,2.0,38.0,41.805803354524095,-87.61258736333771,"(41.80580335452409, -87.6125873633377)",2012-10-02
10/02/2012,Completed,10/02/2012,12-01701094,Tree Trim,,4168 S DREXEL BLVD,60653.0,1182860.17569049,1877289.60991075,4.0,2.0,36.0,41.81848854104951,-87.60471501925012,"(41.818488541049504, -87.60471501925012)",2012-10-02
10/02/2012,Completed,10/02/2012,12-01701095,Tree Trim,,5085 W JACKSON BLVD,60644.0,1142342.22227802,1898188.79261579,28.0,15.0,25.0,41.87668548171398,-87.75283204385137,"(41.87668548171398, -87.75283204385137)",2012-10-02
10/02/2012,Completed,10/02/2012,12-01701097,Tree Trim,,4204 S DREXEL BLVD,60653.0,1182879.43948885,1877084.26672587,4.0,2.0,36.0,41.8179246160686,-87.60465074180695,"(41.817924616068595, -87.60465074180695)",2012-10-02
10/02/2012,Completed,10/02/2012,12-01701098,Tree Trim,,5083 W JACKSON BLVD,60644.0,1142365.02227802,1898189.39261579,28.0,15.0,25.0,41.87668670499886,-87.75274831342249,"(41.87668670499886, -87.75274831342249)",2012-10-02
10/02/2012,Completed,10/02/2012,12-01701100,Tree Trim,,5071 W JACKSON BLVD,60644.0,1142501.42227802,1898192.69261579,28.0,15.0,25.0,41.87669322761924,-87.75224740694769,"(41.876693227619235, -87.75224740694769)",2012-10-02
10/02/2012,Completed,10/02/2012,12-01701101,Tree Trim,,4208 S DREXEL BLVD,60653.0,1182880.83948885,1877067.46672587,4.0,2.0,36.0,41.81787848305882,-87.60464612885269,"(41.81787848305882, -87.60464612885269)",2012-10-02
10/02/2012,Completed,10/02/2012,12-01701102,Tree Trim,,5065 W JACKSON BLVD,60644.0,1142569.72227802,1898194.29261579,28.0,15.0,25.0,41.87669634904493,-87.75199658775145,"(41.87669634904493, -87.75199658775144)",2012-10-02
10/02/2012,Completed,10/02/2012,12-01701103,Tree Trim,,4240 S DREXEL BLVD,60653.0,1182892.43948885,1876932.96672587,4.0,2.0,36.0,41.817509135246524,-87.60460776125393,"(41.81750913524652, -87.60460776125392)",2012-10-02
10/02/2012,Completed,10/02/2012,12-01701105,Tree Trim,,4336 S DREXEL BLVD,60653.0,1183049.693532,1876455.34923104,4.0,2.0,39.0,41.81619485675065,-87.60404578496977,"(41.81619485675065, -87.60404578496977)",2012-10-02
10/02/2012,Completed,10/02/2012,12-01701111,Tree Trim,,5042 W JACKSON BLVD,60644.0,1142831.30493442,1898200.60496796,28.0,15.0,25.0,41.87670880504058,-87.75103596876116,"(41.87670880504058, -87.75103596876116)",2012-10-02
10/02/2012,Completed,10/02/2012,12-01701128,Tree Trim,,4801 S FORRESTVILLE AVE,60615.0,1180736.45992729,1873305.94681985,4.0,2.0,38.0,41.807606201556936,-87.61262801036577,"(41.80760620155694, -87.61262801036578)",2012-10-02
10/02/2012,Completed,10/02/2012,12-01701131,Tree Trim,,4803 S FORRESTVILLE AVE,60615.0,1180736.75992729,1873292.54681985,4.0,2.0,38.0,41.807569423940684,-87.61262732219679,"(41.80756942394069, -87.6126273221968)",2012-10-02
10/02/2012,Completed,10/02/2012,12-01701134,Tree Trim,,4805 S FORRESTVILLE AVE,60615.0,1180737.05992729,1873279.14681985,4.0,2.0,38.0,41.80753264632421,-87.61262663402835,"(41.80753264632421, -87.61262663402835)",2012-10-02
10/02/2012,Completed,10/02/2012,12-01701135,Tree Trim,,4807 S FORRESTVILLE AVE,60615.0,1180737.45992729,1873265.74681985,4.0,2.0,38.0,41.80749586640636,-87.61262557909254,"(41.80749586640636, -87.61262557909254)",2012-10-02
10/02/2012,Completed,10/02/2012,12-01701139,Tree Trim,,4809 S FORRESTVILLE AVE,60615.0,1180737.75992729,1873252.34681985,4.0,2.0,38.0,41.807459088789415,-87.61262489092528,"(41.807459088789415, -87.61262489092526)",2012-10-02
10/02/2012,Completed,10/02/2012,12-01701142,Tree Trim,,4825 S FORRESTVILLE AVE,60615.0,1180740.45992729,1873145.04681985,4.0,2.0,38.0,41.807164586533695,-87.61261828838259,"(41.807164586533695, -87.61261828838258)",2012-10-02
10/02/2012,Completed,10/02/2012,12-01701145,Tree Trim,,4835 S FORRESTVILLE AVE,60615.0,1180742.15992729,1873078.04681985,4.0,2.0,38.0,41.80698069383384,-87.6126141140466,"(41.80698069383384, -87.6126141140466)",2012-10-02
10/02/2012,Completed,10/02/2012,12-01701147,Tree Trim,,4837 S FORRESTVILLE AVE,60615.0,1180742.55992729,1873064.64681985,4.0,2.0,38.0,41.8069439139125,-87.61261305912258,"(41.8069439139125, -87.61261305912258)",2012-10-02
10/02/2012,Completed,10/02/2012,12-01701149,Tree Trim,,4839 S FORRESTVILLE AVE,60615.0,1180742.85992729,1873051.24681985,4.0,2.0,38.0,41.80690713629205,-87.61261237096393,"(41.806907136292054, -87.61261237096393)",2012-10-02
10/02/2012,Completed,10/02/2012,12-01701150,Tree Trim,,4845 S FORRESTVILLE AVE,60615.0,1180743.85992729,1873011.04681985,4.0,2.0,38.0,41.80679680112818,-87.61260993972712,"(41.80679680112818, -87.61260993972711)",2012-10-02
10/02/2012,Completed,10/02/2012,12-01701248,Tree Trim,,2734 E 79TH ST,60649.0,1195974.62007641,1853119.85746805,7.0,4.0,43.0,41.75185008399565,-87.5574078043262,"(41.75185008399565, -87.5574078043262)",2012-10-02
10/02/2012,Completed,10/02/2012,12-01701268,Tree Trim,,9521 S CONSTANCE AVE,60617.0,1190188.33999721,1842199.71002953,7.0,4.0,51.0,41.722025391694494,-87.57896225268644,"(41.722025391694494, -87.57896225268644)",2012-10-02
10/02/2012,Completed,10/02/2012,12-01701273,Tree Trim,,9657 S VAN VLISSINGEN RD,60617.0,1190485.09863135,1841296.25900406,7.0,4.0,51.0,41.71953908779222,-87.57790432710523,"(41.71953908779222, -87.57790432710523)",2012-10-02
10/02/2012,Completed,10/02/2012,12-01701276,Tree Trim,,9661 S VAN VLISSINGEN RD,60617.0,1190502.69863135,1841270.65900406,7.0,4.0,51.0,41.719468414930866,-87.5778406873921,"(41.719468414930866, -87.57784068739211)",2012-10-02
10/02/2012,Completed,10/02/2012,12-01701278,Tree Trim,,9667 S VAN VLISSINGEN RD,60617.0,1190529.09863135,1841232.05900406,7.0,4.0,51.0,41.71936185675255,-87.57774523451187,"(41.71936185675255, -87.57774523451187)",2012-10-02
10/02/2012,Completed,10/02/2012,12-01701314,Tree Trim,,2412 W 83RD ST,60652.0,1161681.46769908,1849540.72832834,18.0,8.0,70.0,41.742808366197856,-87.6831754380689,"(41.74280836619785, -87.6831754380689)",2012-10-02
10/02/2012,Completed,10/02/2012,12-01701315,Tree Trim,,2430 W 83RD ST,60652.0,1161478.45991575,1849535.18320314,18.0,8.0,70.0,41.74279735604222,-87.68391942190893,"(41.74279735604222, -87.68391942190894)",2012-10-02
10/02/2012,Completed,10/02/2012,12-01701316,Tree Trim,,2444 W 83RD ST,60652.0,1161407.85991575,1849533.08320314,18.0,8.0,70.0,41.742793055090935,-87.68417816180443,"(41.742793055090935, -87.68417816180444)",2012-10-02
10/02/2012,Completed,10/02/2012,12-01701317,Tree Trim,,2458 W 83RD ST,60652.0,1161338.65991575,1849531.08320314,18.0,8.0,70.0,41.74278899900247,-87.6844317692418,"(41.74278899900247, -87.68443176924178)",2012-10-02
10/02/2012,Completed,10/02/2012,12-01701322,Tree Trim,,2508 W 83RD ST,60652.0,1161050.13996571,1849522.36990072,18.0,8.0,70.0,41.7427710537669,-87.68548916088396,"(41.74277105376691, -87.68548916088395)",2012-10-02
10/02/2012,Completed,10/02/2012,12-01701325,Tree Trim,,2524 W 83RD ST,60652.0,1160878.61017666,1849517.02547927,18.0,8.0,70.0,41.742759929768525,-87.68611780166712,"(41.74275992976852, -87.68611780166711)",2012-10-02
10/02/2012,Completed,10/02/2012,12-01701329,Tree Trim,,2534 W 83RD ST,60652.0,1160780.01017666,1849514.02547927,18.0,8.0,70.0,41.7427537317397,-87.68647915946609,"(41.742753731739704, -87.6864791594661)",2012-10-02
10/02/2012,Completed,10/02/2012,12-01701344,Tree Trim,,2245 W 69TH ST,60636.0,1162411.36071929,1858860.55780467,17.0,8.0,66.0,41.76836818395512,-87.68024184640255,"(41.76836818395512, -87.68024184640254)",2012-10-02
10/02/2012,Completed,10/09/2012,12-01700349,Tree Trim,Parkway,3600 W OGDEN AVE,60623.0,1152680.88098837,1890200.96657483,24.0,10.0,29.0,41.8545678317135,-87.71508264890663,"(41.8545678317135, -87.71508264890662)",2012-10-02
10/02/2012,Completed,10/11/2012,12-01698711,Tree Trim,Parkway,4730 N MALDEN ST,60640.0,1166618.34943145,1931535.69033121,46.0,19.0,3.0,41.96770614852311,-87.66274016944374,"(41.967706148523106, -87.66274016944375)",2012-10-02
10/02/2012,Completed,10/15/2012,12-01701072,Tree Trim,,336 W WELLINGTON AVE,60657.0,1173329.5898,1920251.9730000002,44.0,19.0,6.0,41.936596508646545,-87.63840017008461,"(41.93659650864655, -87.63840017008461)",2012-10-02
10/02/2012,Completed,10/18/2012,12-01702176,Tree Trim,Parkway,3659 N OSCEOLA AVE,60634.0,1125762.24623135,1923357.82729985,36.0,16.0,17.0,41.946044359986594,-87.81314928408527,"(41.94604435998659, -87.81314928408528)",2012-10-02
10/02/2012,Completed,10/22/2012,12-01698221,Tree Trim,Parkway,3749 W 77TH PL,60652.0,1152633.59768602,1852882.84988492,18.0,8.0,70.0,41.75216252179703,-87.71623960702408,"(41.752162521797025, -87.71623960702408)",2012-10-02
10/02/2012,Completed,10/22/2012,12-01699766,Tree Trim,Parkway,6135 N BROADWAY,60660.0,1167188.69001749,1940907.85001626,48.0,24.0,77.0,41.993411348985795,-87.66037234769794,"(41.993411348985795, -87.66037234769794)",2012-10-02
10/02/2012,Completed,10/25/2012,12-01696593,Tree Trim,Parkway,3000 W MADISON ST,60612.0,1156389.86050461,1899869.63743071,2.0,13.0,27.0,41.881025585433704,-87.7012077535624,"(41.8810255854337, -87.70120775356239)",2012-10-02
10/02/2012,Completed,10/30/2012,12-01699814,Tree Trim,Parkway,5504 N SHERIDAN RD,60640.0,1168643.1433788,1936758.69009222,48.0,20.0,77.0,41.98199447611167,-87.65514319173515,"(41.981994476111666, -87.65514319173515)",2012-10-02
10/02/2012,Completed,10/31/2012,12-01700043,Tree Trim,Parkway,1403 W RASCHER AVE,60640.0,1165971.17003166,1936305.88000109,48.0,20.0,77.0,41.980809584559395,-87.66498293947058,"(41.980809584559395, -87.66498293947058)",2012-10-02
10/02/2012,Completed,11/01/2012,12-01701649,Tree Trim,,6108 N LOWELL AVE,60646.0,1146318.47998753,1940312.30001229,39.0,17.0,12.0,41.99220150158476,-87.73715678835686,"(41.99220150158476, -87.73715678835686)",2012-10-02
10/02/2012,Completed,11/06/2012,12-01699842,Tree Trim,Parkway,1341 W BALMORAL AVE,60640.0,1166290.54790111,1935981.75006936,48.0,20.0,77.0,41.97991331805017,-87.66381769772042,"(41.979913318050166, -87.66381769772042)",2012-10-02
10/02/2012,Completed,11/07/2012,12-01699385,Tree Trim,Parkway,8958 S OGLESBY AVE,60617.0,1193394.45312657,1846029.89628304,7.0,4.0,48.0,41.73245808497151,-87.56709408673069,"(41.732458084971505, -87.56709408673068)",2012-10-02
10/02/2012,Completed,11/08/2012,12-01699407,Tree Trim,Parkway,1622 N ORCHARD ST,60614.0,1171370.25261467,1911130.59007357,43.0,18.0,7.0,41.911610365152825,-87.64586966118416,"(41.911610365152825, -87.64586966118416)",2012-10-02
10/02/2012,Completed,12/03/2012,12-01701788,Tree Trim,Parkway,6800 N ORIOLE AVE,60631.0,1124727.94712643,1944526.17032831,41.0,16.0,9.0,42.004149751545604,-87.81648165855488,"(42.004149751545604, -87.81648165855488)",2012-10-02
10/02/2012,Completed,12/19/2012,12-01697325,Tree Trim,Parkway,1642 W 32ND PL,60608.0,1165923.22997947,1883075.75997023,11.0,9.0,59.0,41.834743648451145,-87.66668069575847,"(41.83474364845115, -87.66668069575847)",2012-10-02
10/02/2012,Completed,12/19/2012,12-01702010,Tree Trim,,2850 S THROOP ST,60608.0,1169319.26577119,1886291.01802346,11.0,9.0,60.0,41.8434936131048,-87.65412643570117,"(41.8434936131048, -87.65412643570117)",2012-10-02
10/02/2012,Completed,12/20/2012,12-01698526,Tree Trim,Parkway,2622 E 74TH ST,60649.0,1194774.7345919,1856416.13660319,7.0,3.0,43.0,41.76092493389361,-87.56169639959322,"(41.760924933893605, -87.56169639959322)",2012-10-02
10/03/2012,Completed - Dup,01/07/2013,12-01706508,Tree Trim,Parkway,6921 S KIMBARK AVE,60637.0,1185924.77993439,1859445.34198557,5.0,3.0,69.0,41.76945061728657,-87.59403608274178,"(41.76945061728657, -87.59403608274178)",2012-10-03
10/03/2012,Completed - Dup,01/08/2013,12-01702974,Tree Trim,Parkway,11918 S CALUMET AVE,60628.0,1180368.86107963,1825927.62997727,9.0,5.0,53.0,41.67760308173846,-87.61542593602238,"(41.67760308173846, -87.61542593602238)",2012-10-03
10/03/2012,Completed - Dup,01/08/2013,12-01703064,Tree Trim,Parkway,6241 W WARWICK AVE,60634.0,1134095.90809824,1924280.95970282,38.0,16.0,17.0,41.94843466291093,-87.78249514726767,"(41.94843466291093, -87.78249514726767)",2012-10-03
10/03/2012,Completed - Dup,01/08/2013,12-01704989,Tree Trim,Parkway,8750 S THROOP ST,60620.0,1169180.25469882,1847080.48137567,21.0,22.0,71.0,41.735898345421695,-87.65577059833586,"(41.735898345421695, -87.65577059833586)",2012-10-03
10/03/2012,Completed - Dup,01/08/2013,12-01705275,Tree Trim,Parkway,7748 S OGLESBY AVE,60649.0,1193212.33168965,1854048.62918127,7.0,4.0,43.0,41.75446662299243,-87.56749982855251,"(41.75446662299243, -87.56749982855251)",2012-10-03
10/03/2012,Completed - Dup,01/28/2013,12-01704623,Tree Trim,Parkway,3517 N LINDER AVE,60641.0,1139067.53808572,1922922.23823237,38.0,16.0,15.0,41.944617065180324,-87.76425329866713,"(41.94461706518032, -87.76425329866713)",2012-10-03
10/03/2012,Completed - Dup,02/06/2013,12-01707228,Tree Trim,Parkway,7617 S GREEN ST,60620.0,1171956.48532824,1854344.42363062,17.0,6.0,71.0,41.75577113478726,-87.6453867522952,"(41.75577113478726, -87.64538675229518)",2012-10-03
10/03/2012,Completed - Dup,02/11/2013,12-01706430,Tree Trim,,9127 S MARSHFIELD AVE,60620.0,1166942.49763268,1844166.29367083,21.0,22.0,73.0,41.72794943124739,-87.66405195462751,"(41.72794943124739, -87.66405195462751)",2012-10-03
10/03/2012,Completed - Dup,02/26/2013,12-01703561,Tree Trim,Parkway,2747 N RUTHERFORD AVE,60707.0,1130950.07349788,1917521.7765994,36.0,25.0,18.0,41.92994157895772,-87.79421508525519,"(41.92994157895772, -87.79421508525519)",2012-10-03
10/03/2012,Completed - Dup,03/25/2013,12-01702610,Tree Trim,Parkway,1852 W CULLERTON ST,60608.0,1164332.83422728,1890435.82259955,25.0,12.0,31.0,41.85497411659546,-87.67230843705319,"(41.85497411659546, -87.67230843705319)",2012-10-03
10/03/2012,Completed - Dup,10/04/2012,12-01704934,Tree Trim,Parkway,2901 N OAK PARK AVE,60634.0,1130587.24179298,1918532.69740166,36.0,25.0,18.0,41.93272191975301,-87.79552512131153,"(41.93272191975301, -87.79552512131153)",2012-10-03
10/03/2012,Completed - Dup,10/04/2012,12-01705478,Tree Trim,Parkway,8500 W BRODMAN AVE,60656.0,1118565.91982626,1928340.91591282,36.0,16.0,76.0,41.95983539396652,-87.83949570055414,"(41.959835393966515, -87.83949570055414)",2012-10-03
10/03/2012,Completed - Dup,10/09/2012,12-01705724,Tree Trim,Parkway,3600 W OGDEN AVE,60623.0,1152680.88098837,1890200.96657483,24.0,10.0,29.0,41.8545678317135,-87.71508264890663,"(41.8545678317135, -87.71508264890662)",2012-10-03
10/03/2012,Completed - Dup,10/11/2012,12-01703773,Tree Trim,Parkway,8601 S LOWE AVE,60620.0,1173474.28717594,1847815.17867818,21.0,6.0,71.0,41.73782060822489,-87.64001718104922,"(41.73782060822488, -87.64001718104922)",2012-10-03
10/03/2012,Completed - Dup,10/17/2012,12-01703979,Tree Trim,Parkway,5470 W THOMAS ST,60651.0,1139542.30518567,1906792.61708439,37.0,15.0,25.0,41.900346961709715,-87.76290260229909,"(41.900346961709715, -87.76290260229909)",2012-10-03
10/03/2012,Completed - Dup,10/31/2012,12-01703472,Tree Trim,Parkway,29 S MAYFIELD AVE,60644.0,1137282.02979521,1899297.68510906,29.0,15.0,25.0,41.87982084446918,-87.7713851082277,"(41.87982084446918, -87.7713851082277)",2012-10-03
10/03/2012,Completed - Dup,10/31/2012,12-01705921,Tree Trim,Parkway,4427 W IOWA ST,60651.0,1146692.73926679,1905628.51319214,37.0,11.0,23.0,41.89701906482706,-87.73666820171309,"(41.89701906482706, -87.7366682017131)",2012-10-03
10/03/2012,Completed - Dup,11/01/2012,12-01702631,Tree Trim,Parkway,5220 W MONTANA ST,60639.0,1141176.42802672,1915806.65951933,31.0,25.0,19.0,41.92505252150367,-87.75667771310711,"(41.92505252150367, -87.75667771310711)",2012-10-03
10/03/2012,Completed - Dup,11/01/2012,12-01706505,Tree Trim,Parkway,2223 W WELLINGTON AVE,60618.0,1161013.32602151,1919888.67977984,1.0,19.0,5.0,41.935864648626506,-87.68367392661392,"(41.935864648626506, -87.68367392661392)",2012-10-03
10/03/2012,Completed - Dup,11/27/2012,12-01706029,Tree Trim,Parkway,4734 S KARLOV AVE,60632.0,1149824.82072926,1872923.42899091,14.0,8.0,57.0,41.80721189117928,-87.7260139981681,"(41.80721189117927, -87.72601399816811)",2012-10-03
10/03/2012,Completed,01/04/2013,12-01707496,Tree Trim,Parkway,2654 W AUGUSTA BLVD,60622.0,1158518.7978193997,1906550.54428198,1.0,13.0,24.0,41.89931529567652,-87.69320740650268,"(41.89931529567652, -87.69320740650268)",2012-10-03
10/03/2012,Completed,01/09/2013,12-01704748,Tree Trim,Parkway,3300 N KILPATRICK AVE,60641.0,1144601.36622087,1921528.93682962,30.0,17.0,15.0,41.940691101431305,-87.74394822543978,"(41.940691101431305, -87.74394822543978)",2012-10-03
10/03/2012,Completed,01/10/2013,12-01707685,Tree Trim,Parkway,1565 N KINGSBURY ST,60642.0,1169362.65309195,1910477.81012616,32.0,18.0,8.0,41.90986301801552,-87.65326391843469,"(41.909863018015514, -87.6532639184347)",2012-10-03
10/03/2012,Completed,01/10/2013,12-01707743,Tree Trim,,2700 W AUGUSTA BLVD,60622.0,1158213.8978193998,1906543.74428198,1.0,13.0,24.0,41.899302873210225,-87.69432748702852,"(41.899302873210225, -87.69432748702853)",2012-10-03
10/03/2012,Completed,01/14/2013,12-01705399,Tree Trim,Vacant Lot,6747 S GREEN ST,60621.0,1171800.2201108,1860108.03508888,6.0,7.0,68.0,41.77159062516084,-87.64579059585512,"(41.77159062516084, -87.64579059585512)",2012-10-03
10/03/2012,Completed,01/17/2013,12-01704646,Tree Trim,Parkway,1016 S MAY ST,60607.0,1168944.23127961,1895668.20680767,25.0,12.0,28.0,41.86923354393201,-87.65523095386021,"(41.869233543932005, -87.6552309538602)",2012-10-03
10/03/2012,Completed,01/18/2013,12-01707559,Tree Trim,Parkway,200 N LECLAIRE AVE,60644.0,1142341.7849852,1900983.39417807,28.0,15.0,25.0,41.884354224385845,-87.75276423656183,"(41.88435422438584, -87.75276423656183)",2012-10-03
10/03/2012,Completed,01/23/2013,12-01705191,Tree Trim,Parkway,2314 N KEYSTONE AVE,60639.0,1149000.44872358,1915075.42009548,31.0,25.0,20.0,41.92289795111717,-87.72794736256758,"(41.92289795111717, -87.72794736256758)",2012-10-03
10/03/2012,Completed,01/24/2013,12-01707849,Tree Trim,Parkway,9930 S MORGAN ST,60643.0,1171401.3700041,1838969.39998884,34.0,22.0,73.0,41.71359210178312,-87.64786987271,"(41.713592101783114, -87.64786987271)",2012-10-03
10/03/2012,Completed,01/28/2013,12-01707378,Tree Trim,Parkway,11431 S FAIRFIELD AVE,60655.0,1160095.04921445,1828707.71987621,19.0,22.0,75.0,41.68567176023025,-87.68955889569185,"(41.68567176023025, -87.68955889569185)",2012-10-03
10/03/2012,Completed,01/29/2013,12-01704004,Tree Trim,Parkway,10643 S AVENUE J,60617.0,1202509.11059206,1834991.75827448,10.0,4.0,52.0,41.7019410750435,-87.53407931433891,"(41.7019410750435, -87.5340793143389)",2012-10-03
10/03/2012,Completed,02/20/2013,12-01704371,Tree Trim,Parkway,1641 S TRUMBULL AVE,60623.0,1153639.00067489,1891552.2818330002,24.0,10.0,29.0,41.85825701208733,-87.71153000809362,"(41.85825701208733, -87.71153000809363)",2012-10-03
10/03/2012,Completed,02/22/2013,12-01707124,Tree Trim,Parkway,3232 N NATOMA AVE,60634.0,1131511.57079123,1920898.3800005,36.0,16.0,17.0,41.939197667070204,-87.79207335106081,"(41.9391976670702, -87.79207335106082)",2012-10-03
10/03/2012,Completed,03/21/2013,12-01704199,Tree Trim,Parkway,4764 N LINDER AVE,60630.0,1138809.57106954,1931111.48882971,45.0,16.0,15.0,41.96709383663009,-87.76500186929606,"(41.96709383663009, -87.76500186929607)",2012-10-03
10/03/2012,Completed,04/01/2013,12-01703903,Tree Trim,Parkway,13500 S AVENUE M,60633.0,1201761.40251342,1816062.46089034,10.0,4.0,55.0,41.650016234323544,-87.53745734309466,"(41.65001623432355, -87.53745734309466)",2012-10-03
10/03/2012,Completed,10/03/2012,12-01706434,Tree Trim,,2936 W LOGAN BLVD,60647.0,1156235.46258837,1917144.7329263,35.0,14.0,22.0,41.92843306694901,-87.70130733142429,"(41.92843306694901, -87.7013073314243)",2012-10-03
10/03/2012,Completed,10/03/2012,12-01706443,Tree Trim,,6031 N KENMORE AVE,60660.0,1168150.64521015,1940189.6835257,48.0,24.0,77.0,41.991419887376686,-87.6568547906794,"(41.99141988737669, -87.6568547906794)",2012-10-03
10/03/2012,Completed,10/03/2012,12-01706445,Tree Trim,,6043 N KENMORE AVE,60660.0,1168148.84521015,1940248.6835257,48.0,24.0,77.0,41.991581823617175,-87.65685969725494,"(41.991581823617175, -87.65685969725494)",2012-10-03
10/03/2012,Completed,10/03/2012,12-01706448,Tree Trim,,6108 N KENMORE AVE,60660.0,1168138.31428998,1940590.23096922,48.0,24.0,77.0,41.992519265064104,-87.65688850917087,"(41.9925192650641, -87.65688850917088)",2012-10-03
10/03/2012,Completed,10/03/2012,12-01706451,Tree Trim,,6110 N KENMORE AVE,60660.0,1168137.81428998,1940606.83096922,48.0,24.0,77.0,41.9925648266381,-87.6568898660097,"(41.9925648266381, -87.65688986600972)",2012-10-03
10/03/2012,Completed,10/03/2012,12-01706454,Tree Trim,,6142 N KENMORE AVE,60660.0,1168129.51428998,1940872.53096922,48.0,24.0,77.0,41.99329409267735,-87.65691267623882,"(41.993294092677345, -87.65691267623883)",2012-10-03
10/03/2012,Completed,10/03/2012,12-01706456,Tree Trim,,6150 N KENMORE AVE,60660.0,1168140.41428998,1940523.83096922,48.0,24.0,77.0,41.992337016596906,-87.65688271400015,"(41.99233701659691, -87.65688271400015)",2012-10-03
10/03/2012,Completed,10/03/2012,12-01706676,Tree Trim,,4145 N KILBOURN AVE,60641.0,1145471.9450035,1927179.75079147,38.0,17.0,16.0,41.9561809509253,-87.74060487550507,"(41.956180950925294, -87.74060487550506)",2012-10-03
10/03/2012,Completed,10/03/2012,12-01706677,Tree Trim,,5738 W WILSON AVE,60630.0,1137255.09242182,1930005.71349347,38.0,16.0,15.0,41.964087639842155,-87.77074427644861,"(41.96408763984216, -87.77074427644861)",2012-10-03
10/03/2012,Completed,10/03/2012,12-01706679,Tree Trim,,5741 W WILSON AVE,60630.0,1137234.89242182,1930005.21349347,38.0,16.0,15.0,41.96408663172125,-87.77081855905065,"(41.964086631721244, -87.77081855905065)",2012-10-03
10/03/2012,Completed,10/03/2012,12-01706747,Tree Trim,,6501 W HIGHLAND AVE,60631.0,1131964.17487072,1941751.99009113,41.0,16.0,10.0,41.996414208993095,-87.78992376466292,"(41.99641420899309, -87.7899237646629)",2012-10-03
10/03/2012,Completed,10/03/2012,12-01706756,Tree Trim,,3845 N OAK PARK AVE,60634.0,1130368.68002175,1924961.36009482,38.0,16.0,17.0,41.95036667240801,-87.79618028911086,"(41.95036667240801, -87.79618028911088)",2012-10-03
10/03/2012,Completed,10/03/2012,12-01706761,Tree Trim,,6310 W WAVELAND AVE,60634.0,1133652.66640854,1923940.32448209,38.0,16.0,17.0,41.94750772874091,-87.78413246812912,"(41.94750772874091, -87.78413246812913)",2012-10-03
10/03/2012,Completed,10/03/2012,12-01706810,Tree Trim,,3914 S PRAIRIE AVE,60653.0,1178683.37012441,1879097.72638122,3.0,2.0,38.0,41.82354632681543,-87.61998176038801,"(41.82354632681543, -87.61998176038801)",2012-10-03
10/03/2012,Completed,10/03/2012,12-01706815,Tree Trim,,4300 S CALUMET AVE,60653.0,1179149.54312878,1876574.40737181,3.0,2.0,38.0,41.816611502573316,-87.61834858871306,"(41.81661150257332, -87.61834858871306)",2012-10-03
10/03/2012,Completed,10/03/2012,12-01706818,Tree Trim,,4301 S CALUMET AVE,60653.0,1179149.74312878,1876567.70737181,3.0,2.0,38.0,41.81659311265626,-87.61834805956967,"(41.81659311265626, -87.61834805956967)",2012-10-03
10/03/2012,Completed,10/03/2012,12-01706819,Tree Trim,,4300 S CALUMET AVE,60653.0,1179149.54312878,1876574.40737181,3.0,2.0,38.0,41.816611502573316,-87.61834858871306,"(41.81661150257332, -87.61834858871306)",2012-10-03
10/03/2012,Completed,10/03/2012,12-01706821,Tree Trim,,4301 S CALUMET AVE,60653.0,1179149.74312878,1876567.70737181,3.0,2.0,38.0,41.81659311265626,-87.61834805956967,"(41.81659311265626, -87.61834805956967)",2012-10-03
10/03/2012,Completed,10/03/2012,12-01706831,Tree Trim,,4317 S CALUMET AVE,60653.0,1179152.64312878,1876461.00737181,3.0,2.0,38.0,41.816300252866384,-87.61834067850113,"(41.816300252866384, -87.61834067850113)",2012-10-03
10/03/2012,Completed,10/03/2012,12-01706833,Tree Trim,,4023 W WAVELAND AVE,60641.0,1148865.57909022,1924288.17311847,30.0,17.0,16.0,41.94818114885636,-87.7282039870797,"(41.94818114885636, -87.7282039870797)",2012-10-03
10/03/2012,Completed,10/03/2012,12-01706834,Tree Trim,,4357 S CALUMET AVE,60653.0,1179159.93139329,1876194.0615896,3.0,2.0,38.0,41.81556756521057,-87.61832209165856,"(41.81556756521057, -87.61832209165856)",2012-10-03
10/03/2012,Completed,10/03/2012,12-01706836,Tree Trim,,3358 N KEATING AVE,60641.0,1144235.8860103998,1921910.31297859,30.0,17.0,15.0,41.94174452019155,-87.74528189496374,"(41.94174452019155, -87.74528189496374)",2012-10-03
10/03/2012,Completed,10/03/2012,12-01706840,Tree Trim,,4355 S CALIFORNIA AVE,60632.0,1158425.13970047,1875656.04842277,12.0,9.0,58.0,41.814539449558936,-87.69439583097494,"(41.81453944955894, -87.69439583097493)",2012-10-03
10/03/2012,Completed,10/03/2012,12-01706841,Tree Trim,,4355 S CALUMET AVE,60653.0,1179159.53139329,1876207.4615896,3.0,2.0,38.0,41.81560434505115,-87.618323149922,"(41.81560434505115, -87.618323149922)",2012-10-03
10/03/2012,Completed,10/03/2012,12-01706875,Tree Trim,,239 S LAVERGNE AVE,60644.0,1143298.38311976,1898517.36796633,28.0,15.0,25.0,41.87756933367104,-87.74931306828934,"(41.87756933367104, -87.74931306828935)",2012-10-03
10/03/2012,Completed,10/03/2012,12-01706879,Tree Trim,,234 S LAVERGNE AVE,60644.0,1143297.48311976,1898542.76796633,28.0,15.0,25.0,41.87763905123035,-87.74931573828249,"(41.877639051230354, -87.74931573828248)",2012-10-03
10/03/2012,Completed,10/03/2012,12-01706881,Tree Trim,,240 S LAVERGNE AVE,60644.0,1143298.58311976,1898512.26796633,28.0,15.0,25.0,41.87755533490313,-87.7493124613554,"(41.87755533490313, -87.74931246135539)",2012-10-03
10/03/2012,Completed,10/03/2012,12-01706883,Tree Trim,,250 S LAVERGNE AVE,60644.0,1143300.28311976,1898461.36796633,28.0,15.0,25.0,41.87741562723637,-87.7493074910619,"(41.877415627236374, -87.74930749106191)",2012-10-03
10/03/2012,Completed,10/03/2012,12-01706884,Tree Trim,,251 S LAVERGNE AVE,60644.0,1143300.48311976,1898456.26796633,28.0,15.0,25.0,41.87740162846808,-87.74930688413023,"(41.87740162846808, -87.74930688413023)",2012-10-03
10/03/2012,Completed,10/03/2012,12-01706908,Tree Trim,,5955 S KOMENSKY AVE,60629.0,1150388.32391398,1864800.47543436,13.0,8.0,65.0,41.78491033743187,-87.72415833563355,"(41.78491033743187, -87.72415833563355)",2012-10-03
10/03/2012,Completed,10/03/2012,12-01706918,Tree Trim,,5122 W ALTGELD ST,60639.0,1141821.29130898,1916152.45888602,31.0,25.0,19.0,41.92598950610232,-87.75429957822948,"(41.92598950610232, -87.75429957822949)",2012-10-03
10/03/2012,Completed,10/03/2012,12-01706922,Tree Trim,,5126 W ALTGELD ST,60639.0,1141794.29130898,1916151.85888602,31.0,25.0,19.0,41.92598835991687,-87.75439880624266,"(41.925988359916865, -87.75439880624265)",2012-10-03
10/03/2012,Completed,10/03/2012,12-01706925,Tree Trim,,5128 W ALTGELD ST,60639.0,1141780.69130898,1916151.45888602,31.0,25.0,19.0,41.92598751423419,-87.75444879018498,"(41.92598751423419, -87.75444879018497)",2012-10-03
10/03/2012,Completed,10/03/2012,12-01706926,Tree Trim,,5144 W ALTGELD ST,60639.0,1141672.49130898,1916148.85888602,31.0,25.0,19.0,41.9259823833436,-87.75484644207485,"(41.925982383343595, -87.75484644207484)",2012-10-03
10/03/2012,Completed,10/03/2012,12-01706929,Tree Trim,,5121 W ALTGELD ST,60639.0,1141828.09130898,1916152.65888602,31.0,25.0,19.0,41.9259899289139,-87.75427458625705,"(41.9259899289139, -87.75427458625707)",2012-10-03
10/03/2012,Completed,10/03/2012,12-01706932,Tree Trim,,5025 W GEORGE ST,60641.0,1142375.57091281,1918814.63691676,31.0,25.0,19.0,41.93328450151128,-87.75219654234154,"(41.93328450151128, -87.75219654234154)",2012-10-03
10/03/2012,Completed,10/03/2012,12-01706934,Tree Trim,,5023 W GEORGE ST,60641.0,1142389.07091281,1918815.03691676,31.0,25.0,19.0,41.93328534803655,-87.75214692018017,"(41.93328534803655, -87.75214692018017)",2012-10-03
10/03/2012,Completed,10/03/2012,12-01706938,Tree Trim,,5020 W GEORGE ST,60641.0,1142409.37091281,1918815.43691676,31.0,25.0,19.0,41.933286068034256,-87.75207230817026,"(41.933286068034256, -87.75207230817027)",2012-10-03
10/03/2012,Completed,10/03/2012,12-01707003,Tree Trim,,9044 S LOOMIS ST,60620.0,1168582.92782259,1844777.35459231,21.0,22.0,73.0,41.72959111428071,-87.65802519056737,"(41.72959111428071, -87.65802519056737)",2012-10-03
10/03/2012,Completed,10/03/2012,12-01707005,Tree Trim,,9048 S LOOMIS ST,60620.0,1168583.62782259,1844750.65459231,21.0,22.0,73.0,41.72951783048547,-87.65802339364302,"(41.72951783048547, -87.65802339364302)",2012-10-03
10/03/2012,Completed,10/03/2012,12-01707007,Tree Trim,,8811 S THROOP ST,60620.0,1169203.61650797,1846299.90448599,21.0,22.0,71.0,41.73375582596242,-87.65570752479337,"(41.733755825962426, -87.65570752479337)",2012-10-03
10/03/2012,Completed,10/03/2012,12-01707060,Tree Trim,,7200 S LAWNDALE AVE,60629.0,1152947.69369717,1856607.51318773,13.0,8.0,65.0,41.76237742316045,-87.71499046346231,"(41.762377423160444, -87.71499046346231)",2012-10-03
10/03/2012,Completed,10/03/2012,12-01707075,Tree Trim,,7258 S LAWNDALE AVE,60629.0,1152959.21991266,1856224.73429873,13.0,8.0,65.0,41.76132678836819,-87.71495830303255,"(41.76132678836819, -87.71495830303255)",2012-10-03
10/03/2012,Completed,10/05/2012,12-01707958,Tree Trim,Parkway,10000 S STATE ST,60628.0,1178022.09542785,1838671.13080531,9.0,5.0,49.0,41.712626414681786,-87.62363146793884,"(41.71262641468179, -87.62363146793884)",2012-10-03
10/03/2012,Completed,10/11/2012,12-01705389,Tree Trim,Parkway,1358 W WINONA ST,60640.0,1166310.44547901,1934325.40896785,46.0,20.0,3.0,41.975367839455345,-87.66379213387262,"(41.97536783945534, -87.66379213387263)",2012-10-03
10/03/2012,Completed,10/11/2012,12-01707963,Tree Trim,Parkway,8100 S LA SALLE ST,60620.0,1176684.40367267,1851273.1841288002,21.0,6.0,44.0,41.74723823471825,-87.62815237284487,"(41.747238234718246, -87.62815237284488)",2012-10-03
10/03/2012,Completed,10/11/2012,12-01707964,Tree Trim,Parkway,8100 S PERRY AVE,60620.0,1177016.59961421,1851284.16699528,21.0,6.0,44.0,41.74726089570953,-87.62693479072277,"(41.74726089570953, -87.62693479072276)",2012-10-03
10/03/2012,Completed,10/19/2012,12-01706963,Tree Trim,Parkway,3654 S GILES AVE,60653.0,1178862.62002237,1880808.04560356,2.0,2.0,35.0,41.82823549082523,-87.61927201437645,"(41.82823549082523, -87.61927201437645)",2012-10-03
10/03/2012,Completed,10/24/2012,12-01704855,Tree Trim,Parkway,343 W 30TH ST,60616.0,1174398.1226672,1884935.98507181,11.0,9.0,34.0,41.83966356332716,-87.63552867392563,"(41.83966356332716, -87.63552867392563)",2012-10-03
10/03/2012,Completed,11/01/2012,12-01706780,Tree Trim,Parkway,6649 N CALDWELL AVE,60646.0,1135615.10741484,1943751.57560694,41.0,16.0,12.0,42.00183686679531,-87.77644551320385,"(42.00183686679531, -87.77644551320385)",2012-10-03
10/03/2012,Completed,11/09/2012,12-01706997,Tree Trim,Parkway,11450 S VINCENNES AVE,60643.0,1166366.44703361,1829129.2238027,19.0,22.0,75.0,41.686697541998775,-87.66658863338486,"(41.686697541998775, -87.66658863338486)",2012-10-03
10/03/2012,Completed,11/15/2012,12-01705924,Tree Trim,Vacant Lot,10200 S MORGAN ST,60643.0,1171450.02790894,1837183.06602592,34.0,22.0,73.0,41.70868907041021,-87.64774375968176,"(41.70868907041021, -87.64774375968175)",2012-10-03
10/03/2012,Completed,11/19/2012,12-01703816,Tree Trim,Parkway,218 E 44TH ST,60653.0,1178414.67858687,1875892.16727126,3.0,2.0,38.0,41.814756125545884,-87.62106496587369,"(41.81475612554588, -87.62106496587367)",2012-10-03
10/03/2012,Completed,11/26/2012,12-01706077,Tree Trim,Parkway,2838 W 80TH ST,60652.0,1158738.55942927,1851451.30159771,18.0,8.0,70.0,41.748111792309906,-87.69390639409004,"(41.748111792309906, -87.69390639409005)",2012-10-03
10/03/2012,Completed,12/03/2012,12-01705632,Tree Trim,Parkway,10305 S AVENUE N,60617.0,1201167.49997367,1837230.366084,10.0,4.0,52.0,41.7081180678486,-87.53891615262471,"(41.7081180678486, -87.53891615262471)",2012-10-03
10/03/2012,Completed,12/19/2012,12-01704861,Tree Trim,Parkway,831 W 34TH ST,60608.0,1171265.59998874,1882406.72999449,11.0,9.0,60.0,41.83279232197822,-87.64709773716982,"(41.83279232197822, -87.64709773716982)",2012-10-03
10/03/2012,Completed,12/28/2012,12-01704866,Tree Trim,Parkway,840 W 34TH ST,60608.0,1171212.09998874,1882405.42999449,11.0,9.0,60.0,41.83278992728909,-87.64729407474569,"(41.83278992728909, -87.64729407474569)",2012-10-03
10/04/2012,Completed - Dup,01/04/2013,12-01709141,Tree Trim,Parkway,3433 W BRYN MAWR AVE,60659.0,1152372.29952568,1936998.06722123,39.0,17.0,13.0,41.98298926012366,-87.71497677727808,"(41.98298926012366, -87.71497677727808)",2012-10-04
10/04/2012,Completed - Dup,01/07/2013,12-01709547,Tree Trim,Parkway,10055 S OGLESBY AVE,60617.0,1193817.3142942,1838761.2100326999,7.0,4.0,51.0,41.71250178183003,-87.56578240693476,"(41.71250178183003, -87.56578240693476)",2012-10-04
10/04/2012,Completed - Dup,01/08/2013,12-01709883,Tree Trim,Parkway,5900 W NEWPORT AVE,60634.0,1136429.90861804,1922335.3323756,38.0,16.0,15.0,41.94305417832778,-87.77396235400217,"(41.94305417832778, -87.77396235400217)",2012-10-04
10/04/2012,Completed - Dup,01/08/2013,12-01710142,Tree Trim,Parkway,3859 N RICHMOND ST,60618.0,1156030.68556927,1925511.40901021,33.0,17.0,16.0,41.95139595290637,-87.70183333112145,"(41.95139595290637, -87.70183333112145)",2012-10-04
10/04/2012,Completed - Dup,01/08/2013,12-01710263,Tree Trim,Parkway,3859 N RICHMOND ST,60618.0,1156030.68556927,1925511.40901021,33.0,17.0,16.0,41.95139595290637,-87.70183333112145,"(41.95139595290637, -87.70183333112145)",2012-10-04
10/04/2012,Completed - Dup,01/08/2013,12-01712566,Tree Trim,Parkway,1118 W WOLFRAM ST,60657.0,1168343.70548019,1919082.86618849,44.0,19.0,6.0,41.93349786663529,-87.65675768389777,"(41.933497866635285, -87.65675768389777)",2012-10-04
10/04/2012,Completed - Dup,01/18/2013,12-01712734,Tree Trim,Parkway,7759 S EUCLID AVE,60649.0,1190549.43782269,1853907.36047497,8.0,4.0,43.0,41.754143601483506,-87.57726288875118,"(41.75414360148351, -87.57726288875119)",2012-10-04
10/04/2012,Completed - Dup,01/24/2013,12-01711281,Tree Trim,Parkway,12637 S MUSKEGON AVE,60633.0,1197077.87002016,1821653.50998999,10.0,4.0,55.0,41.66547610877493,-87.55440803100548,"(41.66547610877493, -87.55440803100548)",2012-10-04
10/04/2012,Completed - Dup,01/29/2013,12-01710340,Tree Trim,Parkway,6429 N FRANCISCO AVE,60645.0,1155834.74060505,1942512.67698095,50.0,24.0,2.0,41.998052304559494,-87.70209310783632,"(41.998052304559494, -87.70209310783633)",2012-10-04
10/04/2012,Completed - Dup,01/29/2013,12-01710689,Tree Trim,Parkway,6429 N FRANCISCO AVE,60645.0,1155834.74060505,1942512.67698095,50.0,24.0,2.0,41.998052304559494,-87.70209310783632,"(41.998052304559494, -87.70209310783633)",2012-10-04
10/04/2012,Completed - Dup,02/11/2013,12-01708652,Tree Trim,Parkway,12425 S PERRY AVE,60628.0,1177848.00012844,1822568.25392203,9.0,5.0,53.0,41.66844170128999,-87.62475416033737,"(41.668441701289986, -87.62475416033737)",2012-10-04
10/04/2012,Completed - Dup,03/07/2013,12-01712699,Tree Trim,Parkway,822 W BUCKINGHAM PL,60657.0,1170126.87652206,1922435.92458852,44.0,19.0,6.0,41.9426600002164,-87.65010646848594,"(41.9426600002164, -87.65010646848594)",2012-10-04
10/04/2012,Completed - Dup,03/14/2013,12-01709528,Tree Trim,Parkway,1207 W LEXINGTON ST,60607.0,1168426.1031908998,1896763.33796846,25.0,12.0,28.0,41.872249885792314,-87.65710145287547,"(41.87224988579231, -87.65710145287545)",2012-10-04
10/04/2012,Completed - Dup,03/18/2013,12-01709195,Tree Trim,Parkway,7729 S MORGAN ST,60620.0,1170983.71119987,1853573.50193114,17.0,6.0,71.0,41.75367691624992,-87.64897420945792,"(41.753676916249916, -87.6489742094579)",2012-10-04
10/04/2012,Completed - Dup,03/19/2013,12-01708475,Tree Trim,Parkway,6541 S HARVARD AVE,60621.0,1175189.66661388,1861629.05279821,20.0,7.0,68.0,41.775689440843145,-87.63332068428724,"(41.77568944084315, -87.63332068428724)",2012-10-04
10/04/2012,Completed - Dup,03/21/2013,12-01711926,Tree Trim,Parkway,5442 N MOODY AVE,60630.0,1134095.75147807,1935939.76511565,45.0,16.0,11.0,41.98042757315232,-87.78222007375736,"(41.98042757315232, -87.78222007375736)",2012-10-04
10/04/2012,Completed - Dup,03/25/2013,12-01710701,Tree Trim,Parkway,2731 S MILLARD AVE,60623.0,1152479.07847934,1885605.18789875,22.0,10.0,30.0,41.84196044184832,-87.7159446256711,"(41.84196044184832, -87.7159446256711)",2012-10-04
10/04/2012,Completed - Dup,03/29/2013,12-01709539,Tree Trim,Parkway,1211 W LEXINGTON ST,60607.0,1168382.1031908998,1896762.03796846,25.0,12.0,28.0,41.87224726958506,-87.65726303261681,"(41.87224726958506, -87.65726303261681)",2012-10-04
10/04/2012,Completed - Dup,10/04/2012,12-01709535,Tree Trim,,1918 N NORDICA AVE,60707.0,1128785.84047044,1911966.65907421,36.0,25.0,25.0,41.91473469551782,-87.80229465826359,"(41.91473469551782, -87.8022946582636)",2012-10-04
10/04/2012,Completed - Dup,10/10/2012,12-01711161,Tree Trim,Parkway,2326 W ARGYLE ST,60625.0,1159838.78006767,1933147.74768461,47.0,20.0,4.0,41.97227261402266,-87.68762333279241,"(41.97227261402266, -87.68762333279241)",2012-10-04
10/04/2012,Completed - Dup,10/16/2012,12-01710518,Tree Trim,Parkway,7200 S LUELLA AVE,60649.0,1192463.06862761,1857660.51102005,5.0,3.0,43.0,41.764396184222996,-87.57012816284983,"(41.764396184223, -87.57012816284983)",2012-10-04
10/04/2012,Completed - Dup,10/30/2012,12-01709767,Tree Trim,Parkway,10601 S HOYNE AVE,60643.0,1164245.63619995,1834319.51907473,19.0,22.0,72.0,41.70098539201425,-87.67420721668744,"(41.70098539201426, -87.67420721668742)",2012-10-04
10/04/2012,Completed - Dup,11/01/2012,12-01711358,Tree Trim,Parkway,5339 S SACRAMENTO AVE,60632.0,1157286.7063913,1868976.30992154,14.0,9.0,63.0,41.796232511117026,-87.6987526757069,"(41.79623251111703, -87.6987526757069)",2012-10-04
10/04/2012,Completed - Dup,11/23/2012,12-01708406,Tree Trim,Parkway,2606 S UNION AVE,60616.0,1172067.38002325,1886969.63999691,11.0,9.0,60.0,41.845295728113214,-87.64402152705662,"(41.84529572811321, -87.64402152705661)",2012-10-04
10/04/2012,Completed - Dup,11/28/2012,12-01710848,Tree Trim,Parkway,2149 W 19TH ST,60608.0,1162341.71961286,1890718.8814126998,25.0,12.0,31.0,41.855792688091505,-87.67960879280932,"(41.85579268809151, -87.67960879280932)",2012-10-04
10/04/2012,Completed - Dup,11/30/2012,12-01712017,Tree Trim,Parkway,13204 S AVENUE L,60633.0,1202075.81000776,1817938.40001759,10.0,4.0,55.0,41.655156044501354,-87.53624356726425,"(41.65515604450135, -87.53624356726425)",2012-10-04
10/04/2012,Completed - Dup,12/11/2012,12-01709685,Tree Trim,Parkway,1155 W MONTANA ST,60614.0,1168187.05609437,1916450.3603206002,43.0,19.0,7.0,41.926277528152106,-87.65740962463076,"(41.9262775281521, -87.65740962463076)",2012-10-04
10/04/2012,Completed - Dup,12/11/2012,12-01713156,Tree Trim,Parkway,5009 W HENDERSON ST,60641.0,1142382.55978832,1921807.67518404,38.0,16.0,15.0,41.941497558493,-87.75209628293621,"(41.941497558493, -87.7520962829362)",2012-10-04
10/04/2012,Completed - Dup,12/17/2012,12-01710554,Tree Trim,,537 W 45TH PL,60609.0,1173472.22003296,1874747.16057516,11.0,9.0,61.0,41.81172510329132,-87.63922836915718,"(41.811725103291316, -87.63922836915718)",2012-10-04
10/04/2012,Completed - Dup,12/20/2012,12-01710371,Tree Trim,Parkway,2541 N CENTRAL PARK AVE,60647.0,1151947.7188,1916839.320125,26.0,14.0,22.0,41.927680636354474,-87.71707145172783,"(41.927680636354474, -87.71707145172783)",2012-10-04
10/04/2012,Completed,01/09/2013,12-01710856,Tree Trim,Parkway,5137 S MCVICKER AVE,60638.0,1136903.97007913,1869902.24710456,23.0,8.0,56.0,41.79916202424285,-87.77347686995405,"(41.79916202424285, -87.77347686995404)",2012-10-04
10/04/2012,Completed,01/16/2013,12-01708582,Tree Trim,Parkway,12805 S EMERALD AVE,60628.0,1173660.13822345,1819916.31560514,34.0,5.0,53.0,41.66125780749908,-87.64015893102535,"(41.66125780749908, -87.64015893102535)",2012-10-04
10/04/2012,Completed,01/17/2013,12-01711349,Tree Trim,Parkway,4722 W HARRISON ST,60644.0,1144999.79970577,1896932.47388335,24.0,11.0,25.0,41.87318825106607,-87.74310585993099,"(41.87318825106607, -87.743105859931)",2012-10-04
10/04/2012,Completed,01/23/2013,12-01709983,Tree Trim,Parkway,2911 N KOLMAR AVE,60641.0,1145551.3233792,1918960.69739094,31.0,25.0,20.0,41.93362564212924,-87.7405220294611,"(41.93362564212924, -87.74052202946109)",2012-10-04
10/04/2012,Completed,01/31/2013,12-01712441,Tree Trim,Parkway,10209 S AVENUE L,60617.0,1201824.28821974,1837877.50137314,10.0,4.0,52.0,41.70987720777361,-87.53648909019866,"(41.70987720777361, -87.53648909019866)",2012-10-04
10/04/2012,Completed,02/05/2013,12-01709186,Tree Trim,Parkway,5060 N WINTHROP AVE,60640.0,1167951.51138092,1934009.0297983002,48.0,20.0,3.0,41.97446433117725,-87.65776656716831,"(41.97446433117725, -87.65776656716832)",2012-10-04
10/04/2012,Completed,02/05/2013,12-01709256,Tree Trim,Parkway,5052 N WINTHROP AVE,60640.0,1167953.21138092,1933951.1297983,48.0,20.0,3.0,41.974305415083606,-87.6577619948675,"(41.9743054150836, -87.6577619948675)",2012-10-04
10/04/2012,Completed,02/05/2013,12-01709272,Tree Trim,Parkway,5040 N WINTHROP AVE,60640.0,1167955.68148352,1933864.32462246,48.0,20.0,3.0,41.97406716566267,-87.65775542895237,"(41.97406716566267, -87.65775542895237)",2012-10-04
10/04/2012,Completed,02/05/2013,12-01709290,Tree Trim,Parkway,5039 N WINTHROP AVE,60640.0,1167955.88148352,1933857.02462246,48.0,20.0,3.0,41.97404712991847,-87.65775490519734,"(41.97404712991847, -87.65775490519734)",2012-10-04
10/04/2012,Completed,02/05/2013,12-01712555,Tree Trim,Parkway,10937 S EBERHART AVE,60628.0,1181516.04278823,1832532.94410279,9.0,5.0,49.0,41.69570268294513,-87.61102419643034,"(41.695702682945125, -87.61102419643034)",2012-10-04
10/04/2012,Completed,02/06/2013,12-01711969,Tree Trim,Parkway,9208 S THROOP ST,60620.0,1169278.19953246,1843706.32069055,21.0,22.0,73.0,41.72663704365086,-87.65550911299883,"(41.72663704365086, -87.65550911299883)",2012-10-04
10/04/2012,Completed,02/13/2013,12-01712007,Tree Trim,Parkway,12534 S LOWE AVE,60628.0,1174260.13702236,1821763.64736801,9.0,5.0,53.0,41.666313931614326,-87.63790875577216,"(41.66631393161433, -87.63790875577216)",2012-10-04
10/04/2012,Completed,02/19/2013,12-01711712,Tree Trim,Parkway,7700 S SANGAMON ST,60620.0,1171309.42341059,1853776.6050741002,17.0,6.0,71.0,41.754227141701946,-87.64777466032798,"(41.754227141701946, -87.64777466032798)",2012-10-04
10/04/2012,Completed,02/20/2013,12-01708157,Tree Trim,Alley,1314 E 72ND ST,60619.0,1186215.74250294,1857526.96177574,5.0,3.0,43.0,41.764179540200885,-87.59303008374367,"(41.76417954020088, -87.59303008374367)",2012-10-04
10/04/2012,Completed,02/20/2013,12-01708204,Tree Trim,Parkway,1810 S PEORIA ST,60608.0,1170866.20981401,1891612.30449359,25.0,12.0,31.0,41.85806195580617,-87.64829373548815,"(41.85806195580617, -87.64829373548815)",2012-10-04
10/04/2012,Completed,03/06/2013,12-01708198,Tree Trim,Parkway,1019 S MAY ST,60607.0,1168945.53127961,1895654.10680767,25.0,12.0,28.0,41.869194824245604,-87.65522659016706,"(41.869194824245604, -87.65522659016706)",2012-10-04
10/04/2012,Completed,03/06/2013,12-01710070,Tree Trim,,6109 S PEORIA ST,60621.0,1171352.47690824,1864358.99500474,16.0,7.0,68.0,41.783265571180856,-87.64730755935656,"(41.78326557118086, -87.64730755935655)",2012-10-04
10/04/2012,Completed,03/11/2013,12-01711066,Tree Trim,Parkway,2324 W ARGYLE ST,60625.0,1159860.08006767,1933148.34768461,47.0,20.0,4.0,41.9722738198876,-87.68754499236971,"(41.972273819887604, -87.6875449923697)",2012-10-04
10/04/2012,Completed,03/18/2013,12-01710114,Tree Trim,Parkway,5420 S PEORIA ST,60609.0,1171227.6307058001,1868785.9448271,20.0,9.0,61.0,41.79541635176317,-87.64763583748709,"(41.795416351763166, -87.64763583748709)",2012-10-04
10/04/2012,Completed,03/21/2013,12-01711919,Tree Trim,Parkway,5442 N MOODY AVE,60630.0,1134095.75147807,1935939.76511565,45.0,16.0,11.0,41.98042757315232,-87.78222007375736,"(41.98042757315232, -87.78222007375736)",2012-10-04
10/04/2012,Completed,03/26/2013,12-01710402,Tree Trim,Parkway,5324 N NEENAH AVE,60656.0,1131916.9032097,1935021.25777325,41.0,16.0,10.0,41.977945290631844,-87.79025466150047,"(41.97794529063184, -87.79025466150047)",2012-10-04
10/04/2012,Completed,03/29/2013,12-01708195,Tree Trim,Parkway,1018 S MAY ST,60607.0,1168945.03127961,1895658.80680767,25.0,12.0,28.0,41.86920773225291,-87.65522828948002,"(41.86920773225291, -87.65522828948002)",2012-10-04
10/04/2012,Completed,10/04/2012,12-01711693,Tree Trim,,4205 N ST LOUIS AVE,60618.0,1152302.75237674,1927727.96779323,33.0,17.0,16.0,41.9575529040805,-87.7154784337656,"(41.9575529040805, -87.7154784337656)",2012-10-04
10/04/2012,Completed,10/04/2012,12-01711746,Tree Trim,,5850 N EAST CIRCLE AVE,60631.0,1129129.59493102,1938245.57941851,41.0,16.0,10.0,41.986841178255524,-87.80043141667602,"(41.986841178255524, -87.80043141667603)",2012-10-04
10/04/2012,Completed,10/04/2012,12-01711768,Tree Trim,,3931 N MOZART ST,60618.0,1156681.65219479,1925997.60188019,33.0,17.0,16.0,41.952716909823415,-87.69942717008992,"(41.952716909823415, -87.6994271700899)",2012-10-04
10/04/2012,Completed,10/04/2012,12-01711773,Tree Trim,,3939 N LAWNDALE AVE,60618.0,1151023.60306711,1925932.57737745,33.0,17.0,16.0,41.952651434036774,-87.72022825449051,"(41.952651434036774, -87.72022825449052)",2012-10-04
10/04/2012,Completed,10/04/2012,12-01711777,Tree Trim,,3739 N CHRISTIANA AVE,60618.0,1153390.25972343,1924679.80769286,33.0,17.0,16.0,41.949166957559434,-87.71156168303486,"(41.94916695755944, -87.71156168303486)",2012-10-04
10/04/2012,Completed,10/04/2012,12-01711806,Tree Trim,,1848 N SAYRE AVE,60707.0,1129298.22500019,1911514.02010966,36.0,25.0,25.0,41.9134838738589,-87.80042251910987,"(41.913483873858894, -87.80042251910987)",2012-10-04
10/04/2012,Completed,10/04/2012,12-01711808,Tree Trim,,1846 N SAYRE AVE,60707.0,1129298.62500019,1911500.62010966,36.0,25.0,25.0,41.913447095684866,-87.80042135544437,"(41.913447095684866, -87.80042135544437)",2012-10-04
10/04/2012,Completed,10/04/2012,12-01711811,Tree Trim,,1839 N SAYRE AVE,60707.0,1129300.12500019,1911453.62010966,36.0,25.0,25.0,41.91331809595577,-87.80041691752041,"(41.913318095955766, -87.8004169175204)",2012-10-04
10/04/2012,Completed,10/04/2012,12-01711814,Tree Trim,,1837 N SAYRE AVE,60707.0,1129300.52500019,1911440.12010966,36.0,25.0,25.0,41.91328104336757,-87.80041575614284,"(41.91328104336757, -87.80041575614285)",2012-10-04
10/04/2012,Completed,10/04/2012,12-01711818,Tree Trim,,1838 N SAYRE AVE,60707.0,1129300.32500019,1911446.82010966,36.0,25.0,25.0,41.91329943245516,-87.80041633797283,"(41.913299432455155, -87.80041633797283)",2012-10-04
10/04/2012,Completed,10/04/2012,12-01711819,Tree Trim,,1834 N SAYRE AVE,60707.0,1129301.12500019,1911420.02010966,36.0,25.0,25.0,41.913225876104455,-87.80041401065455,"(41.913225876104455, -87.80041401065455)",2012-10-04
10/04/2012,Completed,10/04/2012,12-01711820,Tree Trim,,1835 N SAYRE AVE,60707.0,1129300.92500019,1911426.72010966,36.0,25.0,25.0,41.913244265192226,-87.8004145924837,"(41.913244265192226, -87.8004145924837)",2012-10-04
10/04/2012,Completed,10/04/2012,12-01711821,Tree Trim,,1830 N SAYRE AVE,60707.0,1129301.92500019,1911393.12010966,36.0,25.0,25.0,41.913152045339714,-87.80041168562343,"(41.91315204533971, -87.80041168562344)",2012-10-04
10/04/2012,Completed,10/04/2012,12-01711823,Tree Trim,,1833 N SAYRE AVE,60707.0,1129301.32500019,1911413.32010966,36.0,25.0,25.0,41.91320748701664,-87.80041342882568,"(41.913207487016635, -87.80041342882568)",2012-10-04
10/04/2012,Completed,10/04/2012,12-01711825,Tree Trim,,1829 N SAYRE AVE,60707.0,1129302.12500019,1911386.42010966,36.0,25.0,25.0,41.91313365625165,-87.80041110379568,"(41.913133656251645, -87.80041110379568)",2012-10-04
10/04/2012,Completed,10/04/2012,12-01711826,Tree Trim,,1827 N SAYRE AVE,60707.0,1129302.52500019,1911373.02010966,36.0,25.0,25.0,41.913096878075336,-87.80040994014101,"(41.913096878075336, -87.80040994014102)",2012-10-04
10/04/2012,Completed,10/04/2012,12-01711827,Tree Trim,,1825 N SAYRE AVE,60707.0,1129302.92500019,1911359.52010966,36.0,25.0,25.0,41.913059825485675,-87.80040877877018,"(41.913059825485675, -87.80040877877019)",2012-10-04
10/04/2012,Completed,10/04/2012,12-01711841,Tree Trim,,2441 W SUPERIOR ST,60612.0,1159992.95987293,1904921.92131294,1.0,13.0,24.0,41.894815907917156,-87.68783783588091,"(41.89481590791716, -87.6878378358809)",2012-10-04
10/04/2012,Completed,10/04/2012,12-01711845,Tree Trim,,2939 N OAKLEY AVE,60618.0,1160512.40230496,1919579.58012547,1.0,19.0,5.0,41.935026861185776,-87.68552344473251,"(41.935026861185776, -87.68552344473252)",2012-10-04
10/04/2012,Completed,10/04/2012,12-01711849,Tree Trim,,2962 N OAKLEY AVE,60618.0,1160509.50230496,1919693.48012547,1.0,19.0,5.0,41.935339470167214,-87.68553093940595,"(41.93533947016721, -87.68553093940595)",2012-10-04
10/04/2012,Completed,10/04/2012,12-01711853,Tree Trim,,2966 N OAKLEY AVE,60618.0,1160513.30230496,1919544.98012547,1.0,19.0,5.0,41.934931897918574,-87.68552109803112,"(41.93493189791857, -87.68552109803113)",2012-10-04
10/04/2012,Completed,10/04/2012,12-01711854,Tree Trim,,2960 N OAKLEY AVE,60618.0,1160509.80230496,1919683.58012547,1.0,19.0,5.0,41.935312297717225,-87.68553011180917,"(41.93531229771723, -87.68553011180917)",2012-10-04
10/04/2012,Completed,10/04/2012,12-01711857,Tree Trim,,2958 N OAKLEY AVE,60618.0,1160510.00230496,1919673.68012547,1.0,19.0,5.0,41.93528512734062,-87.68552965171759,"(41.93528512734062, -87.6855296517176)",2012-10-04
10/04/2012,Completed,10/04/2012,12-01711860,Tree Trim,,2956 N OAKLEY AVE,60618.0,1160510.30230496,1919663.78012547,1.0,19.0,5.0,41.93525795489039,-87.6855288241218,"(41.93525795489039, -87.68552882412179)",2012-10-04
10/04/2012,Completed,10/04/2012,12-01711863,Tree Trim,,2944 N OAKLEY AVE,60618.0,1160511.80230496,1919604.38012547,1.0,19.0,5.0,41.93509492640678,-87.68552496106922,"(41.935094926406784, -87.68552496106922)",2012-10-04
10/04/2012,Completed,10/04/2012,12-01711865,Tree Trim,,2940 N OAKLEY AVE,60618.0,1160512.30230496,1919584.58012547,1.0,19.0,5.0,41.93504058357789,-87.68552367338827,"(41.93504058357789, -87.68552367338826)",2012-10-04
10/04/2012,Completed,10/04/2012,12-01711870,Tree Trim,,3313 S UNION AVE,60616.0,1172173.4735700001,1882924.33180437,11.0,9.0,60.0,41.834192717224006,-87.64375136953413,"(41.83419271722401, -87.64375136953413)",2012-10-04
10/04/2012,Completed,10/04/2012,12-01711872,Tree Trim,,3218 S NORMAL AVE,60616.0,1173484.47441783,1883589.18701688,11.0,9.0,60.0,41.83598815607729,-87.63892129272665,"(41.835988156077285, -87.63892129272666)",2012-10-04
10/04/2012,Completed,10/04/2012,12-01711876,Tree Trim,,2604 S UNION AVE,60616.0,1172067.28002325,1886977.33999691,11.0,9.0,60.0,41.84531685975872,-87.64402166723411,"(41.84531685975872, -87.64402166723411)",2012-10-04
10/04/2012,Completed,10/04/2012,12-01711879,Tree Trim,,2609 S UNION AVE,60616.0,1172067.68002325,1886958.13999691,11.0,9.0,60.0,41.84526416454521,-87.6440207648387,"(41.845264164545206, -87.6440207648387)",2012-10-04
10/04/2012,Completed,10/04/2012,12-01711891,Tree Trim,,5018 W GEORGE ST,60641.0,1142422.87091281,1918815.83691676,31.0,25.0,19.0,41.93328691450582,-87.75202268600664,"(41.93328691450582, -87.75202268600664)",2012-10-04
10/04/2012,Completed,10/04/2012,12-01711892,Tree Trim,,5017 W GEORGE ST,60641.0,1142429.57091281,1918815.93691676,31.0,25.0,19.0,41.93328706425401,-87.75199806116517,"(41.93328706425401, -87.75199806116515)",2012-10-04
10/04/2012,Completed,10/04/2012,12-01711893,Tree Trim,,5014 W GEORGE ST,60641.0,1142449.77091281,1918816.43691676,31.0,25.0,19.0,41.933288060425745,-87.75192381415827,"(41.93328806042574, -87.75192381415826)",2012-10-04
10/04/2012,Completed,10/04/2012,12-01711894,Tree Trim,,5015 W GEORGE ST,60641.0,1142443.07091281,1918816.33691676,31.0,25.0,19.0,41.93328791069348,-87.75194843900013,"(41.93328791069348, -87.75194843900012)",2012-10-04
10/04/2012,Completed,10/04/2012,12-01711898,Tree Trim,,5008 W GEORGE ST,60641.0,1142490.27091281,1918817.43691676,31.0,25.0,19.0,41.93329005076372,-87.75177495264143,"(41.93329005076373, -87.75177495264143)",2012-10-04
10/04/2012,Completed,10/04/2012,12-01711900,Tree Trim,,5010 W GEORGE ST,60641.0,1142476.77091281,1918817.13691676,31.0,25.0,19.0,41.933289478809144,-87.75182457231695,"(41.93328947880914, -87.75182457231696)",2012-10-04
10/04/2012,Completed,10/04/2012,12-01711901,Tree Trim,,5050 W GEORGE ST,60641.0,1142544.27091281,1918818.73691676,31.0,25.0,19.0,41.93329261277745,-87.75157647143921,"(41.93329261277745, -87.7515764714392)",2012-10-04
10/04/2012,Completed,10/04/2012,12-01711902,Tree Trim,,5054 W GEORGE ST,60641.0,1142179.91977446,1918809.93877469,31.0,25.0,19.0,41.933275246254794,-87.75291567283364,"(41.933275246254794, -87.75291567283362)",2012-10-04
10/04/2012,Completed,10/04/2012,12-01711918,Tree Trim,,2628 S TRUMBULL AVE,60623.0,1153789.47172866,1886327.49609478,22.0,10.0,30.0,41.843916594160675,-87.7111166451683,"(41.84391659416067, -87.7111166451683)",2012-10-04
10/04/2012,Completed,10/04/2012,12-01711921,Tree Trim,,2634 S TRUMBULL AVE,60623.0,1153790.67172866,1886287.19609478,22.0,10.0,30.0,41.843805982225135,-87.71111331284679,"(41.84380598222513, -87.71111331284679)",2012-10-04
10/04/2012,Completed,10/04/2012,12-01711924,Tree Trim,,2636 S TRUMBULL AVE,60623.0,1153790.97172866,1886273.69609478,22.0,10.0,30.0,41.843768930626155,-87.7111125708298,"(41.843768930626155, -87.7111125708298)",2012-10-04
10/04/2012,Completed,10/04/2012,12-01711928,Tree Trim,,2644 S TRUMBULL AVE,60623.0,1153792.57172866,1886219.89609478,22.0,10.0,30.0,41.84362126509977,-87.71110812952446,"(41.84362126509977, -87.71110812952446)",2012-10-04
10/04/2012,Completed,10/04/2012,12-01711929,Tree Trim,,2648 S TRUMBULL AVE,60623.0,1153793.27172866,1886192.99609478,22.0,10.0,30.0,41.84354743432323,-87.71110627585894,"(41.84354743432323, -87.71110627585894)",2012-10-04
10/04/2012,Completed,10/04/2012,12-01711930,Tree Trim,,2650 S TRUMBULL AVE,60623.0,1153784.17172866,1886515.89609478,22.0,10.0,30.0,41.84443369190753,-87.71113108630253,"(41.84443369190753, -87.71113108630253)",2012-10-04
10/04/2012,Completed,10/04/2012,12-01711932,Tree Trim,,2654 S TRUMBULL AVE,60623.0,1153794.47120689,1886152.63528553,22.0,10.0,30.0,41.84343665552299,-87.7111029470983,"(41.84343665552299, -87.7111029470983)",2012-10-04
10/04/2012,Completed,10/04/2012,12-01711934,Tree Trim,,2656 S TRUMBULL AVE,60623.0,1153794.77120689,1886139.13528553,22.0,10.0,30.0,41.84339960392164,-87.71110220508896,"(41.84339960392164, -87.71110220508896)",2012-10-04
10/04/2012,Completed,10/04/2012,12-01711939,Tree Trim,,2658 S TRUMBULL AVE,60623.0,1153795.17120689,1886125.63528553,22.0,10.0,30.0,41.843362550331946,-87.71110109610028,"(41.843362550331946, -87.71110109610026)",2012-10-04
10/04/2012,Completed,10/04/2012,12-01711941,Tree Trim,,2702 S TRUMBULL AVE,60623.0,1153803.37120689,1885836.43528553,22.0,10.0,30.0,41.8425687873758,-87.71107869307427,"(41.8425687873758, -87.71107869307427)",2012-10-04
10/04/2012,Completed,10/04/2012,12-01711943,Tree Trim,,2706 S TRUMBULL AVE,60623.0,1153804.07120689,1885809.53528553,22.0,10.0,30.0,41.84249495658572,-87.71107683945831,"(41.84249495658572, -87.71107683945831)",2012-10-04
10/04/2012,Completed,10/04/2012,12-01711944,Tree Trim,,2708 S TRUMBULL AVE,60623.0,1153804.47120689,1885796.03528553,22.0,10.0,30.0,41.84245790299017,-87.71107573049353,"(41.842457902990176, -87.71107573049353)",2012-10-04
10/04/2012,Completed,10/04/2012,12-01712055,Tree Trim,,9059 S JEFFERY BLVD,60617.0,1191091.18712431,1845295.16153227,8.0,4.0,48.0,41.7304978597235,-87.57555550834127,"(41.7304978597235, -87.57555550834128)",2012-10-04
10/04/2012,Completed,10/04/2012,12-01712063,Tree Trim,,8700 S PAXTON AVE,60617.0,1192347.5799973998,1847721.66018827,8.0,4.0,48.0,41.73712595136981,-87.57087426681389,"(41.73712595136981, -87.57087426681389)",2012-10-04
10/04/2012,Completed,10/04/2012,12-01712067,Tree Trim,,8721 S PAXTON AVE,60617.0,1192351.7799974,1847580.66018827,8.0,4.0,48.0,41.736738932435614,-87.57086345614346,"(41.736738932435614, -87.57086345614346)",2012-10-04
10/04/2012,Completed,10/04/2012,12-01712070,Tree Trim,,8729 S HARPER AVE,60619.0,1187975.44006703,1847404.99128285,8.0,4.0,48.0,41.73636215536766,-87.58690230602392,"(41.73636215536766, -87.58690230602392)",2012-10-04
10/04/2012,Completed,10/04/2012,12-01712071,Tree Trim,,8719 S HARPER AVE,60619.0,1187973.84006703,1847471.99128285,8.0,4.0,48.0,41.73654604823671,-87.58690603889526,"(41.73654604823671, -87.58690603889526)",2012-10-04
10/04/2012,Completed,10/04/2012,12-01712904,Tree Trim,,2200 W 101ST ST,60643.0,1163486.71957455,1837631.63751824,19.0,22.0,72.0,41.710090309952186,-87.676893670306,"(41.710090309952186, -87.676893670306)",2012-10-04
10/04/2012,Completed,10/24/2012,12-01712166,Tree Trim,Parkway,3200 S SHIELDS AVE,60616.0,1174477.1845048,1883735.29087774,11.0,9.0,34.0,41.83636699714128,-87.63527436174454,"(41.83636699714128, -87.63527436174454)",2012-10-04
10/04/2012,Completed,11/01/2012,12-01709320,Tree Trim,Parkway,4943 N WINTHROP AVE,60640.0,1167973.67098194,1933217.39991132,48.0,20.0,3.0,41.97229159553295,-87.6577080384206,"(41.97229159553295, -87.6577080384206)",2012-10-04
10/04/2012,Completed,11/09/2012,12-01712546,Tree Trim,Parkway,10419 S LEAVITT ST,60643.0,1163550.89997324,1835511.88688105,19.0,22.0,72.0,41.70427201492998,-87.6767178221637,"(41.70427201492998, -87.67671782216371)",2012-10-04
10/04/2012,Completed,11/13/2012,12-01712607,Tree Trim,Parkway,2151 N HUDSON AVE,60614.0,1172928.33009745,1914588.02683137,43.0,18.0,7.0,41.921063323600976,-87.64004314509886,"(41.921063323600976, -87.64004314509886)",2012-10-04
10/04/2012,Completed,11/19/2012,12-01709110,Tree Trim,Parkway,11548 S ADA ST,60643.0,1169403.56611305,1828177.60037066,34.0,5.0,53.0,41.68402108655192,-87.65549762072239,"(41.68402108655192, -87.65549762072239)",2012-10-04
10/04/2012,Completed,11/19/2012,12-01709287,Tree Trim,Vacant Lot,4500 S VINCENNES AVE,60653.0,1180362.48797417,1875289.15972889,3.0,2.0,38.0,41.81305689887003,-87.61393873292566,"(41.81305689887003, -87.61393873292566)",2012-10-04
10/04/2012,Completed,11/20/2012,12-01709944,Tree Trim,Parkway,12602 S UNION AVE,60628.0,1173945.67669254,1821306.46131852,34.0,5.0,53.0,41.665066294337905,-87.63907305679201,"(41.66506629433791, -87.63907305679201)",2012-10-04
10/04/2012,Completed,11/26/2012,12-01710933,Tree Trim,Parkway,3540 W 85TH ST,60652.0,1154117.33997062,1847992.52998925,18.0,8.0,70.0,41.73871333007282,-87.71093190736435,"(41.73871333007282, -87.71093190736435)",2012-10-04
10/04/2012,Completed,11/26/2012,12-01711569,Tree Trim,,8051 S CHRISTIANA AVE,60652.0,1155451.42999214,1850873.17999981,18.0,8.0,70.0,41.74659173390368,-87.7059670795598,"(41.74659173390368, -87.70596707955981)",2012-10-04
10/04/2012,Completed,11/27/2012,12-01711290,Tree Trim,Parkway,8349 S KILPATRICK AVE,60652.0,1146403.74943017,1848702.14201398,18.0,8.0,70.0,41.74081024719602,-87.7391753943012,"(41.74081024719602, -87.7391753943012)",2012-10-04
10/04/2012,Completed,12/11/2012,12-01710745,Tree Trim,Alley,3527 W 58TH PL,60629.0,1153889.72410975,1865598.85012037,14.0,8.0,63.0,41.78703240547554,-87.71129938897835,"(41.78703240547554, -87.71129938897835)",2012-10-04
10/04/2012,Completed,12/12/2012,12-01709471,Tree Trim,Alley,4344 S OAKENWALD AVE,60653.0,1184998.2567795,1876442.35898543,4.0,2.0,39.0,41.81611360783338,-87.59689854522003,"(41.81611360783338, -87.59689854522003)",2012-10-04
10/04/2012,Completed,12/20/2012,12-01709334,Tree Trim,Parkway,8100 S SAWYER AVE,60652.0,1156123.28311392,1850710.54542134,18.0,8.0,70.0,41.74613196946104,-87.70350958425058,"(41.74613196946104, -87.70350958425058)",2012-10-04
10/04/2012,Completed,12/28/2012,12-01710539,Tree Trim,Parkway,10243 S GREEN ST,60643.0,1172456.73560033,1836915.68898582,34.0,22.0,73.0,41.70793329400173,-87.64406495078786,"(41.707933294001734, -87.64406495078788)",2012-10-04
10/05/2012,Completed - Dup,01/07/2013,12-01713360,Tree Trim,Parkway,8052 S WOOD ST,60620.0,1165748.79609731,1851287.59029677,18.0,6.0,71.0,41.74751671544194,-87.66822310769992,"(41.74751671544194, -87.6682231076999)",2012-10-05
10/05/2012,Completed - Dup,01/07/2013,12-01715815,Tree Trim,Parkway,7618 S RHODES AVE,60619.0,1181223.92179493,1854619.25419199,6.0,6.0,69.0,41.75631692138439,-87.61141556893476,"(41.75631692138439, -87.61141556893476)",2012-10-05
10/05/2012,Completed - Dup,01/07/2013,12-01715914,Tree Trim,Parkway,1930 W FLETCHER ST,60657.0,1162920.73899957,1920929.96692138,32.0,19.0,5.0,41.93868212329305,-87.67663472713986,"(41.93868212329305, -87.67663472713986)",2012-10-05
10/05/2012,Completed - Dup,01/23/2013,12-01717465,Tree Trim,Parkway,3216 N NEENAH AVE,60634.0,1132164.1967783,1920667.99870303,36.0,16.0,17.0,41.93855414214062,-87.78968009769557,"(41.93855414214062, -87.78968009769557)",2012-10-05
