,Creation Date,Status,Completion Date,Service Request Number,Type of Service Request,Street Address,ZIP Code,X Coordinate,Y Coordinate,Ward,Police District,Community Area,Latitude,Longitude,Location,date
54356,10/01/2010,Completed,01/10/2011,10-01604022,Alley Light Out,2045 W 69TH PL,60636.0,1163923.13231873,1858563.50010064,17.0,7.0,67.0,41.76752138263518,-87.67470878888477,"(41.76752138263518, -87.67470878888476)",2010-10-01
54357,10/01/2010,Completed,01/12/2011,10-01601299,Alley Light Out,6857 S PULASKI RD,60629.0,1150884.08552397,1858747.80991837,13.0,8.0,65.0,41.768291207125046,-87.72249826801435,"(41.768291207125046, -87.72249826801436)",2010-10-01
54358,10/01/2010,Completed,01/19/2011,10-01602947,Alley Light Out,8537 S RACINE AVE,60620.0,1169812.45289061,1848177.89190207,21.0,6.0,71.0,41.738896112982424,-87.65342269231333,"(41.73889611298242, -87.65342269231333)",2010-10-01
54359,10/01/2010,Completed,01/27/2011,10-01597540,Alley Light Out,13316 S AVENUE O,60633.0,1201086.81269854,1817277.43179773,10.0,4.0,55.0,41.65336731349411,-87.53988453034948,"(41.65336731349411, -87.53988453034948)",2010-10-01
54360,10/01/2010,Completed,01/27/2011,10-01600226,Alley Light Out,13230 S AVENUE O,60633.0,1201081.4228088998,1817715.28180312,10.0,4.0,55.0,41.654568958444074,-87.5398895052508,"(41.65456895844407, -87.5398895052508)",2010-10-01
54361,10/01/2010,Completed,01/28/2011,10-01601596,Alley Light Out,6212 S CLAREMONT AVE,60636.0,1161793.34012895,1863393.98762663,15.0,8.0,66.0,41.780821400592735,-87.68238142208851,"(41.780821400592735, -87.6823814220885)",2010-10-01
54362,10/01/2010,Completed,01/28/2011,10-01603976,Alley Light Out,6750 S RIDGELAND AVE,60649.0,1189018.56999406,1860902.80161628,5.0,3.0,43.0,41.77337647168008,-87.58264920125816,"(41.77337647168008, -87.58264920125815)",2010-10-01
54363,10/01/2010,Completed,01/31/2011,10-01598159,Alley Light Out,12717 S MANISTEE AVE,60633.0,1196748.42989531,1821242.20267631,10.0,4.0,55.0,41.664355598279,-87.55562721938615,"(41.664355598279, -87.55562721938615)",2010-10-01
54364,10/01/2010,Completed,02/11/2011,10-01603056,Alley Light Out,5136 W ST PAUL AVE,60639.0,1141979.30580495,1911154.47812668,37.0,25.0,25.0,41.91227158537267,-87.75384304325416,"(41.91227158537267, -87.75384304325416)",2010-10-01
54489,10/02/2010,Completed,01/11/2011,10-01605649,Alley Light Out,7328 S CLYDE AVE,60649.0,1191489.99989004,1856789.30231408,5.0,3.0,43.0,41.76202915443671,-87.57372284248981,"(41.76202915443671, -87.57372284248981)",2010-10-02
54490,10/02/2010,Completed,01/11/2011,10-01605902,Alley Light Out,7749 S ABERDEEN ST,60620.0,1170326.61340795,1853421.40206963,17.0,6.0,71.0,41.75327385213213,-87.65138665616743,"(41.75327385213213, -87.65138665616743)",2010-10-02
54491,10/02/2010,Completed,01/20/2011,10-01605745,Alley Light Out,8057 S ARTESIAN AVE,60652.0,1161439.74911247,1851145.85886764,18.0,8.0,70.0,41.747218099722154,-87.68401672773085,"(41.747218099722154, -87.68401672773085)",2010-10-02
54612,10/03/2010,Completed,01/07/2011,10-01607254,Alley Light Out,4619 N MONTICELLO AVE,60625.0,1151223.06279887,1930450.80532619,33.0,17.0,14.0,41.965045850941095,-87.7193760266373,"(41.965045850941095, -87.7193760266373)",2010-10-03
54613,10/03/2010,Completed,01/10/2011,10-01606080,Alley Light Out,7300 S LOOMIS BLVD,60636.0,1168261.17312272,1856346.60829985,17.0,7.0,67.0,41.76134568654707,-87.65887167624372,"(41.76134568654706, -87.65887167624372)",2010-10-03
54614,10/03/2010,Completed,01/19/2011,10-01607274,Alley Light Out,8726 S JUSTINE ST,60620.0,1167526.67630026,1846860.56961417,21.0,22.0,71.0,41.735330439371545,-87.66183499874657,"(41.735330439371545, -87.66183499874657)",2010-10-03
54615,10/03/2010,Completed,01/25/2011,10-01606740,Alley Light Out,3427 W 62ND PL,60629.0,1154624.30420408,1862971.56092849,15.0,8.0,66.0,41.779808117909475,-87.70867597107448,"(41.77980811790948, -87.70867597107448)",2010-10-03
54879,10/04/2010,Completed,01/06/2011,10-01609292,Alley Light Out,440 W 61ST ST,60621.0,1174401.10988836,1864480.53566661,20.0,7.0,68.0,41.783531802240745,-87.63612668780544,"(41.783531802240745, -87.63612668780544)",2010-10-04
54880,10/04/2010,Completed,01/11/2011,10-01615008,Alley Light Out,7322 S ABERDEEN ST,60621.0,1170249.92916804,1856254.15957969,17.0,7.0,68.0,41.76104897496603,-87.65158540923086,"(41.76104897496603, -87.65158540923086)",2010-10-04
54881,10/04/2010,Completed,01/12/2011,10-01614317,Alley Light Out,6524 S KARLOV AVE,60629.0,1150160.66602151,1861019.14931811,13.0,8.0,65.0,41.77453820048293,-87.72509110208055,"(41.77453820048293, -87.72509110208057)",2010-10-04
54882,10/04/2010,Completed,01/13/2011,10-01614448,Alley Light Out,3947 N NEW ENGLAND AVE,60634.0,1129689.27609499,1925467.99138534,38.0,16.0,17.0,41.95176858280116,-87.79866615107778,"(41.95176858280116, -87.79866615107778)",2010-10-04
54883,10/04/2010,Completed,01/14/2011,10-01612931,Alley Light Out,8234 S WENTWORTH AVE,60620.0,1176420.69636955,1850373.97986612,21.0,6.0,44.0,41.74477663469078,-87.6291456295476,"(41.74477663469078, -87.6291456295476)",2010-10-04
54884,10/04/2010,Completed,01/18/2011,10-01615359,Alley Light Out,9658 S EGGLESTON AVE,60628.0,1175201.18496687,1840788.83989662,21.0,22.0,73.0,41.71850104446616,-87.63389946963993,"(41.71850104446616, -87.63389946963994)",2010-10-04
54885,10/04/2010,Completed,01/28/2011,10-01609993,Alley Light Out,10851 S AVENUE L,60617.0,1201863.13278302,1833613.15149523,10.0,4.0,52.0,41.69817448597757,-87.5364913372482,"(41.698174485977574, -87.53649133724818)",2010-10-04
55199,10/05/2010,Completed,01/03/2011,10-01622448,Alley Light Out,1224 W 97TH ST,60643.0,1169864.50467048,1840608.14597721,21.0,22.0,73.0,41.718122505158455,-87.65345104305011,"(41.71812250515845, -87.65345104305013)",2010-10-05
55200,10/05/2010,Completed,01/10/2011,10-01623142,Alley Light Out,2110 W 70TH ST,60636.0,1163467.16413091,1858222.64036797,17.0,7.0,67.0,41.7665955851254,-87.67638965983498,"(41.7665955851254, -87.67638965983497)",2010-10-05
55201,10/05/2010,Completed,01/11/2011,10-01616069,Alley Light Out,10852 S AVENUE O,60617.0,1200881.91877729,1833605.1218285998,10.0,4.0,52.0,41.69817730697915,-87.54008422299282,"(41.69817730697915, -87.54008422299283)",2010-10-05
55202,10/05/2010,Completed,01/12/2011,10-01619046,Alley Light Out,6124 S KILPATRICK AVE,60629.0,1146089.42176578,1863588.27990082,13.0,8.0,64.0,41.781666370728175,-87.73995085177583,"(41.78166637072818, -87.73995085177584)",2010-10-05
55203,10/05/2010,Completed,01/12/2011,10-01623788,Alley Light Out,3745 W 69TH ST,60629.0,1152590.18479801,1858591.01610107,13.0,8.0,65.0,41.76782752015666,-87.71624864508834,"(41.76782752015666, -87.71624864508834)",2010-10-05
55204,10/05/2010,Completed,01/18/2011,10-01617883,Alley Light Out,416 W 97TH ST,60628.0,1175120.30047064,1840584.00327591,21.0,22.0,73.0,41.71794074719536,-87.63420181205046,"(41.717940747195364, -87.63420181205045)",2010-10-05
55205,10/05/2010,Completed,01/18/2011,10-01618530,Alley Light Out,6128 S UNIVERSITY AVE,60637.0,1184827.08987141,1864604.31230417,20.0,3.0,42.0,41.78363311221587,-87.5978979426676,"(41.783633112215874, -87.59789794266759)",2010-10-05
55206,10/05/2010,Completed,01/28/2011,10-01620282,Alley Light Out,6333 N LEONA AVE,60646.0,1141683.26003156,1941924.52002018,41.0,16.0,12.0,41.996712828648775,-87.7541667005025,"(41.996712828648775, -87.75416670050248)",2010-10-05
55207,10/05/2010,Completed,02/11/2011,10-01620226,Alley Light Out,4932 W ARMITAGE AVE,60639.0,1142800.77999334,1912836.56860128,31.0,25.0,19.0,41.916872152089056,-87.75078316094248,"(41.916872152089056, -87.75078316094249)",2010-10-05
55208,10/05/2010,Completed,03/28/2011,10-01622314,Alley Light Out,12835 S GREEN ST,60643.0,1173006.87258835,1819699.85150139,34.0,5.0,53.0,41.660678185434335,-87.6425558341448,"(41.660678185434335, -87.6425558341448)",2010-10-05
55471,10/06/2010,Completed,01/12/2011,10-01625097,Alley Light Out,6423 S KOMENSKY AVE,60629.0,1150474.26180808,1861698.56828376,13.0,8.0,65.0,41.7763965430586,-87.72392384709534,"(41.776396543058596, -87.72392384709535)",2010-10-06
55472,10/06/2010,Completed,01/13/2011,10-01631518,Alley Light Out,3410 N AVERS AVE,60618.0,1150122.88819027,1922397.01011845,30.0,17.0,21.0,41.94296719692851,-87.72363179940571,"(41.94296719692851, -87.7236317994057)",2010-10-06
55473,10/06/2010,Completed,01/19/2011,10-01629681,Alley Light Out,12913 S NORMAL AVE,60628.0,1175329.3285737,1819222.39193278,9.0,5.0,53.0,41.6593165648349,-87.6340713194187,"(41.65931656483491, -87.6340713194187)",2010-10-06
55474,10/06/2010,Completed,01/27/2011,10-01631837,Alley Light Out,6224 S GREENWOOD AVE,60637.0,1184402.64067165,1863956.20660036,20.0,3.0,42.0,41.78186460540475,-87.59947438350254,"(41.78186460540475, -87.59947438350254)",2010-10-06
55475,10/06/2010,Completed,01/28/2011,10-01626196,Alley Light Out,10726 S AVENUE E,60617.0,1203834.9689028,1834446.2062988,10.0,4.0,52.0,41.700410168284066,-87.52924319709837,"(41.70041016828407, -87.52924319709838)",2010-10-06
55476,10/06/2010,Completed,01/28/2011,10-01626396,Alley Light Out,10257 S BELL AVE,60643.0,1163078.16981777,1836572.61377217,19.0,22.0,72.0,41.70719270757132,-87.67841935237631,"(41.707192707571316, -87.67841935237632)",2010-10-06
55477,10/06/2010,Completed,01/28/2011,10-01629229,Alley Light Out,7514 S CONSTANCE AVE,60649.0,1189840.63997863,1855517.14132092,8.0,4.0,43.0,41.758578044349115,-87.5798086867143,"(41.758578044349115, -87.57980868671432)",2010-10-06
55478,10/06/2010,Completed,01/28/2011,10-01630309,Alley Light Out,306 W 111TH ST,60628.0,1176190.98920959,1831320.57067932,34.0,5.0,49.0,41.6924966401551,-87.63055719204394,"(41.692496640155085, -87.63055719204394)",2010-10-06
55479,10/06/2010,Completed,02/17/2011,10-01631451,Alley Light Out,11220 S FAIRFIELD AVE,60655.0,1160049.99677408,1830109.08991869,19.0,22.0,75.0,41.689518302071576,-87.68968549396065,"(41.68951830207158, -87.68968549396064)",2010-10-06
55722,10/07/2010,Completed,01/04/2011,10-01638324,Alley Light Out,10435 S TALMAN AVE,60655.0,1160409.99002398,1835214.300006,19.0,22.0,72.0,41.70352052638873,-87.688227562451,"(41.70352052638873, -87.688227562451)",2010-10-07
55723,10/07/2010,Completed,01/05/2011,10-01638682,Alley Light Out,6427 S KNOX AVE,60629.0,1146482.94456895,1861582.92540682,13.0,8.0,64.0,41.776155883693534,-87.73855893140352,"(41.77615588369353, -87.73855893140353)",2010-10-07
55724,10/07/2010,Completed,01/06/2011,10-01636182,Alley Light Out,7500 S CLYDE AVE,60649.0,1191513.63170445,1855651.28910066,8.0,4.0,43.0,41.758905780786705,-87.57367306349859,"(41.7589057807867, -87.57367306349859)",2010-10-07
55725,10/07/2010,Completed,01/10/2011,10-01635188,Alley Light Out,6500 S MAY ST,60621.0,1169768.41811897,1861694.39781632,17.0,7.0,68.0,41.77598813037975,-87.65319250734656,"(41.77598813037975, -87.65319250734657)",2010-10-07
55726,10/07/2010,Completed,01/10/2011,10-01636014,Alley Light Out,1319 W 73RD PL,60636.0,1168625.79157808,1856024.83861784,17.0,7.0,67.0,41.76045485541114,-87.6575445834314,"(41.76045485541114, -87.65754458343139)",2010-10-07
55727,10/07/2010,Completed,01/11/2011,10-01634477,Alley Light Out,2649 E 79TH ST,60649.0,1195335.96001353,1853102.61053301,7.0,4.0,46.0,41.751818538548214,-87.55974871946613,"(41.751818538548214, -87.55974871946613)",2010-10-07
55728,10/07/2010,Completed,01/12/2011,10-01635465,Alley Light Out,3643 W 71ST ST,60629.0,1153175.830013,1857280.22001164,13.0,8.0,65.0,41.76421893593611,-87.71413655366828,"(41.764218935936114, -87.71413655366828)",2010-10-07
55729,10/07/2010,Completed,01/12/2011,10-01638804,Alley Light Out,7845 S HOMAN AVE,60652.0,1155079.85107045,1852189.56446647,18.0,8.0,70.0,41.75021153617511,-87.70729355357949,"(41.75021153617511, -87.70729355357948)",2010-10-07
55730,10/07/2010,Completed,01/13/2011,10-01635467,Alley Light Out,6135 W BERENICE AVE,60634.0,1134775.22781153,1924954.70838579,38.0,16.0,17.0,41.95027149221021,-87.77998206980922,"(41.95027149221021, -87.77998206980922)",2010-10-07
55731,10/07/2010,Completed,01/18/2011,10-01638452,Alley Light Out,6900 S WOODLAWN AVE,60637.0,1185591.02011969,1859598.50739734,5.0,3.0,69.0,41.769878783089574,-87.59525466002735,"(41.769878783089574, -87.59525466002734)",2010-10-07
55732,10/07/2010,Completed,01/19/2011,10-01632716,Alley Light Out,8500 S MORGAN ST,60620.0,1171131.10560331,1848459.369506,21.0,6.0,71.0,41.73963983616965,-87.64858320469654,"(41.73963983616965, -87.64858320469655)",2010-10-07
55733,10/07/2010,Completed,01/19/2011,10-01636937,Alley Light Out,11443 S CALUMET AVE,60628.0,1180625.73406892,1828993.11788919,9.0,5.0,49.0,41.68600934622625,-87.61439207241365,"(41.68600934622625, -87.61439207241366)",2010-10-07
55734,10/07/2010,Completed,01/24/2011,10-01637727,Alley Light Out,4821 N CENTRAL PARK AVE,60625.0,1151515.51229956,1931797.05677884,39.0,17.0,14.0,41.968734298092315,-87.7182652203425,"(41.96873429809231, -87.7182652203425)",2010-10-07
55735,10/07/2010,Completed,01/27/2011,10-01637891,Alley Light Out,12935 S BALTIMORE AVE,60633.0,1199083.88998616,1819655.83012365,10.0,4.0,55.0,41.659944266214545,-87.54713358083113,"(41.659944266214545, -87.54713358083112)",2010-10-07
55736,10/07/2010,Completed,01/28/2011,10-01636780,Alley Light Out,9134 S HAMILTON AVE,60620.0,1163626.39573245,1844048.8940694,19.0,22.0,72.0,41.72769738027585,-87.6762027717094,"(41.72769738027584, -87.67620277170941)",2010-10-07
55998,10/08/2010,Completed,01/12/2011,10-01645539,Alley Light Out,5631 S KILBOURN AVE,60629.0,1147323.65236904,1866891.48772938,13.0,8.0,62.0,41.79070744385832,-87.73534156743781,"(41.79070744385831, -87.73534156743783)",2010-10-08
55999,10/08/2010,Completed,01/18/2011,10-01639142,Alley Light Out,9709 S EMERALD AVE,60628.0,1173019.99889526,1840472.01062803,21.0,22.0,73.0,41.71767996849732,-87.64189767794353,"(41.71767996849732, -87.64189767794353)",2010-10-08
56000,10/08/2010,Completed,01/19/2011,10-01639707,Alley Light Out,1200 E 79TH ST,60619.0,1185584.44843443,1852859.56641188,8.0,4.0,45.0,41.75138664344302,-87.59549062380877,"(41.75138664344302, -87.59549062380876)",2010-10-08
56001,10/08/2010,Completed,01/19/2011,10-01643422,Alley Light Out,1405 E 76TH ST,60619.0,1186912.9600152,1854881.76962244,5.0,4.0,43.0,41.756904394742435,-87.5905583614183,"(41.756904394742435, -87.5905583614183)",2010-10-08
56002,10/08/2010,Completed,01/20/2011,10-01644965,Alley Light Out,2216 W 79TH PL,60620.0,1162853.22998931,1851866.89997256,18.0,8.0,70.0,41.74916735759083,-87.6788172155605,"(41.74916735759083, -87.67881721556049)",2010-10-08
56003,10/08/2010,Completed,01/24/2011,10-01644420,Alley Light Out,1851 W 108TH PL,60643.0,1165806.8496893998,1832581.75061233,19.0,22.0,75.0,41.69618373341068,-87.6685396922178,"(41.69618373341068, -87.66853969221782)",2010-10-08
56004,10/08/2010,Completed,01/28/2011,10-01642554,Alley Light Out,7708 S CORNELL AVE,60649.0,1188574.04817263,1854199.6647034,8.0,4.0,43.0,41.754993120285896,-87.58449260656086,"(41.754993120285896, -87.58449260656086)",2010-10-08
56005,10/08/2010,Completed,01/28/2011,10-01643682,Alley Light Out,8620 S WALLACE ST,60620.0,1173812.67932566,1847600.91161283,21.0,6.0,71.0,41.737225143581206,-87.63878373820742,"(41.73722514358121, -87.63878373820742)",2010-10-08
56006,10/08/2010,Completed,02/25/2011,10-01641720,Alley Light Out,11052 S AVENUE E,60617.0,1203839.86861988,1832289.38002548,10.0,4.0,52.0,41.69449153332626,-87.52929898040821,"(41.69449153332626, -87.52929898040821)",2010-10-08
56102,10/09/2010,Completed,01/05/2011,10-01646149,Alley Light Out,4712 W 87TH ST,60652.0,1146501.21192319,1846424.64180601,18.0,8.0,70.0,41.734558515700456,-87.7388759333341,"(41.73455851570046, -87.7388759333341)",2010-10-09
56103,10/09/2010,Completed,01/19/2011,10-01647112,Alley Light Out,9535 S PEORIA ST,60643.0,1171994.10920331,1841555.10516959,21.0,22.0,73.0,41.72067468436767,-87.64562340571848,"(41.72067468436767, -87.64562340571848)",2010-10-09
56104,10/09/2010,Completed,01/28/2011,10-01647148,Alley Light Out,8108 S AVALON AVE,60619.0,1185953.32900363,1851482.46818911,8.0,4.0,45.0,41.74759906000454,-87.59418222428275,"(41.74759906000454, -87.59418222428275)",2010-10-09
56105,10/09/2010,Completed,01/28/2011,10-01647288,Alley Light Out,9600 S AVENUE J,60617.0,1202443.92002177,1841950.00000324,10.0,4.0,52.0,41.721036701244394,-87.53408151701107,"(41.72103670124439, -87.53408151701106)",2010-10-09
56106,10/09/2010,Completed,01/31/2011,10-01647217,Alley Light Out,13530 S AVENUE L,60633.0,1202095.98657361,1815930.81426624,10.0,4.0,55.0,41.649646498718646,-87.53623766465935,"(41.649646498718646, -87.53623766465934)",2010-10-09
56218,10/10/2010,Completed,01/04/2011,10-01648320,Alley Light Out,10222 S WESTERN AVE,60643.0,1162190.49900828,1836784.9369031002,19.0,22.0,72.0,41.70779383830385,-87.6816641402607,"(41.70779383830385, -87.6816641402607)",2010-10-10
56219,10/10/2010,Completed,01/20/2011,10-01648471,Alley Light Out,1233 W 74TH ST,60636.0,1169308.52066788,1855711.37243262,17.0,7.0,67.0,41.75957991801483,-87.65505141794658,"(41.75957991801483, -87.65505141794658)",2010-10-10
56220,10/10/2010,Completed,01/28/2011,10-01648567,Alley Light Out,9242 S PERRY AVE,60620.0,1177233.55412413,1843682.90796615,21.0,6.0,49.0,41.72639719957996,-87.62636861222047,"(41.72639719957996, -87.62636861222047)",2010-10-10
56221,10/10/2010,Completed,02/11/2011,10-01647482,Alley Light Out,5860 W ROOSEVELT RD,60644.0,1137436.93817669,1894081.69578366,29.0,15.0,25.0,41.865504670939224,-87.77094178284918,"(41.86550467093923, -87.77094178284919)",2010-10-10
56393,10/11/2010,Completed,01/06/2011,10-01651644,Alley Light Out,632 N LARAMIE AVE,60644.0,1141582.28322814,1903708.22988354,28.0,15.0,25.0,41.891845572396605,-87.7554858783313,"(41.89184557239661, -87.7554858783313)",2010-10-11
56394,10/11/2010,Completed,01/10/2011,10-01650775,Alley Light Out,6938 S MAY ST,60621.0,1169849.24960961,1858789.12837696,17.0,7.0,68.0,41.7680139568137,-87.65298043890037,"(41.768013956813704, -87.65298043890037)",2010-10-11
56395,10/11/2010,Completed,01/10/2011,10-01650955,Alley Light Out,7808 S VERNON AVE,60619.0,1180596.37861383,1853337.44120025,6.0,6.0,69.0,41.752813914163255,-87.61375465645641,"(41.752813914163255, -87.61375465645641)",2010-10-11
56396,10/11/2010,Completed,01/10/2011,10-01651246,Alley Light Out,126 W 109TH PL,60628.0,1177371.69812008,1832344.9909805001,34.0,5.0,49.0,41.69528128266373,-87.62620364926019,"(41.69528128266373, -87.62620364926018)",2010-10-11
56397,10/11/2010,Completed,01/11/2011,10-01649949,Alley Light Out,7232 S LUELLA AVE,60649.0,1192468.46862761,1857446.71102005,5.0,3.0,43.0,41.763809368980645,-87.57011532384243,"(41.76380936898065, -87.57011532384244)",2010-10-11
56398,10/11/2010,Completed,01/13/2011,10-01650207,Alley Light Out,5759 W ADDISON ST,60634.0,1137325.97232776,1923354.53460874,38.0,16.0,15.0,41.94583488055081,-87.77064423469524,"(41.94583488055081, -87.77064423469523)",2010-10-11
56399,10/11/2010,Completed,01/20/2011,10-01650346,Alley Light Out,8011 S WASHTENAW AVE,60652.0,1159769.57251782,1851406.81270109,18.0,8.0,70.0,41.747968620508296,-87.69012961356688,"(41.7479686205083, -87.69012961356688)",2010-10-11
56400,10/11/2010,Completed,01/28/2011,10-01648864,Alley Light Out,10625 S AVENUE D,60617.0,1204120.52999659,1835115.57310368,10.0,4.0,52.0,41.70223964345104,-87.52817469704831,"(41.70223964345104, -87.52817469704831)",2010-10-11
56401,10/11/2010,Completed,01/28/2011,10-01650919,Alley Light Out,9633 S AVENUE J,60617.0,1202446.02002177,1841771.80000324,10.0,4.0,52.0,41.7205476536433,-87.53407988500379,"(41.720547653643294, -87.5340798850038)",2010-10-11
56402,10/11/2010,Completed,01/28/2011,10-01651026,Alley Light Out,5930 S ROCKWELL ST,60629.0,1160055.11869561,1865243.94499091,16.0,8.0,66.0,41.78593387138512,-87.68870326788691,"(41.78593387138512, -87.68870326788691)",2010-10-11
56403,10/11/2010,Completed,01/31/2011,10-01650747,Alley Light Out,9645 S AVALON AVE,60628.0,1186235.93028556,1841074.47996579,8.0,5.0,50.0,41.71903176207144,-87.59347453900664,"(41.71903176207144, -87.59347453900664)",2010-10-11
56404,10/11/2010,Completed,02/01/2011,10-01651432,Alley Light Out,5341 W CRYSTAL ST,60651.0,1140489.30647215,1907808.07237715,37.0,25.0,25.0,41.90311615866922,-87.7593992244865,"(41.90311615866922, -87.7593992244865)",2010-10-11
56405,10/11/2010,Completed,02/11/2011,10-01651414,Alley Light Out,1541 N KEDVALE AVE,60651.0,1148431.40717904,1909989.50992813,30.0,25.0,23.0,41.90895272883763,-87.73016965592508,"(41.90895272883763, -87.73016965592508)",2010-10-11
56406,10/11/2010,Completed,02/11/2011,10-01651460,Alley Light Out,5944 W FILLMORE ST,60644.0,1136821.04950385,1894732.7473749002,29.0,15.0,25.0,41.867302297753355,-87.77318718063721,"(41.86730229775336, -87.77318718063721)",2010-10-11
56678,10/12/2010,Completed,01/04/2011,10-01659024,Alley Light Out,10931 S MILLARD AVE,60655.0,1153951.66997274,1831871.97988586,19.0,22.0,74.0,41.69447888673879,-87.71196515322906,"(41.6944788867388, -87.71196515322906)",2010-10-12
56679,10/12/2010,Completed,01/05/2011,10-01659005,Alley Light Out,6049 S PARKSIDE AVE,60638.0,1139764.65129996,1863895.27227544,13.0,8.0,64.0,41.78262624216493,-87.76313196084959,"(41.78262624216493, -87.76313196084959)",2010-10-12
56680,10/12/2010,Completed,01/06/2011,10-01653963,Alley Light Out,13439 S AVENUE L,60633.0,1202089.55849355,1816468.1093330001,10.0,4.0,55.0,41.65112105848363,-87.53624300682915,"(41.65112105848363, -87.53624300682915)",2010-10-12
56681,10/12/2010,Completed,01/06/2011,10-01654270,Alley Light Out,7636 S CHAPPEL AVE,60649.0,1191196.17121389,1854740.09067851,8.0,4.0,43.0,41.75641306302878,-87.57486596017874,"(41.75641306302878, -87.57486596017873)",2010-10-12
56682,10/12/2010,Completed,01/11/2011,10-01655649,Alley Light Out,1813 S HOYNE AVE,60608.0,1162657.8370058998,1891252.91703328,25.0,12.0,31.0,41.857251523653154,-87.67843353714537,"(41.85725152365316, -87.67843353714538)",2010-10-12
56683,10/12/2010,Completed,01/12/2011,10-01651803,Alley Light Out,4917 W 63RD ST,60638.0,1144620.90998287,1862377.19042886,13.0,8.0,64.0,41.77837061912468,-87.7453652197927,"(41.77837061912468, -87.7453652197927)",2010-10-12
56684,10/12/2010,Completed,01/12/2011,10-01651878,Alley Light Out,6536 S KEDVALE AVE,60629.0,1149828.95252865,1860932.23312575,13.0,8.0,65.0,41.774306119885146,-87.72630937430971,"(41.77430611988515, -87.72630937430972)",2010-10-12
56685,10/12/2010,Completed,01/12/2011,10-01652076,Alley Light Out,8923 S DORCHESTER AVE,60619.0,1187013.78639161,1845981.98002473,8.0,4.0,48.0,41.732480096901945,-87.59047042741553,"(41.732480096901945, -87.59047042741551)",2010-10-12
56686,10/12/2010,Completed,01/12/2011,10-01656397,Alley Light Out,6817 W FOSTER AVE,60656.0,1129753.11830755,1934140.40308077,41.0,16.0,10.0,41.97556550555177,-87.79823237065175,"(41.97556550555177, -87.79823237065173)",2010-10-12
56687,10/12/2010,Completed,01/20/2011,10-01651774,Alley Light Out,9147 S CLYDE AVE,60617.0,1191770.16506795,1844729.21877365,7.0,4.0,48.0,41.72892842833488,-87.57308654503893,"(41.72892842833488, -87.57308654503892)",2010-10-12
56688,10/12/2010,Completed,01/24/2011,10-01659929,Alley Light Out,4820 N SPRINGFIELD AVE,60625.0,1149518.84538958,1931746.9406298,39.0,17.0,14.0,41.96863587491945,-87.72560826207994,"(41.968635874919464, -87.72560826207994)",2010-10-12
56689,10/12/2010,Completed,01/27/2011,10-01657813,Alley Light Out,10502 S AVENUE J,60617.0,1202500.09999169,1835932.99823219,10.0,4.0,52.0,41.70452414513935,-87.53408032149055,"(41.70452414513935, -87.53408032149055)",2010-10-12
56690,10/12/2010,Completed,01/28/2011,10-01657256,Alley Light Out,2601 N MULLIGAN AVE,60639.0,1133640.66990587,1916603.50389177,29.0,25.0,19.0,41.92737488174159,-87.78434926637257,"(41.927374881741585, -87.78434926637256)",2010-10-12
56691,10/12/2010,Completed,01/28/2011,10-01657612,Alley Light Out,5400 W DAKIN ST,60641.0,1139649.42702079,1925746.76991717,38.0,16.0,15.0,41.95235723133021,-87.76204528787547,"(41.95235723133021, -87.76204528787547)",2010-10-12
56692,10/12/2010,Completed,01/28/2011,10-01657985,Alley Light Out,2244 N KILPATRICK AVE,60639.0,1144690.75637915,1914509.83840072,31.0,25.0,19.0,41.921428336006656,-87.74379706685964,"(41.92142833600666, -87.74379706685964)",2010-10-12
56693,10/12/2010,Completed,02/11/2011,10-01651872,Alley Light Out,5519 W CRYSTAL ST,60651.0,1139180.26563136,1907780.33701008,37.0,25.0,25.0,41.903063981616796,-87.76420833989384,"(41.9030639816168, -87.76420833989383)",2010-10-12
56694,10/12/2010,Completed,02/11/2011,10-01659847,Alley Light Out,414 S HAMLIN BLVD,60624.0,1151149.82240577,1897709.84010584,24.0,11.0,26.0,41.875203164131705,-87.72050557444356,"(41.875203164131705, -87.72050557444358)",2010-10-12
56695,10/12/2010,Completed,04/14/2011,10-01657615,Alley Light Out,3939 N LONG AVE,60641.0,1139648.02702079,1925788.86991717,38.0,16.0,15.0,41.95247278331548,-87.76204940276398,"(41.95247278331548, -87.76204940276398)",2010-10-12
56696,10/12/2010,Completed,06/15/2011,10-01654134,Alley Light Out,9934 S YATES AVE,60617.0,1194132.2269269,1839575.09709144,7.0,4.0,51.0,41.71472745866513,-87.56460251144979,"(41.71472745866513, -87.5646025114498)",2010-10-12
56993,10/13/2010,Completed - Dup,01/04/2011,10-01666021,Alley Light Out,11117 S ST LOUIS AVE,60655.0,1155004.99997863,1830652.52731325,19.0,22.0,74.0,41.691111558160244,-87.7081409773607,"(41.691111558160244, -87.70814097736071)",2010-10-13
56994,10/13/2010,Completed,01/03/2011,10-01666758,Alley Light Out,4710 N KEYSTONE AVE,60630.0,1148555.22620143,1930745.21317247,39.0,17.0,14.0,41.9659057651751,-87.72917745565361,"(41.9659057651751, -87.72917745565361)",2010-10-13
56995,10/13/2010,Completed,01/07/2011,10-01664973,Alley Light Out,4740 N HAMLIN AVE,60625.0,1150198.2176234,1931334.8498896,39.0,17.0,14.0,41.96749181923576,-87.72312100938767,"(41.967491819235754, -87.72312100938767)",2010-10-13
56996,10/13/2010,Completed,01/10/2011,10-01664555,Alley Light Out,300 E 103RD ST,60628.0,1180065.41319136,1836738.50189904,9.0,5.0,49.0,41.707276565806715,-87.61620720217122,"(41.707276565806715, -87.61620720217124)",2010-10-13
56997,10/13/2010,Completed,01/10/2011,10-01665685,Alley Light Out,1817 W 69TH ST,60636.0,1165358.07652428,1858927.40529082,17.0,7.0,67.0,41.76848971485265,-87.66943878310025,"(41.76848971485265, -87.66943878310023)",2010-10-13
56998,10/13/2010,Completed,01/11/2011,10-01668984,Alley Light Out,2233 E 71ST ST,60649.0,1192449.5869283,1858353.70937014,5.0,3.0,43.0,41.76629870204543,-87.57015503287775,"(41.76629870204544, -87.57015503287775)",2010-10-13
56999,10/13/2010,Completed,01/12/2011,10-01668820,Alley Light Out,11034 S AVENUE H,60617.0,1202863.70052542,1832406.56340151,10.0,4.0,52.0,41.6948380441221,-87.53286892296718,"(41.6948380441221, -87.53286892296718)",2010-10-13
57000,10/13/2010,Completed,01/19/2011,10-01660298,Alley Light Out,1521 E 72ND ST,60619.0,1187665.41959284,1857554.99023231,5.0,3.0,43.0,41.76422209268403,-87.5877158496401,"(41.76422209268403, -87.5877158496401)",2010-10-13
57001,10/13/2010,Completed,01/28/2011,10-01661884,Alley Light Out,11115 S ARTESIAN AVE,60655.0,1162032.75389762,1830686.68556713,19.0,22.0,75.0,41.691062444317325,-87.68241059320049,"(41.69106244431732, -87.6824105932005)",2010-10-13
57002,10/13/2010,Completed,02/11/2011,10-01663531,Alley Light Out,1110 N CENTRAL AVE,60651.0,1138807.7087171,1906878.65222746,29.0,15.0,25.0,41.900596424327404,-87.76559875476026,"(41.90059642432741, -87.76559875476026)",2010-10-13
57003,10/13/2010,Completed,02/14/2011,10-01669070,Alley Light Out,159 W BURTON PL,60610.0,1174767.29736556,1910264.48452554,43.0,18.0,8.0,41.909158338554896,-87.6334160666797,"(41.90915833855489, -87.63341606667971)",2010-10-13
57212,10/14/2010,Completed,01/06/2011,10-01673104,Alley Light Out,10906 S STATE LINE RD,60617.0,1205107.42177969,1833261.33999225,10.0,4.0,52.0,41.69712610676129,-87.52462483142428,"(41.69712610676129, -87.52462483142426)",2010-10-14
57213,10/14/2010,Completed,01/06/2011,10-01675522,Alley Light Out,13531 S BRANDON AVE,60633.0,1199442.7805795,1815874.84451991,10.0,4.0,55.0,41.64955981946824,-87.54594669385578,"(41.649559819468244, -87.54594669385578)",2010-10-14
57214,10/14/2010,Completed,01/06/2011,10-01676775,Alley Light Out,10908 S AVENUE L,60617.0,1201866.93278302,1833239.15149523,10.0,4.0,52.0,41.69714810083981,-87.53649009313509,"(41.69714810083981, -87.5364900931351)",2010-10-14
57215,10/14/2010,Completed,01/10/2011,10-01670953,Alley Light Out,6944 S OAKLEY AVE,60636.0,1162264.9826191003,1858563.20828341,17.0,8.0,66.0,41.767555263659396,-87.68078666456854,"(41.767555263659396, -87.68078666456853)",2010-10-14
57216,10/14/2010,Completed,01/10/2011,10-01674257,Alley Light Out,2030 W 70TH ST,60636.0,1164032.32811171,1858234.23622161,17.0,7.0,67.0,41.766615541854634,-87.67431778445616,"(41.76661554185463, -87.67431778445616)",2010-10-14
57217,10/14/2010,Completed,01/18/2011,10-01675662,Alley Light Out,9848 S INGLESIDE AVE,60628.0,1184292.5083789,1839868.18778603,8.0,5.0,50.0,41.71576716281282,-87.60063017989991,"(41.715767162812824, -87.6006301798999)",2010-10-14
57218,10/14/2010,Completed,01/18/2011,10-01675680,Alley Light Out,9728 S LOWE AVE,60628.0,1173686.02451176,1840362.25192646,21.0,22.0,73.0,41.71736407101007,-87.6394615397831,"(41.71736407101007, -87.6394615397831)",2010-10-14
57219,10/14/2010,Completed,01/19/2011,10-01676367,Alley Light Out,8550 S ABERDEEN ST,60620.0,1170468.64930811,1848443.38991851,21.0,6.0,71.0,41.739610424805655,-87.65101080556585,"(41.739610424805655, -87.65101080556585)",2010-10-14
57220,10/14/2010,Completed,01/28/2011,10-01671811,Alley Light Out,3847 W DEVON AVE,60659.0,1149503.37691327,1942175.37198826,39.0,17.0,13.0,41.997252435962096,-87.72539297373508,"(41.99725243596209, -87.72539297373508)",2010-10-14
57221,10/14/2010,Completed,02/11/2011,10-01669354,Alley Light Out,4309 W AUGUSTA BLVD,60651.0,1147468.0425688,1906315.96218215,37.0,11.0,23.0,41.89889066710516,-87.73380295678508,"(41.89889066710516, -87.73380295678508)",2010-10-14
57399,10/15/2010,Completed,01/10/2011,10-01677281,Alley Light Out,8808 S BUFFALO AVE,60617.0,1199572.48172434,1847192.42061722,10.0,4.0,46.0,41.73549498458916,-87.54442274112398,"(41.73549498458916, -87.54442274112398)",2010-10-15
57400,10/15/2010,Completed,01/10/2011,10-01681371,Alley Light Out,3053 N NATCHEZ AVE,60634.0,1132550.38558145,1919596.07621433,36.0,25.0,19.0,41.93560593518404,-87.78828578415256,"(41.935605935184036, -87.78828578415256)",2010-10-15
57401,10/15/2010,Completed,01/10/2011,10-01681532,Alley Light Out,3312 E 91ST ST,60617.0,1199752.76530917,1845251.65532139,10.0,4.0,46.0,41.730164841698986,-87.54382748877731,"(41.73016484169899, -87.54382748877731)",2010-10-15
57402,10/15/2010,Completed,01/12/2011,10-01682553,Alley Light Out,6131 S KENNETH AVE,60629.0,1147756.72749243,1863577.47172277,13.0,8.0,65.0,41.78160497548172,-87.7338382906506,"(41.78160497548172, -87.7338382906506)",2010-10-15
57403,10/15/2010,Completed,01/13/2011,10-01683475,Alley Light Out,11920 S LA SALLE ST,60628.0,1177404.18171886,1825907.83957257,9.0,5.0,53.0,41.67761604684472,-87.6262781538003,"(41.67761604684472, -87.62627815380029)",2010-10-15
57404,10/15/2010,Completed,01/18/2011,10-01683625,Alley Light Out,1159 N LAWNDALE AVE,60651.0,1151497.09008716,1907492.22767869,27.0,11.0,23.0,41.902040239437426,-87.71897338413704,"(41.90204023943743, -87.71897338413703)",2010-10-15
57405,10/15/2010,Completed,01/20/2011,10-01678101,Alley Light Out,8601 S YATES BLVD,60617.0,1193658.88248365,1848414.93007979,7.0,4.0,46.0,41.73899636479628,-87.56604748933485,"(41.73899636479628, -87.56604748933484)",2010-10-15
57406,10/15/2010,Completed,01/20/2011,10-01683634,Alley Light Out,1428 E 90TH PL,60619.0,1187031.05371862,1845249.48012346,8.0,4.0,48.0,41.73046963061045,-87.59043033184405,"(41.73046963061045, -87.59043033184405)",2010-10-15
57407,10/15/2010,Completed,01/25/2011,10-01683676,Alley Light Out,10221 S CALHOUN AVE,60617.0,1194828.17788026,1837696.00508305,10.0,4.0,51.0,41.70955396812224,-87.56211533025495,"(41.70955396812224, -87.56211533025495)",2010-10-15
57408,10/15/2010,Completed,01/27/2011,10-01679814,Alley Light Out,9634 S COMMERCIAL AVE,60617.0,1197814.96939361,1841643.75781359,10.0,4.0,51.0,41.72031302427245,-87.55104617562964,"(41.72031302427245, -87.55104617562964)",2010-10-15
57409,10/15/2010,Completed,01/27/2011,10-01679883,Alley Light Out,9741 S EXCHANGE AVE,60617.0,1197452.21262986,1840926.9495042,10.0,4.0,51.0,41.71835507732463,-87.55239864769985,"(41.71835507732463, -87.55239864769985)",2010-10-15
57410,10/15/2010,Completed,01/27/2011,10-01679902,Alley Light Out,2940 E 98TH ST,60617.0,1197483.27328194,1840544.40206958,10.0,4.0,51.0,41.71730456026372,-87.55229759702887,"(41.71730456026372, -87.55229759702887)",2010-10-15
57411,10/15/2010,Completed,01/27/2011,10-01679940,Alley Light Out,2941 E 96TH ST,60617.0,1197463.46950787,1841863.44768604,10.0,4.0,51.0,41.72092462986915,-87.5523263023526,"(41.72092462986916, -87.5523263023526)",2010-10-15
57412,10/15/2010,Completed,01/28/2011,10-01678632,Alley Light Out,9040 S UNION AVE,60620.0,1173226.37186662,1844864.80412725,21.0,22.0,71.0,41.729729858631565,-87.6410124260142,"(41.729729858631565, -87.64101242601421)",2010-10-15
57564,10/16/2010,Completed,01/03/2011,10-01684833,Alley Light Out,4720 N KASSON AVE,60630.0,1146640.6500186,1931005.27510909,39.0,17.0,14.0,41.9666562242808,-87.73621038152577,"(41.966656224280804, -87.73621038152577)",2010-10-16
57565,10/16/2010,Completed,01/10/2011,10-01684309,Alley Light Out,2447 N MASON AVE,60639.0,1136318.96031852,1915651.1357055001,29.0,25.0,19.0,41.924713998641685,-87.77453028136696,"(41.924713998641685, -87.77453028136696)",2010-10-16
57566,10/16/2010,Completed,01/25/2011,10-01684517,Alley Light Out,8801 S WABASH AVE,60619.0,1178249.49147898,1846657.18430635,6.0,6.0,44.0,41.734536032044396,-87.62255719312779,"(41.734536032044396, -87.62255719312778)",2010-10-16
57567,10/16/2010,Completed,01/28/2011,10-01685271,Alley Light Out,7613 S JEFFERY BLVD,60649.0,1190858.7240292,1854885.62947288,8.0,4.0,43.0,41.75682059101871,-87.57609792096706,"(41.75682059101871, -87.57609792096707)",2010-10-16
57568,10/16/2010,Completed,01/28/2011,10-01685300,Alley Light Out,9100 S LOWE AVE,60620.0,1173568.21788745,1844534.69669556,21.0,22.0,73.0,41.728816446763894,-87.63976989448561,"(41.7288164467639, -87.63976989448561)",2010-10-16
57569,10/16/2010,Completed,02/09/2011,10-01684605,Alley Light Out,10871 S PROSPECT AVE,60643.0,1166679.55482245,1832469.66319894,19.0,22.0,75.0,41.695857618144096,-87.6653475620961,"(41.695857618144096, -87.66534756209609)",2010-10-16
57570,10/16/2010,Completed,02/11/2011,10-01685114,Alley Light Out,4348 W JACKSON BLVD,60624.0,1147446.3504672,1898332.1192796002,28.0,11.0,26.0,41.87698252692877,-87.73408741576581,"(41.876982526928764, -87.73408741576583)",2010-10-16
57571,10/16/2010,Completed,04/06/2011,10-01685191,Alley Light Out,4710 W ERIE ST,60644.0,1144800.64921481,1903897.13407725,28.0,11.0,25.0,41.89230386277328,-87.74366134640181,"(41.89230386277328, -87.74366134640181)",2010-10-16
57572,10/16/2010,Completed,04/26/2011,10-01685323,Alley Light Out,800 N WALLER AVE,60651.0,1138215.03998268,1904769.50912394,29.0,15.0,25.0,41.8948194174662,-87.76782675795602,"(41.8948194174662, -87.767826757956)",2010-10-16
57698,10/17/2010,Completed,01/06/2011,10-01686855,Alley Light Out,9643 S AVENUE J,60617.0,1202446.62002177,1841717.80000324,10.0,4.0,52.0,41.72039945831881,-87.534079523637,"(41.720399458318816, -87.53407952363702)",2010-10-17
57699,10/17/2010,Completed,01/10/2011,10-01686581,Alley Light Out,7818 S VERNON AVE,60619.0,1180598.17861383,1853270.44120025,6.0,6.0,69.0,41.752630017479795,-87.61375011375915,"(41.7526300174798, -87.61375011375915)",2010-10-17
57700,10/17/2010,Completed,01/12/2011,10-01686623,Alley Light Out,8411 S SEELEY AVE,60620.0,1164155.53768294,1848865.35120949,18.0,6.0,71.0,41.74090337786579,-87.6741292928257,"(41.74090337786579, -87.6741292928257)",2010-10-17
57701,10/17/2010,Completed,01/18/2011,10-01686488,Alley Light Out,9014 S ELLIS AVE,60619.0,1184460.69991899,1845416.68153146,8.0,4.0,47.0,41.73098894207556,-87.59984104036465,"(41.730988942075555, -87.59984104036465)",2010-10-17
57702,10/17/2010,Completed,01/27/2011,10-01686593,Alley Light Out,10626 S AVENUE O,60617.0,1200864.8784336,1835099.62997317,10.0,4.0,52.0,41.70227880028347,-87.54009621482378,"(41.70227880028347, -87.54009621482378)",2010-10-17
57703,10/17/2010,Completed,02/24/2011,10-01685682,Alley Light Out,1758 S ALLPORT ST,60608.0,1168313.63270814,1891681.52758329,25.0,12.0,31.0,41.85830741365485,-87.65766122350634,"(41.85830741365485, -87.65766122350634)",2010-10-17
57704,10/17/2010,Completed,04/13/2011,10-01686559,Alley Light Out,5200 W CRYSTAL ST,60651.0,1141470.47897819,1907828.77541295,37.0,25.0,25.0,41.903154900219995,-87.75579462050432,"(41.903154900219995, -87.75579462050433)",2010-10-17
57998,10/18/2010,Completed,01/06/2011,10-01691388,Alley Light Out,1544 W AUGUSTA BLVD,60642.0,1165915.33866675,1906757.9895209,27.0,13.0,24.0,41.899729883723744,-87.6660341732254,"(41.899729883723744, -87.6660341732254)",2010-10-18
57999,10/18/2010,Completed,01/07/2011,10-01693675,Alley Light Out,3650 W 59TH PL,60629.0,1153310.39998159,1864912.9300323003,13.0,8.0,65.0,41.785161619624205,-87.71344166336723,"(41.7851616196242, -87.71344166336723)",2010-10-18
58000,10/18/2010,Completed,01/11/2011,10-01688248,Alley Light Out,7839 S MAY ST,60620.0,1170012.1654232,1852815.83738696,17.0,6.0,71.0,41.751618935922224,-87.6525565482443,"(41.75161893592223, -87.6525565482443)",2010-10-18
58001,10/18/2010,Completed,01/11/2011,10-01694024,Alley Light Out,11104 S AVENUE J,60617.0,1202538.30489943,1831946.13030059,10.0,4.0,52.0,41.69358286752178,-87.53407590521246,"(41.69358286752179, -87.53407590521245)",2010-10-18
58002,10/18/2010,Completed,01/12/2011,10-01690073,Alley Light Out,6130 S KOSTNER AVE,60629.0,1148089.84868273,1863591.30187522,13.0,8.0,65.0,41.78163654798609,-87.73261661706341,"(41.78163654798609, -87.7326166170634)",2010-10-18
58003,10/18/2010,Completed,01/12/2011,10-01690083,Alley Light Out,6058 S KOLMAR AVE,60629.0,1147075.66188202,1864046.27901699,13.0,8.0,65.0,41.78290446215362,-87.73632334338812,"(41.78290446215362, -87.73632334338812)",2010-10-18
58004,10/18/2010,Completed,01/12/2011,10-01694111,Alley Light Out,3436 W 82ND ST,60652.0,1154955.28278392,1850011.44518429,18.0,8.0,70.0,41.74423690240131,-87.70780805651764,"(41.74423690240131, -87.70780805651764)",2010-10-18
58005,10/18/2010,Completed,01/12/2011,10-01694240,Alley Light Out,2215 W 81ST PL,60620.0,1162660.26000811,1850844.47109835,18.0,8.0,70.0,41.74636568511022,-87.679552803332,"(41.74636568511022, -87.679552803332)",2010-10-18
58006,10/18/2010,Completed,01/18/2011,10-01689894,Alley Light Out,10511 S WENTWORTH AVE,60628.0,1176810.91293404,1835206.1539218999,34.0,5.0,49.0,41.70314534208201,-87.62817108712368,"(41.70314534208201, -87.62817108712369)",2010-10-18
58007,10/18/2010,Completed,01/19/2011,10-01687179,Alley Light Out,7800 S WOODLAWN AVE,60619.0,1185574.60998824,1853517.23002946,8.0,4.0,45.0,41.75319156910494,-87.59550600900309,"(41.75319156910494, -87.5955060090031)",2010-10-18
58008,10/18/2010,Completed,01/28/2011,10-01687462,Alley Light Out,8129 S AVALON AVE,60619.0,1185957.12900363,1851341.26818911,8.0,4.0,45.0,41.74721150342111,-87.5941727447535,"(41.74721150342112, -87.5941727447535)",2010-10-18
58009,10/18/2010,Completed,01/28/2011,10-01688913,Alley Light Out,6416 S OAKLEY AVE,60636.0,1162176.21858259,1862053.55857944,15.0,8.0,66.0,41.777135118583686,-87.68101498766745,"(41.777135118583686, -87.68101498766745)",2010-10-18
58010,10/18/2010,Completed,03/30/2011,10-01687251,Alley Light Out,11631 S ABERDEEN ST,60643.0,1171081.76829844,1827672.03110319,34.0,5.0,53.0,41.68259732353675,-87.64936893912365,"(41.68259732353674, -87.64936893912365)",2010-10-18
58266,10/19/2010,Completed - Dup,04/04/2011,10-01697928,Alley Light Out,4407 W THOMAS ST,60651.0,1146792.35461213,1906964.06238943,37.0,11.0,23.0,41.900682053822116,-87.73626818760788,"(41.900682053822116, -87.73626818760788)",2010-10-19
58267,10/19/2010,Completed,01/06/2011,10-01699274,Alley Light Out,1550 N STATE PKWY,60610.0,1176014.28142167,1910392.48312156,42.0,18.0,8.0,41.909481559186155,-87.62883140181472,"(41.909481559186155, -87.62883140181474)",2010-10-19
58268,10/19/2010,Completed,01/06/2011,10-01701372,Alley Light Out,800 N CLARK ST,60610.0,1175395.54807135,1905706.03551474,42.0,18.0,8.0,41.89663564314517,-87.6312452339227,"(41.89663564314517, -87.63124523392268)",2010-10-19
58269,10/19/2010,Completed,01/06/2011,10-01701861,Alley Light Out,10001 S AVENUE L,60617.0,1201811.55211239,1839330.10828523,10.0,4.0,52.0,41.713863601546606,-87.53648650091169,"(41.71386360154661, -87.53648650091169)",2010-10-19
58270,10/19/2010,Completed,01/06/2011,10-01702515,Alley Light Out,1862 N MAUD AVE,60614.0,1169068.04118191,1912510.04129881,32.0,18.0,7.0,41.91544598114103,-87.65428708816299,"(41.91544598114103, -87.654287088163)",2010-10-19
58271,10/19/2010,Completed,01/07/2011,10-01698590,Alley Light Out,7800 S PAXTON AVE,60649.0,1192221.82127485,1853681.77001663,8.0,4.0,43.0,41.75348406884363,-87.57114158564288,"(41.75348406884363, -87.57114158564288)",2010-10-19
58272,10/19/2010,Completed,01/07/2011,10-01702760,Alley Light Out,1930 N HERMITAGE AVE,60622.0,1164376.76878875,1912895.64347176,32.0,14.0,22.0,41.91660472982568,-87.67151139455416,"(41.91660472982568, -87.67151139455416)",2010-10-19
58273,10/19/2010,Completed,01/11/2011,10-01701607,Alley Light Out,9900 S PERRY AVE,60628.0,1177348.60522088,1839317.25439808,9.0,5.0,49.0,41.714414672567614,-87.62607854761312,"(41.71441467256761, -87.62607854761312)",2010-10-19
58274,10/19/2010,Completed,01/11/2011,10-01701832,Alley Light Out,11070 S AVENUE G,60617.0,1203196.87339616,1831970.51680812,10.0,4.0,52.0,41.69363299184501,-87.53166396834307,"(41.693632991845014, -87.53166396834307)",2010-10-19
58275,10/19/2010,Completed,01/12/2011,10-01702792,Alley Light Out,7120 S MILLARD AVE,60629.0,1153264.4300129998,1857147.92001164,13.0,8.0,65.0,41.763854132827646,-87.71381530157629,"(41.763854132827646, -87.71381530157629)",2010-10-19
58276,10/19/2010,Completed,01/13/2011,10-01702396,Alley Light Out,2248 W AUGUSTA BLVD,60622.0,1161235.01168518,1906618.03680192,32.0,13.0,24.0,41.899444453168,-87.68322891873188,"(41.899444453168, -87.68322891873188)",2010-10-19
58277,10/19/2010,Completed,01/19/2011,10-01694627,Alley Light Out,9545 S BISHOP ST,60643.0,1168351.22660882,1841445.96289444,21.0,22.0,73.0,41.72045426209,-87.6589695800811,"(41.72045426209, -87.6589695800811)",2010-10-19
58278,10/19/2010,Completed,01/19/2011,10-01700115,Alley Light Out,1719 W 91ST PL,60620.0,1166548.0204235,1844006.18000351,21.0,22.0,73.0,41.72751846268461,-87.66550155053946,"(41.72751846268461, -87.66550155053945)",2010-10-19
58279,10/19/2010,Completed,01/20/2011,10-01701831,Alley Light Out,9157 S CLYDE AVE,60617.0,1191772.05120606,1844662.14131193,7.0,4.0,48.0,41.72874431560883,-87.57308180604772,"(41.72874431560883, -87.57308180604774)",2010-10-19
58280,10/19/2010,Completed,01/25/2011,10-01702798,Alley Light Out,10200 S HOXIE AVE,60617.0,1195152.07799329,1837841.61863069,10.0,4.0,51.0,41.7099455792031,-87.56092440426771,"(41.7099455792031, -87.56092440426772)",2010-10-19
58281,10/19/2010,Completed,01/28/2011,10-01697359,Alley Light Out,9411 S UNION AVE,60620.0,1173295.40753178,1842454.36532103,21.0,22.0,73.0,41.72311375638885,-87.64083056610531,"(41.723113756388855, -87.64083056610532)",2010-10-19
58282,10/19/2010,Completed,01/28/2011,10-01700085,Alley Light Out,9700 S WINCHESTER AVE,60643.0,1165170.55641344,1840331.94931736,19.0,22.0,72.0,41.71746501091725,-87.67065104195092,"(41.717465010917245, -87.6706510419509)",2010-10-19
58283,10/19/2010,Completed,01/28/2011,10-01702184,Alley Light Out,10121 S AVENUE N,60617.0,1201159.22238174,1838477.36996924,10.0,4.0,52.0,41.71154015972103,-87.53890433423997,"(41.71154015972103, -87.53890433423999)",2010-10-19
58284,10/19/2010,Completed,01/28/2011,10-01702394,Alley Light Out,7964 S ESSEX AVE,60617.0,1194237.90792855,1852652.73878415,7.0,4.0,46.0,41.750611076371825,-87.56378723834958,"(41.75061107637182, -87.56378723834958)",2010-10-19
58285,10/19/2010,Completed,02/16/2011,10-01702596,Alley Light Out,12221 S BISHOP ST,60643.0,1168871.93493349,1823632.70546732,34.0,5.0,53.0,41.67156057735467,-87.65757424365931,"(41.67156057735467, -87.6575742436593)",2010-10-19
58286,10/19/2010,Completed,02/19/2011,10-01695025,Alley Light Out,11208 S GREEN BAY AVE,60617.0,1200566.92769843,1831247.75678247,10.0,4.0,52.0,41.69171643606039,-87.54131689872914,"(41.69171643606039, -87.54131689872912)",2010-10-19
58287,10/19/2010,Completed,03/31/2011,10-01697890,Alley Light Out,4727 W LE MOYNE ST,60651.0,1144492.8707303999,1909554.14738338,37.0,25.0,25.0,41.9078331347402,-87.74464913758297,"(41.9078331347402, -87.74464913758297)",2010-10-19
58505,10/20/2010,Completed,01/06/2011,10-01707794,Alley Light Out,3320 E 134TH ST,60633.0,1200313.29230041,1816716.7131173,10.0,4.0,55.0,41.65184814086543,-87.5427335504533,"(41.651848140865425, -87.5427335504533)",2010-10-20
58506,10/20/2010,Completed,01/06/2011,10-01710603,Alley Light Out,5801 S SAWYER AVE,60629.0,1155707.59107942,1865974.14996725,14.0,8.0,63.0,41.788025998978284,-87.70462396751672,"(41.78802599897828, -87.70462396751672)",2010-10-20
58507,10/20/2010,Completed,01/10/2011,10-01704477,Alley Light Out,6047 W BYRON ST,60634.0,1135348.2955918,1925294.63738546,38.0,16.0,17.0,41.95119412008047,-87.77786739145516,"(41.95119412008048, -87.77786739145516)",2010-10-20
58508,10/20/2010,Completed,01/10/2011,10-01711172,Alley Light Out,2937 N MULLIGAN AVE,60634.0,1133570.00076825,1918846.61530032,29.0,25.0,19.0,41.93353147998132,-87.7845561944362,"(41.93353147998132, -87.7845561944362)",2010-10-20
58509,10/20/2010,Completed,01/12/2011,10-01711220,Alley Light Out,5855 N WEST CIRCLE AVE,60631.0,1127751.19656641,1938459.95071818,41.0,16.0,10.0,41.98745285696928,-87.80549642833874,"(41.98745285696927, -87.80549642833873)",2010-10-20
58510,10/20/2010,Completed,01/18/2011,10-01709856,Alley Light Out,413 E 89TH ST,60619.0,1180559.53087768,1846063.56457069,6.0,6.0,44.0,41.73285440644342,-87.61411247298383,"(41.73285440644342, -87.61411247298385)",2010-10-20
58511,10/20/2010,Completed,01/19/2011,10-01703869,Alley Light Out,8733 S SANGAMON ST,60620.0,1171502.41462863,1846922.07059827,21.0,22.0,71.0,41.73541316188,-87.64726768741913,"(41.73541316188, -87.64726768741913)",2010-10-20
58512,10/20/2010,Completed,01/19/2011,10-01709286,Alley Light Out,9500 S RACINE AVE,60643.0,1169992.87143283,1841780.11162676,21.0,22.0,73.0,41.72133577060968,-87.65294696037901,"(41.721335770609684, -87.652946960379)",2010-10-20
58513,10/20/2010,Completed,01/24/2011,10-01705327,Alley Light Out,1863 W 107TH ST,60643.0,1165574.62477967,1833699.5225059,19.0,22.0,75.0,41.69925600342943,-87.66935840833601,"(41.699256003429426, -87.66935840833602)",2010-10-20
58514,10/20/2010,Completed,01/27/2011,10-01708318,Alley Light Out,11127 S AVENUE O,60617.0,1200891.85737858,1831784.90287662,10.0,4.0,52.0,41.69318220993621,-87.5401092110256,"(41.69318220993621, -87.5401092110256)",2010-10-20
58515,10/20/2010,Completed,01/27/2011,10-01708662,Alley Light Out,11135 S AVENUE O,60617.0,1200892.45737858,1831731.40287662,10.0,4.0,52.0,41.693035385855865,-87.54010881812998,"(41.69303538585587, -87.54010881812998)",2010-10-20
58516,10/20/2010,Completed,01/27/2011,10-01710994,Alley Light Out,3263 E 136TH ST,60633.0,1199932.77992048,1815384.0784998,10.0,4.0,55.0,41.64820080570307,-87.54417039458069,"(41.64820080570307, -87.54417039458068)",2010-10-20
58517,10/20/2010,Completed,01/28/2011,10-01704581,Alley Light Out,10342 S AVENUE G,60617.0,1203151.22101196,1837002.23007082,10.0,4.0,52.0,41.70744159539309,-87.53165962855431,"(41.707441595393085, -87.53165962855432)",2010-10-20
58518,10/20/2010,Completed,01/28/2011,10-01709353,Alley Light Out,9444 S UNION AVE,60620.0,1173301.50753178,1842232.76532103,21.0,22.0,73.0,41.72250552022646,-87.64081475208954,"(41.72250552022646, -87.64081475208955)",2010-10-20
58519,10/20/2010,Completed,01/28/2011,10-01710735,Alley Light Out,2209 W 51ST ST,60609.0,1162417.52819161,1870812.1493025,16.0,9.0,63.0,41.80116480956713,-87.6798863057616,"(41.801164809567126, -87.67988630576161)",2010-10-20
58520,10/20/2010,Completed,01/28/2011,10-01710923,Alley Light Out,10600 S AVENUE E,60617.0,1203827.97261303,1835281.09136755,10.0,4.0,52.0,41.70270133946266,-87.52924027206639,"(41.702701339462664, -87.52924027206639)",2010-10-20
58521,10/20/2010,Completed,01/28/2011,10-01711034,Alley Light Out,3711 N CICERO AVE,60641.0,1143711.35911571,1924291.89889027,38.0,17.0,15.0,41.948289666027435,-87.74714991032901,"(41.94828966602743, -87.74714991032901)",2010-10-20
58522,10/20/2010,Completed,02/17/2011,10-01710664,Alley Light Out,1918 N KOSTNER AVE,60639.0,1146750.10862069,1912384.61678535,31.0,25.0,20.0,41.915557420838326,-87.73628477658802,"(41.915557420838326, -87.73628477658802)",2010-10-20
58667,10/21/2010,Completed,01/06/2011,10-01716424,Alley Light Out,1226 W AUGUSTA BLVD,60642.0,1168161.18002325,1906824.02997696,27.0,13.0,24.0,41.899862871299284,-87.65778331421026,"(41.899862871299284, -87.65778331421026)",2010-10-21
58668,10/21/2010,Completed,01/06/2011,10-01717939,Alley Light Out,6820 S UNION AVE,60621.0,1172914.80249382,1859659.14881093,6.0,7.0,68.0,41.77033430485741,-87.64171815222618,"(41.770334304857414, -87.64171815222619)",2010-10-21
58669,10/21/2010,Completed,01/07/2011,10-01714248,Alley Light Out,626 E 101ST ST,60628.0,1182193.43693125,1838129.93782296,9.0,5.0,49.0,41.71104594863881,-87.60837153382265,"(41.711045948638805, -87.60837153382265)",2010-10-21
58670,10/21/2010,Completed,01/10/2011,10-01718176,Alley Light Out,8146 S COTTAGE GROVE AVE,60619.0,1182973.43602243,1851157.58347335,6.0,6.0,44.0,41.7467772671583,-87.60511139780552,"(41.7467772671583, -87.60511139780552)",2010-10-21
58671,10/21/2010,Completed,01/12/2011,10-01716740,Alley Light Out,2918 E 91ST ST,60617.0,1196970.78992704,1845181.4649332,10.0,4.0,46.0,41.730041804204504,-87.5540208173666,"(41.7300418042045, -87.5540208173666)",2010-10-21
58672,10/21/2010,Completed,01/12/2011,10-01718399,Alley Light Out,5727 N NORTHCOTT AVE,60631.0,1131615.84788032,1937902.84160232,41.0,16.0,10.0,41.98585785960338,-87.79129475195255,"(41.985857859603385, -87.79129475195255)",2010-10-21
58673,10/21/2010,Completed,01/18/2011,10-01715201,Alley Light Out,18 W 104TH PL,60628.0,1177985.59080104,1835681.75002621,34.0,5.0,49.0,41.70442396920637,-87.62385536062678,"(41.70442396920637, -87.62385536062678)",2010-10-21
58674,10/21/2010,Completed,01/19/2011,10-01718749,Alley Light Out,8853 S THROOP ST,60620.0,1169216.55999894,1845856.80997251,21.0,22.0,71.0,41.73253963118736,-87.65567288693299,"(41.73253963118736, -87.65567288693299)",2010-10-21
58675,10/21/2010,Completed,01/20/2011,10-01718396,Alley Light Out,9829 S HOXIE AVE,60617.0,1195084.49248915,1840305.3200888,7.0,4.0,51.0,41.71670787595526,-87.56109098748148,"(41.71670787595526, -87.56109098748148)",2010-10-21
58676,10/21/2010,Completed,01/20/2011,10-01718559,Alley Light Out,6522 S ASHLAND AVE,60636.0,1166792.10617376,1861467.14362213,15.0,7.0,67.0,41.77542859227105,-87.66410991283415,"(41.77542859227105, -87.66410991283416)",2010-10-21
58677,10/21/2010,Completed,01/28/2011,10-01711657,Alley Light Out,5300 S STATE ST,60609.0,1177176.1310318,1869817.36996918,3.0,2.0,40.0,41.798114407448494,-87.6257915273283,"(41.79811440744849, -87.6257915273283)",2010-10-21
58678,10/21/2010,Completed,03/24/2011,10-01715262,Alley Light Out,5248 S MAY ST,60609.0,1169543.45458772,1869989.3629895,16.0,9.0,61.0,41.798755364231546,-87.65377685974386,"(41.79875536423155, -87.65377685974386)",2010-10-21
58679,10/21/2010,Completed,06/01/2011,10-01718736,Alley Light Out,6200 S WOOD ST,60636.0,1165412.08537639,1863570.24038502,15.0,7.0,67.0,41.78122912089811,-87.66910937112912,"(41.78122912089811, -87.66910937112912)",2010-10-21
58877,10/22/2010,Completed,01/03/2011,10-01723885,Alley Light Out,5022 N KILDARE AVE,60630.0,1146807.26569037,1933029.9961748002,39.0,17.0,14.0,41.97220901935029,-87.73554581065666,"(41.97220901935029, -87.73554581065665)",2010-10-22
58878,10/22/2010,Completed,01/11/2011,10-01722350,Alley Light Out,2058 W 18TH PL,60608.0,1162939.88627341,1891065.86178,25.0,12.0,31.0,41.856732317885935,-87.67740350080923,"(41.85673231788594, -87.67740350080923)",2010-10-22
58879,10/22/2010,Completed,01/12/2011,10-01723501,Alley Light Out,8845 S ESCANABA AVE,60617.0,1196924.27929358,1846875.75830187,10.0,4.0,46.0,41.734692240204794,-87.5541350070667,"(41.734692240204794, -87.5541350070667)",2010-10-22
58880,10/22/2010,Completed,01/14/2011,10-01723838,Alley Light Out,7924 S PERRY AVE,60620.0,1176982.94209771,1852452.61079513,17.0,6.0,44.0,41.75046800366305,-87.62702297454197,"(41.75046800366305, -87.62702297454197)",2010-10-22
58881,10/22/2010,Completed,01/18/2011,10-01721393,Alley Light Out,9644 S NORMAL AVE,60628.0,1174663.60806942,1840837.21999562,21.0,22.0,73.0,41.71864577389136,-87.63586698032339,"(41.71864577389136, -87.63586698032339)",2010-10-22
58882,10/22/2010,Completed,01/19/2011,10-01718923,Alley Light Out,9621 S RACINE AVE,60643.0,1170017.1939976,1840921.30387667,21.0,22.0,73.0,41.71897854701492,-87.65288273421406,"(41.71897854701492, -87.65288273421407)",2010-10-22
58883,10/22/2010,Completed,01/19/2011,10-01725093,Alley Light Out,7526 S BLACKSTONE AVE,60619.0,1187512.90741704,1855278.78986768,5.0,4.0,43.0,41.757979619512675,-87.5883470879879,"(41.75797961951267, -87.58834708798791)",2010-10-22
58884,10/22/2010,Completed,01/25/2011,10-01723175,Alley Light Out,5617 S SAWYER AVE,60629.0,1155672.26513412,1867191.84838787,14.0,8.0,63.0,41.79136824719832,-87.7047208497419,"(41.79136824719832, -87.7047208497419)",2010-10-22
58885,10/22/2010,Completed,01/27/2011,10-01721318,Alley Light Out,1418 W 105TH PL,60643.0,1168639.95142432,1834799.9795843998,19.0,22.0,72.0,41.70221043787303,-87.65810294141248,"(41.70221043787302, -87.65810294141248)",2010-10-22
58886,10/22/2010,Completed,01/27/2011,10-01725457,Alley Light Out,10523 S AVENUE O,60617.0,1200855.43719005,1835783.5250821,10.0,4.0,52.0,41.7041557066486,-87.54010771953541,"(41.7041557066486, -87.5401077195354)",2010-10-22
58887,10/22/2010,Completed,01/28/2011,10-01719041,Alley Light Out,10558 S AVENUE N,60617.0,1201183.93819341,1835549.7523047002,10.0,4.0,52.0,41.703505904579615,-87.53891273174769,"(41.703505904579615, -87.53891273174769)",2010-10-22
58888,10/22/2010,Completed,01/28/2011,10-01721284,Alley Light Out,7745 S RHODES AVE,60619.0,1181245.83308258,1853774.46422591,6.0,6.0,69.0,41.75399822239987,-87.61136125030613,"(41.753998222399865, -87.61136125030612)",2010-10-22
58889,10/22/2010,Completed,01/28/2011,10-01725094,Alley Light Out,2015 E 74TH ST,60649.0,1190987.38357936,1856302.04489069,5.0,3.0,43.0,41.76070424464178,-87.5755806911012,"(41.760704244641786, -87.57558069110118)",2010-10-22
58890,10/22/2010,Completed,02/09/2011,10-01720958,Alley Light Out,10347 S FAIRFIELD AVE,60655.0,1159971.45679098,1835921.36772471,19.0,22.0,72.0,41.70546984836685,-87.68981404556244,"(41.705469848366846, -87.68981404556244)",2010-10-22
58891,10/22/2010,Completed,02/17/2011,10-01721353,Alley Light Out,1736 S STATE ST,60616.0,1176606.2990019,1891843.29267301,3.0,1.0,33.0,41.858568197482064,-87.62721729297567,"(41.858568197482064, -87.62721729297567)",2010-10-22
58892,10/22/2010,Completed,02/17/2011,10-01725163,Alley Light Out,511 S CAMPBELL AVE,60612.0,1159816.46241238,1897644.86827527,2.0,11.0,28.0,41.874850665323144,-87.68868683406471,"(41.87485066532314, -87.68868683406471)",2010-10-22
58893,10/22/2010,Completed,06/06/2011,10-01719028,Alley Light Out,13511 S AVENUE M,60633.0,1201762.20251342,1816012.96089034,10.0,4.0,55.0,41.64988038057011,-87.53745608811919,"(41.64988038057011, -87.53745608811919)",2010-10-22
59052,10/23/2010,Completed,01/06/2011,10-01727017,Alley Light Out,518 W 28TH ST,60616.0,1173113.06622899,1886355.44021045,11.0,9.0,60.0,41.84358721834092,-87.64020219785027,"(41.84358721834092, -87.64020219785026)",2010-10-23
59053,10/23/2010,Completed,01/12/2011,10-01726700,Alley Light Out,8600 S WINCHESTER AVE,60620.0,1164847.96277334,1847629.34508739,18.0,6.0,71.0,41.73749700852164,-87.67162711450581,"(41.737497008521636, -87.67162711450582)",2010-10-23
59054,10/23/2010,Completed,01/18/2011,10-01727104,Alley Light Out,6141 S DORCHESTER AVE,60637.0,1186599.4351261002,1864438.09983048,20.0,3.0,42.0,41.783135229686266,-87.59140524768878,"(41.783135229686266, -87.5914052476888)",2010-10-23
59055,10/23/2010,Completed,01/20/2011,10-01726033,Alley Light Out,10501 S TORRENCE AVE,60617.0,1195523.49501919,1835884.44403209,10.0,4.0,51.0,41.70456574978185,-87.55962864163472,"(41.70456574978185, -87.5596286416347)",2010-10-23
59056,10/23/2010,Completed,01/20/2011,10-01727003,Alley Light Out,10451 S HOXIE AVE,60617.0,1195187.52190655,1836209.84339391,10.0,4.0,51.0,41.70546695465725,-87.56084821250302,"(41.705466954657254, -87.56084821250302)",2010-10-23
59057,10/23/2010,Completed,01/28/2011,10-01727025,Alley Light Out,9100 S UNION AVE,60620.0,1173235.68281504,1844525.51818716,21.0,22.0,73.0,41.728798605890326,-87.64098831463635,"(41.728798605890326, -87.64098831463635)",2010-10-23
59058,10/23/2010,Completed,02/17/2011,10-01727042,Alley Light Out,2435 W ADAMS ST,60612.0,1160205.58239919,1898989.43893109,2.0,11.0,28.0,41.87853226322849,-87.68722098433926,"(41.878532263228486, -87.68722098433925)",2010-10-23
59201,10/24/2010,Completed,01/06/2011,10-01728547,Alley Light Out,600 N LARAMIE AVE,60644.0,1141588.78322814,1903513.62988354,28.0,15.0,25.0,41.891311446429306,-87.75546681959902,"(41.891311446429306, -87.75546681959902)",2010-10-24
59202,10/24/2010,Completed,01/13/2011,10-01728959,Alley Light Out,1520 W 105TH ST,60643.0,1168094.01551307,1835117.92258922,19.0,22.0,72.0,41.703094653340344,-87.66009290781662,"(41.70309465334034, -87.66009290781662)",2010-10-24
59203,10/24/2010,Completed,02/24/2011,10-01727155,Alley Light Out,3612 W MONTROSE AVE,60618.0,1151459.89046615,1929001.06397465,33.0,17.0,14.0,41.961063002490405,-87.71854350880365,"(41.96106300249041, -87.71854350880366)",2010-10-24
59474,10/25/2010,Completed,01/05/2011,10-01731895,Alley Light Out,5911 W 59TH ST,60638.0,1137947.36370591,1864836.23021482,13.0,8.0,64.0,41.785241275566015,-87.76977220268236,"(41.785241275566015, -87.76977220268236)",2010-10-25
59475,10/25/2010,Completed,01/12/2011,10-01736541,Alley Light Out,3733 W 80TH PL,60652.0,1152898.42900392,1850952.44232872,18.0,8.0,70.0,41.746859941742,-87.71531991658905,"(41.746859941742, -87.71531991658904)",2010-10-25
59476,10/25/2010,Completed,01/12/2011,10-01737624,Alley Light Out,3816 W 63RD PL,60629.0,1152024.77746904,1862222.23939507,13.0,8.0,65.0,41.77780328651462,-87.7182259470253,"(41.77780328651462, -87.7182259470253)",2010-10-25
59477,10/25/2010,Completed,01/13/2011,10-01731960,Alley Light Out,12117 S STATE ST,60628.0,1178438.87669562,1824529.72988399,9.0,5.0,53.0,41.67381094178882,-87.62253246768516,"(41.67381094178882, -87.62253246768515)",2010-10-25
59478,10/25/2010,Completed,01/13/2011,10-01736075,Alley Light Out,11748 S STATE ST,60628.0,1178363.56468701,1826951.92901351,34.0,5.0,53.0,41.68045952796921,-87.62273500184229,"(41.680459527969205, -87.6227350018423)",2010-10-25
59479,10/25/2010,Completed,01/18/2011,10-01737029,Alley Light Out,527 E 87TH ST,60619.0,1181359.3597702,1847418.6945875,6.0,6.0,44.0,41.736554663912784,-87.6111406999093,"(41.73655466391279, -87.61114069990931)",2010-10-25
59480,10/25/2010,Completed,01/20/2011,10-01731679,Alley Light Out,9025 S CREGIER AVE,60617.0,1189757.32347994,1845487.45488739,8.0,4.0,48.0,41.73105765259949,-87.58043564585105,"(41.731057652599496, -87.58043564585107)",2010-10-25
59481,10/25/2010,Completed,01/25/2011,10-01733008,Alley Light Out,5928 S KEDZIE AVE,60629.0,1156065.61397934,1865141.25136776,16.0,8.0,66.0,41.785733213279954,-87.70333360465858,"(41.785733213279954, -87.70333360465858)",2010-10-25
59482,10/25/2010,Completed,01/28/2011,10-01737786,Alley Light Out,8911 S WALLACE ST,60620.0,1173863.45952015,1845837.58631685,21.0,22.0,71.0,41.732385219110604,-87.63864983909023,"(41.7323852191106, -87.63864983909023)",2010-10-25
59483,10/25/2010,Completed,02/23/2011,10-01735441,Alley Light Out,8710 S SAGINAW AVE,60617.0,1195389.01997806,1847736.82441931,7.0,4.0,46.0,41.73709308211268,-87.55973105594481,"(41.73709308211268, -87.55973105594482)",2010-10-25
59484,10/25/2010,Completed,02/24/2011,10-01737891,Alley Light Out,3550 W MONTROSE AVE,60618.0,1151834.5839071001,1929009.74382166,33.0,17.0,14.0,41.961079435401956,-87.71716570017246,"(41.96107943540195, -87.71716570017246)",2010-10-25
59485,10/25/2010,Completed,03/14/2011,10-01733028,Alley Light Out,8831 S CORNELL AVE,60617.0,1188779.75191497,1846758.1811206,8.0,4.0,48.0,41.7345680633871,-87.58397625715202,"(41.7345680633871, -87.58397625715203)",2010-10-25
59758,10/26/2010,Completed,01/05/2011,10-01746496,Alley Light Out,5951 S KEELER AVE,60629.0,1149388.3471289,1864807.8542209,13.0,8.0,65.0,41.78494996890765,-87.72782453555038,"(41.784949968907654, -87.72782453555037)",2010-10-26
59759,10/26/2010,Completed,01/06/2011,10-01740866,Alley Light Out,1437 W FRY ST,60642.0,1166544.83016834,1905778.61452256,27.0,13.0,24.0,41.897028951657575,-87.66375013159973,"(41.897028951657575, -87.66375013159974)",2010-10-26
59760,10/26/2010,Completed,01/07/2011,10-01745746,Alley Light Out,5057 N MONTICELLO AVE,60625.0,1151142.13000616,1933331.06999129,39.0,17.0,14.0,41.972951076694706,-87.71959773656842,"(41.9729510766947, -87.7195977365684)",2010-10-26
59761,10/26/2010,Completed,01/12/2011,10-01742161,Alley Light Out,8500 S SEELEY AVE,60620.0,1164170.72559392,1848275.57400844,18.0,6.0,71.0,41.73928462094637,-87.6740901988605,"(41.73928462094637, -87.67409019886048)",2010-10-26
59762,10/26/2010,Completed,01/20/2011,10-01743785,Alley Light Out,8734 S STONY ISLAND AVE,60617.0,1188441.91630273,1847388.70707156,8.0,4.0,48.0,41.73630635511401,-87.58519383940019,"(41.73630635511401, -87.58519383940018)",2010-10-26
59763,10/26/2010,Completed,01/28/2011,10-01738111,Alley Light Out,9742 S EWING AVE,60617.0,1202122.90170191,1841126.53157775,10.0,4.0,52.0,41.71878521375975,-87.53528526728354,"(41.718785213759745, -87.53528526728353)",2010-10-26
59764,10/26/2010,Completed,01/28/2011,10-01746032,Alley Light Out,2211 W 103RD ST,60643.0,1163408.81379296,1836302.33523388,19.0,22.0,72.0,41.70644411074121,-87.67721606812486,"(41.70644411074121, -87.67721606812488)",2010-10-26
59765,10/26/2010,Completed,01/28/2011,10-01747533,Alley Light Out,9931 S SEELEY AVE,60643.0,1164443.83621517,1838778.84053407,19.0,22.0,72.0,41.71321834711131,-87.6733563315827,"(41.71321834711131, -87.6733563315827)",2010-10-26
59766,10/26/2010,Completed,02/17/2011,10-01742684,Alley Light Out,17 N LOOMIS ST,60607.0,1166988.46060209,1900216.20647394,27.0,12.0,28.0,41.881755787036454,-87.66228052039631,"(41.881755787036454, -87.66228052039632)",2010-10-26
59989,10/27/2010,Completed,01/05/2011,10-01748667,Alley Light Out,7043 S DAMEN AVE,60636.0,1164244.39282177,1857850.05010723,17.0,7.0,67.0,41.765556820781285,-87.67355128500904,"(41.765556820781285, -87.67355128500905)",2010-10-27
59990,10/27/2010,Completed,01/05/2011,10-01749177,Alley Light Out,6107 S KILPATRICK AVE,60629.0,1146085.92176578,1863702.47990082,13.0,8.0,64.0,41.78197982070402,-87.7399607945975,"(41.781979820704024, -87.73996079459748)",2010-10-27
59991,10/27/2010,Completed,01/05/2011,10-01756816,Alley Light Out,5900 S KOMENSKY AVE,60629.0,1150377.76996705,1865170.17026774,13.0,8.0,65.0,41.78592504284144,-87.72418742845059,"(41.78592504284144, -87.72418742845058)",2010-10-27
59992,10/27/2010,Completed,01/06/2011,10-01756689,Alley Light Out,8300 S BRANDON AVE,60617.0,1198924.19158062,1850547.69103101,10.0,4.0,46.0,41.7447183765742,-87.54668540355719,"(41.7447183765742, -87.54668540355719)",2010-10-27
59993,10/27/2010,Completed,01/12/2011,10-01755762,Alley Light Out,4145 W 79TH ST,60652.0,1150131.45281377,1851849.43788657,13.0,8.0,70.0,41.74937554207532,-87.72543574545358,"(41.74937554207532, -87.72543574545358)",2010-10-27
59994,10/27/2010,Completed,01/13/2011,10-01755769,Alley Light Out,6221 S KILBOURN AVE,60629.0,1147441.42373012,1862972.87126982,13.0,8.0,65.0,41.77995187947118,-87.73500971000574,"(41.77995187947118, -87.73500971000573)",2010-10-27
59995,10/27/2010,Completed,01/13/2011,10-01756772,Alley Light Out,322 W 116TH ST,60628.0,1176129.19282948,1828006.06638595,34.0,5.0,53.0,41.68340252243208,-87.63088238926132,"(41.683402522432075, -87.63088238926132)",2010-10-27
59996,10/27/2010,Completed,01/18/2011,10-01752515,Alley Light Out,3647 W HURON ST,60624.0,1151851.57041651,1904422.76742479,27.0,11.0,23.0,41.89361036429744,-87.71775221696151,"(41.89361036429744, -87.71775221696151)",2010-10-27
59997,10/27/2010,Completed,01/18/2011,10-01753655,Alley Light Out,47 W 104TH ST,60628.0,1177783.6816288,1836009.13839018,34.0,5.0,49.0,41.70532693082997,-87.62458484994356,"(41.70532693082997, -87.62458484994357)",2010-10-27
59998,10/27/2010,Completed,01/19/2011,10-01749631,Alley Light Out,1631 W 93RD ST,60620.0,1166969.93988542,1843025.0529839,21.0,22.0,73.0,41.72481710792759,-87.66398393591055,"(41.72481710792759, -87.66398393591055)",2010-10-27
59999,10/27/2010,Completed,01/20/2011,10-01747840,Alley Light Out,10009 S MORGAN ST,60643.0,1171415.3800788,1838446.3326086001,34.0,22.0,73.0,41.712156420784595,-87.64783381400152,"(41.71215642078459, -87.64783381400152)",2010-10-27
60000,10/27/2010,Completed,01/25/2011,10-01750277,Alley Light Out,9915 S TORRENCE AVE,60617.0,1195450.00387816,1839726.00131522,10.0,4.0,51.0,41.71510916658714,-87.55977137696257,"(41.71510916658714, -87.55977137696257)",2010-10-27
60001,10/27/2010,Completed,01/27/2011,10-01755901,Alley Light Out,10829 S GREEN BAY AVE,60617.0,1200536.09780347,1833758.18991836,10.0,4.0,52.0,41.69860607284546,-87.54134525820467,"(41.69860607284545, -87.54134525820467)",2010-10-27
60002,10/27/2010,Completed,01/28/2011,10-01750562,Alley Light Out,4505 W SUNNYSIDE AVE,60630.0,1145253.91287305,1929525.03392764,45.0,17.0,16.0,41.96262073328306,-87.74134686062504,"(41.96262073328306, -87.74134686062504)",2010-10-27
60003,10/27/2010,Completed,01/28/2011,10-01752236,Alley Light Out,7931 S CRANDON AVE,60617.0,1192906.42472995,1852830.46867466,7.0,4.0,46.0,41.75113135765697,-87.56866053809051,"(41.75113135765697, -87.56866053809051)",2010-10-27
60004,10/27/2010,Completed,01/28/2011,10-01756650,Alley Light Out,9106 S PARNELL AVE,60620.0,1174231.29321338,1844512.25262808,21.0,22.0,73.0,41.72874017029436,-87.63734156867403,"(41.72874017029436, -87.63734156867403)",2010-10-27
60005,10/27/2010,Completed,01/31/2011,10-01747890,Alley Light Out,11408 S CAMPBELL AVE,60655.0,1161765.24008663,1828904.58691761,19.0,22.0,75.0,41.68617758670889,-87.68343921286537,"(41.68617758670888, -87.68343921286537)",2010-10-27
60006,10/27/2010,Completed,02/09/2011,10-01757035,Alley Light Out,10312 S TROY ST,60655.0,1157142.62367554,1836084.60581936,19.0,22.0,74.0,41.70597534545621,-87.70016866283196,"(41.70597534545621, -87.70016866283196)",2010-10-27
60007,10/27/2010,Completed,02/11/2011,10-01757294,Alley Light Out,10427 S CLAREMONT AVE,60643.0,1162564.0991089,1835428.22240205,19.0,22.0,72.0,41.70406301541768,-87.68033366925431,"(41.704063015417674, -87.6803336692543)",2010-10-27
60008,10/27/2010,Completed,02/17/2011,10-01748728,Alley Light Out,113 N MAY ST,60607.0,1168808.54278905,1900831.66890684,27.0,12.0,28.0,41.88340541295961,-87.65557940934723,"(41.88340541295961, -87.65557940934724)",2010-10-27
60009,10/27/2010,Completed,03/14/2011,10-01747758,Alley Light Out,5817 W MADISON ST,60644.0,1137547.58172331,1899421.57972548,29.0,15.0,25.0,41.88015605232613,-87.77040703765394,"(41.880156052326136, -87.77040703765394)",2010-10-27
60010,10/27/2010,Completed,06/03/2011,10-01756563,Alley Light Out,547 S CLARK ST,60605.0,1175610.10942203,1897857.28551187,2.0,1.0,32.0,41.875093411068015,-87.63069323065966,"(41.875093411068015, -87.63069323065965)",2010-10-27
60158,10/28/2010,Completed,01/04/2011,10-01766017,Alley Light Out,2619 W 83RD ST,60652.0,1160257.32003208,1849499.45057581,18.0,8.0,70.0,41.74272450174376,-87.68839472206673,"(41.74272450174376, -87.68839472206673)",2010-10-28
60159,10/28/2010,Completed,01/10/2011,10-01766018,Alley Light Out,7728 S VERNON AVE,60619.0,1180582.38530266,1853868.81130925,6.0,6.0,69.0,41.7542723731601,-87.61378965023458,"(41.754272373160106, -87.6137896502346)",2010-10-28
60160,10/28/2010,Completed,01/12/2011,10-01759498,Alley Light Out,3801 W 65TH PL,60629.0,1152159.63121711,1860902.67491208,13.0,8.0,65.0,41.774179546321285,-87.71776619172064,"(41.77417954632129, -87.71776619172064)",2010-10-28
60161,10/28/2010,Completed,01/13/2011,10-01764960,Alley Light Out,2310 W GARFIELD BLVD,60609.0,1161941.64003357,1868137.23002517,16.0,9.0,63.0,41.79383440423472,-87.68170592736368,"(41.79383440423472, -87.68170592736368)",2010-10-28
60162,10/28/2010,Completed,01/18/2011,10-01763461,Alley Light Out,9132 S GREENWOOD AVE,60619.0,1185142.39651513,1844650.5525746003,8.0,4.0,47.0,41.72887063072182,-87.59736777084049,"(41.72887063072182, -87.59736777084049)",2010-10-28
60163,10/28/2010,Completed,01/20/2011,10-01764102,Alley Light Out,1512 E 85TH ST,60619.0,1187812.30907933,1848922.76529291,8.0,4.0,45.0,41.74053096107539,-87.58745176061623,"(41.7405309610754, -87.58745176061623)",2010-10-28
60164,10/28/2010,Completed,01/24/2011,10-01766449,Alley Light Out,7546 S OGLESBY AVE,60649.0,1193179.93922432,1855383.42621779,7.0,4.0,43.0,41.75813020349364,-87.5675749944906,"(41.75813020349364, -87.56757499449061)",2010-10-28
60165,10/28/2010,Completed,01/25/2011,10-01765987,Alley Light Out,9209 S CALUMET AVE,60619.0,1180194.64781558,1844031.06479048,6.0,6.0,49.0,41.72728533849321,-87.61551129287075,"(41.72728533849321, -87.61551129287075)",2010-10-28
60166,10/28/2010,Completed,01/28/2011,10-01760589,Alley Light Out,8855 S LOWE AVE,60620.0,1173521.24801317,1846188.43280289,21.0,22.0,71.0,41.73335556176927,-87.63989314949707,"(41.73335556176927, -87.63989314949706)",2010-10-28
60167,10/28/2010,Completed,01/28/2011,10-01761882,Alley Light Out,5748 S TROY ST,60629.0,1156364.54503072,1866322.31349631,14.0,8.0,63.0,41.788968201447155,-87.70220578514967,"(41.78896820144716, -87.70220578514967)",2010-10-28
60168,10/28/2010,Completed,01/28/2011,10-01762497,Alley Light Out,5600 S FAIRFIELD AVE,60629.0,1158995.08656635,1867408.88300313,16.0,8.0,63.0,41.79189650226767,-87.69253072305571,"(41.79189650226767, -87.69253072305571)",2010-10-28
60169,10/28/2010,Completed,01/28/2011,10-01766191,Alley Light Out,10531 S AVENUE E,60617.0,1203823.48118116,1835742.52229254,10.0,4.0,52.0,41.703967657801044,-87.52924094215103,"(41.70396765780105, -87.52924094215103)",2010-10-28
60170,10/28/2010,Completed,01/28/2011,10-01766560,Alley Light Out,7211 S LUELLA AVE,60649.0,1192464.96862761,1857587.01102005,5.0,3.0,43.0,41.764194448274424,-87.57012358927545,"(41.76419444827442, -87.57012358927545)",2010-10-28
60171,10/28/2010,Completed,02/17/2011,10-01760675,Alley Light Out,2000 W 18TH PL,60608.0,1163330.40132377,1891074.29000751,25.0,12.0,31.0,41.856747250410216,-87.67596986318064,"(41.85674725041022, -87.67596986318064)",2010-10-28
60172,10/28/2010,Completed,02/24/2011,10-01760547,Alley Light Out,1944 W 83RD ST,60620.0,1164740.10542927,1849618.34298383,18.0,6.0,71.0,41.74295739149704,-87.67196627250664,"(41.742957391497036, -87.67196627250664)",2010-10-28
60173,10/28/2010,Completed,04/04/2011,10-01759700,Alley Light Out,8015 S ABERDEEN ST,60620.0,1170376.12609315,1851658.77857119,21.0,6.0,71.0,41.74843590186837,-87.6512564173768,"(41.74843590186837, -87.65125641737681)",2010-10-28
60337,10/29/2010,Completed - Dup,01/04/2011,10-01770225,Alley Light Out,3540 W MONTROSE AVE,60618.0,1151883.0839071001,1929010.84382166,33.0,17.0,14.0,41.96108149673642,-87.7169873583807,"(41.96108149673642, -87.7169873583807)",2010-10-29
60338,10/29/2010,Completed - Dup,03/15/2011,10-01771856,Alley Light Out,4100 W GRAND AVE,60651.0,1148785.93858182,1909331.8705165002,30.0,25.0,23.0,41.90714125242415,-87.7288842853796,"(41.90714125242415, -87.72888428537959)",2010-10-29
60339,10/29/2010,Completed,01/05/2011,10-01772756,Alley Light Out,6140 W 63RD PL,60638.0,1136571.74260416,1861787.11668317,13.0,8.0,64.0,41.77689858262666,-87.77488855565862,"(41.77689858262666, -87.77488855565862)",2010-10-29
60340,10/29/2010,Completed,01/05/2011,10-01773566,Alley Light Out,6410 S KEATING AVE,60629.0,1145813.84456601,1861681.67788184,13.0,8.0,64.0,41.776439549855155,-87.7410093491253,"(41.776439549855155, -87.74100934912532)",2010-10-29
60341,10/29/2010,Completed,01/07/2011,10-01767005,Alley Light Out,10448 S RHODES AVE,60628.0,1181761.58128821,1835701.57001951,9.0,5.0,49.0,41.70439216004903,-87.61002776948925,"(41.70439216004903, -87.61002776948925)",2010-10-29
60342,10/29/2010,Completed,01/07/2011,10-01770999,Alley Light Out,4900 N TRIPP AVE,60630.0,1147165.43579307,1932225.76719554,39.0,17.0,14.0,41.969995291610005,-87.73424942642862,"(41.969995291610005, -87.73424942642863)",2010-10-29
60343,10/29/2010,Completed,01/12/2011,10-01773687,Alley Light Out,3826 W 59TH ST,60629.0,1151873.96372006,1865209.61232134,13.0,8.0,62.0,41.786004058905924,-87.71870055707217,"(41.78600405890592, -87.71870055707217)",2010-10-29
60344,10/29/2010,Completed,01/14/2011,10-01774217,Alley Light Out,3742 W 59TH ST,60629.0,1152434.60798184,1865225.18787483,14.0,8.0,62.0,41.78603578433899,-87.71664452773216,"(41.78603578433899, -87.71664452773216)",2010-10-29
60345,10/29/2010,Completed,01/19/2011,10-01769368,Alley Light Out,5936 N SHERIDAN RD,60660.0,1168553.61518361,1939713.91991124,48.0,24.0,77.0,41.99010563806162,-87.655386419254,"(41.99010563806162, -87.655386419254)",2010-10-29
60346,10/29/2010,Completed,01/19/2011,10-01773101,Alley Light Out,8616 S ELIZABETH ST,60620.0,1169496.09600153,1847645.83561452,21.0,6.0,71.0,41.737442928317996,-87.65459713619721,"(41.737442928317996, -87.65459713619721)",2010-10-29
60347,10/29/2010,Completed,01/24/2011,10-01767114,Alley Light Out,3345 N SPRINGFIELD AVE,60618.0,1149803.43650959,1921959.6641071998,30.0,17.0,21.0,41.941773313197864,-87.72481736013216,"(41.94177331319787, -87.72481736013215)",2010-10-29
60348,10/29/2010,Completed,01/25/2011,10-01769945,Alley Light Out,8815 S WABASH AVE,60619.0,1178252.29147898,1846562.18430635,6.0,6.0,44.0,41.73427527680296,-87.6225498094923,"(41.73427527680296, -87.6225498094923)",2010-10-29
60349,10/29/2010,Completed,01/28/2011,10-01767276,Alley Light Out,8943 S UNION AVE,60620.0,1173205.90307504,1845619.19502217,21.0,22.0,71.0,41.73180046213332,-87.6410651822339,"(41.731800462133315, -87.6410651822339)",2010-10-29
60350,10/29/2010,Completed,01/28/2011,10-01768879,Alley Light Out,7831 S BURNHAM AVE,60649.0,1196080.71040557,1853576.22922427,7.0,4.0,43.0,41.753099775999075,-87.55700395002691,"(41.753099775999075, -87.55700395002691)",2010-10-29
60351,10/29/2010,Completed,01/28/2011,10-01772375,Alley Light Out,5631 S CALIFORNIA AVE,60629.0,1158669.22022833,1867189.13312444,16.0,8.0,63.0,41.79130013756679,-87.69373162097868,"(41.791300137566786, -87.69373162097867)",2010-10-29
60352,10/29/2010,Completed,02/01/2011,10-01772799,Alley Light Out,13418 S AVENUE M,60633.0,1201756.71740429,1816606.17732118,10.0,4.0,55.0,41.651508370955156,-87.53745611897774,"(41.651508370955156, -87.53745611897773)",2010-10-29
60353,10/29/2010,Completed,02/18/2011,10-01774021,Alley Light Out,10021 S PROSPECT AVE,60643.0,1167385.11381405,1838180.04971152,19.0,22.0,72.0,41.711512799206965,-87.66260141174416,"(41.711512799206965, -87.66260141174416)",2010-10-29
60354,10/29/2010,Completed,03/31/2011,10-01773613,Alley Light Out,4329 W POTOMAC AVE,60651.0,1147277.00262225,1908304.65311218,37.0,25.0,23.0,41.904351505732826,-87.7344536532468,"(41.904351505732826, -87.7344536532468)",2010-10-29
60496,10/30/2010,Completed,01/10/2011,10-01775071,Alley Light Out,6912 S GREEN ST,60621.0,1171828.03880447,1859018.04971189,17.0,7.0,68.0,41.7685989635991,-87.64572056553655,"(41.7685989635991, -87.64572056553654)",2010-10-30
60497,10/30/2010,Completed,01/12/2011,10-01776494,Alley Light Out,8850 S COMMERCIAL AVE,60617.0,1197670.73447723,1847198.04047457,10.0,4.0,46.0,41.735558030779494,-87.55138965437614,"(41.735558030779494, -87.55138965437614)",2010-10-30
60498,10/30/2010,Completed,01/19/2011,10-01774727,Alley Light Out,9223 S PEORIA ST,60620.0,1171935.58988099,1843633.39440098,21.0,22.0,73.0,41.72637908961697,-87.64577694953384,"(41.72637908961697, -87.64577694953385)",2010-10-30
60499,10/30/2010,Completed,01/19/2011,10-01776525,Alley Light Out,8700 S ADA ST,60620.0,1168848.23007933,1847070.99487334,21.0,22.0,71.0,41.73587947967225,-87.6569872889382,"(41.73587947967225, -87.6569872889382)",2010-10-30
60500,10/30/2010,Completed,01/28/2011,10-01775090,Alley Light Out,2050 W 52ND ST,60609.0,1163907.08299754,1870014.13007541,16.0,9.0,61.0,41.798943743194535,-87.67444599659441,"(41.79894374319454, -87.67444599659441)",2010-10-30
60501,10/30/2010,Completed,01/28/2011,10-01775167,Alley Light Out,257 W 107TH ST,60628.0,1176447.88556677,1833982.86448707,34.0,5.0,49.0,41.699796609108155,-87.62953701030558,"(41.69979660910816, -87.62953701030558)",2010-10-30
60502,10/30/2010,Completed,01/28/2011,10-01777020,Alley Light Out,7700 S EAST END AVE,60649.0,1188872.3089747,1854260.56128693,8.0,4.0,43.0,41.75515309677481,-87.58339763564805,"(41.755153096774805, -87.58339763564807)",2010-10-30
60503,10/30/2010,Completed,01/28/2011,10-01777107,Alley Light Out,2100 N CLEVELAND AVE,60614.0,1172587.76850382,1914237.66918124,43.0,18.0,7.0,41.92010947453493,-87.64130482355681,"(41.920109474534925, -87.6413048235568)",2010-10-30
60504,10/30/2010,Completed,02/17/2011,10-01775129,Alley Light Out,2326 W 111TH ST,60643.0,1162827.75879553,1830960.8780172002,19.0,22.0,75.0,41.691798354572796,-87.67949237405833,"(41.691798354572796, -87.67949237405833)",2010-10-30
60614,10/31/2010,Completed,01/05/2011,10-01779282,Alley Light Out,5931 S KEDVALE AVE,60629.0,1149716.55998127,1864948.66190367,13.0,8.0,65.0,41.7853300183453,-87.72661750745544,"(41.7853300183453, -87.72661750745546)",2010-10-31
60615,10/31/2010,Completed,01/12/2011,10-01778747,Alley Light Out,9148 S HARPER AVE,60619.0,1188044.64800624,1844620.01727428,8.0,4.0,48.0,41.72871825220304,-87.58673726007318,"(41.72871825220304, -87.58673726007319)",2010-10-31
60616,10/31/2010,Completed,01/12/2011,10-01779563,Alley Light Out,8800 S EXCHANGE AVE,60617.0,1197292.79871622,1847188.58118262,10.0,4.0,46.0,41.73554148794633,-87.55277454845383,"(41.73554148794633, -87.55277454845383)",2010-10-31
60617,10/31/2010,Completed,04/20/2011,10-01779021,Alley Light Out,110 W 83RD ST,60620.0,1176946.88198679,1849953.47977293,21.0,6.0,44.0,41.74361089855137,-87.62723026600098,"(41.74361089855137, -87.62723026600099)",2010-10-31
