,Creation Date,Status,Completion Date,Service Request Number,Type of Service Request,License Plate,Vehicle Make/Model,Vehicle Color,Current Activity,Most Recent Action,How Many Days Has the Vehicle Been Reported as Parked?,Street Address,ZIP Code,X Coordinate,Y Coordinate,Ward,Police District,Community Area,SSA,Latitude,Longitude,Location,date
74189,05/01/2014,Completed,05/01/2014,14-00630116,Abandoned Vehicle Complaint,L725665,Chevrolet,Tan,FVI - Outcome,Vehicle was moved from original address requested,30.0,6420 S LANGLEY AVE,60637.0,,,20.0,3.0,42.0,,41.7778957349404,-87.60847873260073,"(41.7778957349404, -87.60847873260074)",2014-05-01
74301,05/02/2014,Completed,05/02/2014,14-00637500,Abandoned Vehicle Complaint,NONE,Ford,Unknown,FVI - Outcome,Vehicle was moved from original address requested,30.0,2357 S THROOP ST,60608.0,,,25.0,12.0,31.0,,41.848949312893964,-87.65846559620711,"(41.84894931289397, -87.65846559620711)",2014-05-02
74302,05/01/2014,Completed,05/02/2014,14-00630232,Abandoned Vehicle Complaint,21072V,Dodge,Black,FVI - Outcome,Return to Owner - Vehicle,7.0,3742 S HALSTED ST,60609.0,,,11.0,9.0,60.0,,41.82636867746093,-87.646149689869,"(41.82636867746093, -87.646149689869)",2014-05-01
74303,05/01/2014,Completed,05/02/2014,14-00631940,Abandoned Vehicle Complaint,N649793,Cadillac,Gray,FVI - Outcome,Return to Owner - Vehicle,14.0,1447 E 79TH ST,60619.0,,,8.0,4.0,45.0,50.0,41.751351533983886,-87.58871282310034,"(41.75135153398388, -87.58871282310034)",2014-05-01
74304,05/01/2014,Completed,05/02/2014,14-00632172,Abandoned Vehicle Complaint,5758QH,Chevrolet,Red,FVI - Outcome,Vehicle was moved from original address requested,60.0,10521 S AVENUE N,60617.0,,,10.0,4.0,52.0,,41.70391823330753,-87.53876471206642,"(41.703918233307526, -87.53876471206642)",2014-05-01
74305,05/01/2014,Completed,05/02/2014,14-00632185,Abandoned Vehicle Complaint,839ARP,Ford,Blue,FVI - Outcome,Vehicle was moved from original address requested,21.0,10527 S AVENUE N,60617.0,,,10.0,4.0,52.0,,41.70374768713688,-87.53876472644919,"(41.703747687136875, -87.53876472644919)",2014-05-01
74306,05/01/2014,Completed,05/02/2014,14-00632192,Abandoned Vehicle Complaint,566AVC,Nissan,Gray,FVI - Outcome,Vehicle was moved from original address requested,30.0,10528 S AVENUE N,60617.0,,,10.0,4.0,52.0,,41.70369130866519,-87.53905779747095,"(41.70369130866519, -87.53905779747096)",2014-05-01
74307,05/01/2014,Completed,05/02/2014,14-00634302,Abandoned Vehicle Complaint,S882463,Ford,White,FVI - Outcome,Vehicle was moved from original address requested,10.0,1030 E 50TH ST,60615.0,,,4.0,2.0,39.0,,41.80425299819088,-87.60034577160326,"(41.80425299819088, -87.60034577160327)",2014-05-01
74308,05/01/2014,Completed,05/02/2014,14-00635161,Abandoned Vehicle Complaint,N930646,Chevrolet,White,FVI - Outcome,Return to Owner - Vehicle,14.0,7658 S LUELLA AVE,60649.0,,,7.0,4.0,43.0,,41.755404666328104,-87.57010955896273,"(41.7554046663281, -87.57010955896274)",2014-05-01
74309,05/01/2014,Completed - Dup,05/02/2014,14-00629881,Abandoned Vehicle Complaint,S108788,Toyota,Silver,FVI - Outcome,Create Work Order,160.0,5100 N MARINE DR,60640.0,1169589.14167973,1934337.47049539,48.0,20.0,3.0,34.0,41.9753558029658,-87.65189744998881,"(41.9753558029658, -87.65189744998881)",2014-05-01
74310,05/01/2014,Completed - Dup,05/02/2014,14-00631938,Abandoned Vehicle Complaint,000000,Ford,Bronze,FVI - Outcome,Create Work Order,30.0,5018 W JACKSON BLVD,60644.0,1143104.20493442,1898207.20496796,28.0,15.0,25.0,,41.87683007133269,-87.75017499806887,"(41.87683007133269, -87.75017499806887)",2014-05-01
74503,05/03/2014,Completed,05/05/2014,14-00644558,Abandoned Vehicle Complaint,5110534,Nissan,Black,FVI - Outcome,Vehicle was moved from original address requested,180.0,1436 E 93RD ST,60619.0,,,8.0,4.0,47.0,,41.726043099833284,-87.58954765435413,"(41.72604309983328, -87.58954765435412)",2014-05-03
74504,05/04/2014,Completed,05/05/2014,14-00645563,Abandoned Vehicle Complaint,H851977,Kia Motors Corp,Burgundy,FVI - Outcome,Vehicle was moved from original address requested,16.0,8641 S WOOD ST,60620.0,,,18.0,6.0,71.0,,41.73632699008586,-87.66778890813161,"(41.73632699008586, -87.66778890813161)",2014-05-04
74505,05/04/2014,Completed,05/05/2014,14-00645726,Abandoned Vehicle Complaint,7179347,Dodge,Red,FVI - Outcome,Return to Owner - Vehicle,60.0,8630 S INGLESIDE AVE,60619.0,,,8.0,6.0,44.0,51.0,41.73758207801108,-87.6013534753681,"(41.73758207801108, -87.60135347536809)",2014-05-04
74506,05/04/2014,Completed,05/05/2014,14-00645776,Abandoned Vehicle Complaint,N152921,Ford,Burgundy,FVI - Outcome,Return to Owner - Vehicle,30.0,10049 S AVENUE M,60617.0,,,10.0,4.0,52.0,,41.71248113543817,-87.53754684438894,"(41.71248113543817, -87.53754684438894)",2014-05-04
74507,05/05/2014,Completed,05/05/2014,14-00648456,Abandoned Vehicle Complaint,N152921,Ford,Burgundy,FVI - Outcome,Return to Owner - Vehicle,30.0,10047 S AVENUE M,60617.0,,,10.0,4.0,52.0,,41.712535107846044,-87.53754709873543,"(41.71253510784604, -87.53754709873542)",2014-05-05
74508,05/02/2014,Completed - Dup,05/05/2014,14-00637511,Abandoned Vehicle Complaint,9855784,Saturn,Black,FVI - Outcome,Create Work Order,60.0,5405 S KENNETH AVE,60632.0,1147614.03737991,1868403.43998832,23.0,8.0,62.0,,41.79474027725586,-87.7340888704863,"(41.79474027725586, -87.73408887048629)",2014-05-02
74509,05/02/2014,Completed,05/05/2014,14-00637933,Abandoned Vehicle Complaint,R342174,Chrysler,Gray,FVI - Outcome,Return to Owner - Vehicle,30.0,1311 E 88TH ST,60619.0,,,8.0,4.0,48.0,,41.734891657132046,-87.59244056235815,"(41.73489165713205, -87.59244056235816)",2014-05-02
74510,05/02/2014,Completed,05/05/2014,14-00638696,Abandoned Vehicle Complaint,NONE,Honda,Burgundy,FVI - Outcome,Return to Owner - Vehicle,21.0,3515 W 72ND ST,60629.0,,,18.0,8.0,66.0,,41.76233356940818,-87.71072221025592,"(41.76233356940818, -87.71072221025592)",2014-05-02
74511,05/02/2014,Completed,05/05/2014,14-00639802,Abandoned Vehicle Complaint,00000000,Jeep/Cherokee,Beige,FVI - Outcome,Return to Owner - Vehicle,360.0,8242 S WASHTENAW AVE,60652.0,,,18.0,8.0,70.0,,41.743241190207044,-87.6901663365365,"(41.74324119020705, -87.6901663365365)",2014-05-02
74512,05/02/2014,Completed,05/05/2014,14-00639907,Abandoned Vehicle Complaint,,Cadillac,Blue,FVI - Outcome,Vehicle was moved from original address requested,30.0,7800 S HOYNE AVE,60620.0,,,18.0,6.0,71.0,,41.75193195328447,-87.67576150281236,"(41.75193195328447, -87.67576150281238)",2014-05-02
74513,05/02/2014,Completed,05/05/2014,14-00640175,Abandoned Vehicle Complaint,8684613,Legacy Unknown,Silver,FVI - Outcome,Return to Owner - Vehicle,120.0,7034 S SANGAMON ST,60621.0,,,17.0,7.0,68.0,,41.76591431809213,-87.64822276455195,"(41.76591431809213, -87.64822276455196)",2014-05-02
74514,05/02/2014,Completed,05/05/2014,14-00642301,Abandoned Vehicle Complaint,R481384,Jeep/Cherokee,Black,FVI - Outcome,Vehicle was moved from original address requested,14.0,5501 W PENSACOLA AVE,60641.0,,,38.0,16.0,15.0,,41.959489816047714,-87.76487064687132,"(41.959489816047714, -87.76487064687133)",2014-05-02
74515,05/02/2014,Completed,05/05/2014,14-00642385,Abandoned Vehicle Complaint,SZ4124,(Unlisted Make),White,FVI - Outcome,Vehicle was moved from original address requested,7.0,8128 S PHILLIPS AVE,60617.0,,,7.0,4.0,46.0,,41.747192268407886,-87.56509778609968,"(41.747192268407886, -87.56509778609968)",2014-05-02
74516,05/01/2014,Completed - Dup,05/05/2014,14-00632617,Abandoned Vehicle Complaint,N493593,Acura,Blue,FVI - Outcome,Create Work Order,120.0,3736 W BRYN MAWR AVE,60659.0,1150459.17997398,1936950.32001353,39.0,17.0,13.0,,41.98299653075535,-87.72265487875481,"(41.98299653075535, -87.72265487875481)",2014-05-01
74605,05/06/2014,Completed,05/06/2014,14-00655056,Abandoned Vehicle Complaint,567ACK,Legacy Unknown,Blue,FVI - Outcome,Vehicle was moved from original address requested,14.0,1900 W OGDEN AVE,60612.0,,,2.0,12.0,28.0,,41.8747832553166,-87.67420035434229,"(41.8747832553166, -87.6742003543423)",2014-05-06
74606,05/06/2014,Completed,05/06/2014,14-00656571,Abandoned Vehicle Complaint,919P922,Chevrolet,White,FVI - Outcome,Return to Owner - Vehicle,90.0,1321 S TRIPP AVE,60623.0,,,24.0,10.0,29.0,,41.863602505296136,-87.73106248425455,"(41.863602505296136, -87.73106248425454)",2014-05-06
74607,05/05/2014,Completed,05/06/2014,14-00653091,Abandoned Vehicle Complaint,UNKNOWN,Dodge,Black,FVI - Outcome,Vehicle was moved from original address requested,90.0,7921 S TRUMBULL AVE,60652.0,,,18.0,8.0,70.0,,41.749010374314544,-87.7083261737919,"(41.74901037431455, -87.7083261737919)",2014-05-05
74608,05/05/2014,Completed,05/06/2014,14-00653771,Abandoned Vehicle Complaint,1448773,Dodge,Black,FVI - Outcome,Vehicle was moved from original address requested,14.0,5360 W POTOMAC AVE,60651.0,,,37.0,25.0,25.0,,41.904113969804506,-87.76070452020126,"(41.90411396980451, -87.76070452020126)",2014-05-05
74609,05/03/2014,Completed - Dup,05/06/2014,14-00643669,Abandoned Vehicle Complaint,S877163,Chevrolet,Black,FVI - Outcome,Create Work Order,21.0,8113 S ST LAWRENCE AVE,60619.0,1181645.49047153,1851338.3742133,6.0,6.0,44.0,,41.747114118127634,-87.60982179591173,"(41.74711411812763, -87.60982179591173)",2014-05-03
74610,05/03/2014,Completed,05/06/2014,14-00644347,Abandoned Vehicle Complaint,273R421,(Unlisted Make),Multi - Color,FVI - Outcome,Return to Owner - Vehicle,8.0,833 N KEDVALE AVE,60651.0,,,37.0,11.0,23.0,,41.89634249330549,-87.72966247646272,"(41.89634249330549, -87.72966247646274)",2014-05-03
74611,05/03/2014,Completed,05/06/2014,14-00644928,Abandoned Vehicle Complaint,UNKNOWN,Chevrolet,Gray,FVI - Outcome,Vehicle was moved from original address requested,10.0,37 W BRAYTON ST,60628.0,,,9.0,5.0,53.0,,41.66530484385356,-87.6235839802344,"(41.665304843853555, -87.62358398023439)",2014-05-03
74612,05/04/2014,Completed,05/06/2014,14-00646664,Abandoned Vehicle Complaint,1268341,Buick,Purple,FVI - Outcome,Vehicle was moved from original address requested,15.0,420 W 100TH PL,60628.0,,,9.0,22.0,73.0,,41.711697458071335,-87.6345779362854,"(41.711697458071335, -87.63457793628541)",2014-05-04
74613,05/04/2014,Completed,05/06/2014,14-00646767,Abandoned Vehicle Complaint,00000000,Chevrolet,Blue,FVI - Outcome,Vehicle was moved from original address requested,21.0,7532 S HONORE ST,60620.0,,,18.0,6.0,71.0,,41.75651013947873,-87.66981206791904,"(41.75651013947873, -87.66981206791905)",2014-05-04
74614,05/02/2014,Completed - Dup,05/06/2014,14-00637057,Abandoned Vehicle Complaint,Z166494,(Unlisted Make),White,FVI - Outcome,Create Work Order,8.0,4621 N KIONA AVE,60630.0,1147140.57807946,1930426.06750162,39.0,17.0,14.0,,41.964994430529025,-87.73426520856803,"(41.96499443052902, -87.73426520856803)",2014-05-02
74615,05/02/2014,Completed - Dup,05/06/2014,14-00637683,Abandoned Vehicle Complaint,S877163,Chevrolet,Black,FVI - Outcome,Create Work Order,21.0,8113 S ST LAWRENCE AVE,60619.0,1181645.49047153,1851338.3742133,6.0,6.0,44.0,,41.747114118127634,-87.60982179591173,"(41.74711411812763, -87.60982179591173)",2014-05-02
74616,05/02/2014,Completed,05/06/2014,14-00636876,Abandoned Vehicle Complaint,K713196,Cadillac,Burgundy,FVI - Outcome,Return to Owner - Vehicle,10.0,7133 S RICHMOND ST,60629.0,,,18.0,8.0,66.0,14.0,41.76348329604435,-87.69652159806263,"(41.76348329604435, -87.69652159806262)",2014-05-02
74617,05/02/2014,Completed,05/06/2014,14-00638041,Abandoned Vehicle Complaint,UNKNOWN,Chevrolet,Green,FVI - Outcome,Vehicle was moved from original address requested,10.0,2706 S TRIPP AVE,60623.0,,,22.0,10.0,30.0,,41.84206475438813,-87.73071923913366,"(41.84206475438813, -87.73071923913366)",2014-05-02
74618,05/02/2014,Completed,05/06/2014,14-00639161,Abandoned Vehicle Complaint,NONE,"Campers, Inc.",Beige,FVI - Outcome,Vehicle was moved from original address requested,525.0,4400 W HARRISON ST,60624.0,,,24.0,11.0,26.0,,41.87396776161576,-87.7354150671523,"(41.87396776161576, -87.73541506715232)",2014-05-02
74619,05/02/2014,Completed,05/06/2014,14-00640230,Abandoned Vehicle Complaint,P11---,Hyundai,Purple,FVI - Outcome,Vehicle was moved from original address requested,30.0,5630 W BELDEN AVE,60639.0,,,37.0,25.0,19.0,,41.92224610760517,-87.76720190272125,"(41.922246107605176, -87.76720190272125)",2014-05-02
74620,05/02/2014,Completed,05/06/2014,14-00641066,Abandoned Vehicle Complaint,S724841,Mitsubishi,Black,FVI - Outcome,Vehicle was moved from original address requested,30.0,2733 W 71ST ST,60629.0,,,18.0,8.0,66.0,14.0,41.764448624478845,-87.69186235177143,"(41.76444862447884, -87.69186235177142)",2014-05-02
74621,05/02/2014,Completed,05/06/2014,14-00641191,Abandoned Vehicle Complaint,200206,Chevrolet,White,FVI - Outcome,Vehicle was moved from original address requested,21.0,847 N ELSTON AVE,60642.0,,,27.0,12.0,24.0,,41.89760431206749,-87.65642513895678,"(41.89760431206749, -87.65642513895678)",2014-05-02
74622,05/02/2014,Completed,05/06/2014,14-00642533,Abandoned Vehicle Complaint,X75 0101,Acura,Black,FVI - Outcome,Vehicle was moved from original address requested,39.0,430 S PLYMOUTH CT,60605.0,,,2.0,1.0,32.0,,41.87615092493369,-87.62886088705288,"(41.87615092493369, -87.62886088705287)",2014-05-02
74623,05/02/2014,Completed,05/06/2014,14-00642601,Abandoned Vehicle Complaint,H769174,Toyota,Red,FVI - Outcome,Vehicle was moved from original address requested,120.0,1455 W ERIE ST,60642.0,,,27.0,12.0,24.0,,41.89327522712953,-87.66444102145887,"(41.893275227129536, -87.66444102145888)",2014-05-02
74624,05/01/2014,Completed - Dup,05/06/2014,14-00630405,Abandoned Vehicle Complaint,S877163,Chevrolet,Black,FVI - Outcome,Create Work Order,14.0,8113 S ST LAWRENCE AVE,60619.0,1181645.49047153,1851338.3742133,6.0,6.0,44.0,,41.747114118127634,-87.60982179591173,"(41.74711411812763, -87.60982179591173)",2014-05-01
74625,05/01/2014,Completed - Dup,05/06/2014,14-00632551,Abandoned Vehicle Complaint,5224661,Hyundai,Silver,FVI - Outcome,Create Work Order,20.0,2913 W 57TH ST,60629.0,1157877.53068669,1866708.99638448,14.0,8.0,63.0,,41.78988761420228,-87.69674260820751,"(41.78988761420227, -87.69674260820751)",2014-05-01
74626,05/01/2014,Completed - Dup,05/06/2014,14-00632760,Abandoned Vehicle Complaint,NONE,Chevrolet,Red,FVI - Outcome,Create Work Order,15.0,6740 S KOSTNER AVE,60629.0,1148202.57322951,1859541.85948467,13.0,8.0,65.0,,41.7700332497101,-87.73244050636654,"(41.7700332497101, -87.73244050636654)",2014-05-01
74627,05/01/2014,Completed,05/06/2014,14-00629817,Abandoned Vehicle Complaint,UNKNOWN,Legacy Unknown,White,FVI - Outcome,Vehicle was moved from original address requested,21.0,6126 S BISHOP ST,60636.0,,,16.0,7.0,67.0,,41.78233501424617,-87.66078518235003,"(41.782335014246165, -87.66078518235003)",2014-05-01
74628,05/01/2014,Completed,05/06/2014,14-00631888,Abandoned Vehicle Complaint,P441142,Ford,Gray,FVI - Outcome,Vehicle was moved from original address requested,7.0,533 S PLYMOUTH CT,60605.0,,,2.0,1.0,32.0,,41.87503895504672,-87.62854516292435,"(41.87503895504672, -87.62854516292435)",2014-05-01
74629,05/01/2014,Completed,05/06/2014,14-00634882,Abandoned Vehicle Complaint,L734141,Honda,Purple,FVI - Outcome,Vehicle was moved from original address requested,21.0,1423 W AUGUSTA BLVD,60642.0,,,27.0,12.0,24.0,,41.899662204216845,-87.6634293169115,"(41.89966220421684, -87.6634293169115)",2014-05-01
74723,05/07/2014,Completed,05/07/2014,14-00664323,Abandoned Vehicle Complaint,BAX7757,(Unlisted Make),Unknown,FVI - Outcome,Vehicle was moved from original address requested,62.0,6410 S NORMAL BLVD,60621.0,,,20.0,7.0,68.0,,41.777657329907925,-87.63761875444256,"(41.77765732990792, -87.63761875444257)",2014-05-07
74724,05/07/2014,Completed,05/07/2014,14-00664874,Abandoned Vehicle Complaint,D SHARP 4,Cadillac,Blue,FVI - Outcome,Vehicle was moved from original address requested,19.0,7800 S HAMILTON AVE,60620.0,1163391.60390077,1852940.36217671,18.0,6.0,71.0,,41.75239840653732,-87.67690848796057,"(41.75239840653732, -87.67690848796057)",2014-05-07
74725,05/06/2014,Completed,05/07/2014,14-00655528,Abandoned Vehicle Complaint,000000000000000000000000000,Chrysler,Gray,FVI - Outcome,Vehicle was moved from original address requested,100.0,12202 S PEORIA ST,60643.0,,,34.0,5.0,53.0,,41.672168747602775,-87.6443041522278,"(41.672168747602775, -87.64430415222779)",2014-05-06
74726,05/06/2014,Completed,05/07/2014,14-00657466,Abandoned Vehicle Complaint,UNKNOWN PLATE INFORMATION,Legacy Unknown,Beige,FVI - Outcome,Vehicle was moved from original address requested,18.0,443 W 61ST ST,60621.0,,,20.0,7.0,68.0,,41.783409210345155,-87.63684677814335,"(41.78340921034516, -87.63684677814334)",2014-05-06
74727,05/06/2014,Completed,05/07/2014,14-00659714,Abandoned Vehicle Complaint,231R375,Buick,Tan,FVI - Outcome,Vehicle was moved from original address requested,21.0,7317 S SOUTH CHICAGO AVE,60619.0,,,5.0,3.0,69.0,,41.76199583002791,-87.59995587546717,"(41.76199583002791, -87.59995587546717)",2014-05-06
74728,05/06/2014,Completed,05/07/2014,14-00660023,Abandoned Vehicle Complaint,S908331,Lexus,Maroon,FVI - Outcome,Vehicle was moved from original address requested,7.0,1528 E 69TH ST,60637.0,,,5.0,3.0,43.0,42.0,41.76980258226592,-87.58674119284922,"(41.76980258226592, -87.58674119284922)",2014-05-06
74729,05/05/2014,Completed,05/07/2014,14-00648382,Abandoned Vehicle Complaint,S209608,Oldsmobile,White,FVI - Outcome,Return to Owner - Vehicle,14.0,7126 S CALIFORNIA AVE,60629.0,,,18.0,8.0,66.0,14.0,41.76371094264142,-87.69315254175085,"(41.76371094264142, -87.69315254175085)",2014-05-05
74730,05/05/2014,Completed,05/07/2014,14-00648716,Abandoned Vehicle Complaint,NO PLATES,Ford,Black,FVI - Outcome,Vehicle was moved from original address requested,365.0,10105 S MORGAN ST,60643.0,,,34.0,22.0,73.0,,41.7103000817619,-87.64763898311394,"(41.7103000817619, -87.64763898311394)",2014-05-05
74731,05/05/2014,Completed,05/07/2014,14-00653943,Abandoned Vehicle Complaint,NO PLATES,Ford,Black,FVI - Outcome,Vehicle was moved from original address requested,365.0,10106 S MORGAN ST,60643.0,,,34.0,22.0,73.0,,41.710237851618416,-87.64793056043207,"(41.710237851618416, -87.64793056043206)",2014-05-05
74732,05/03/2014,Completed - Dup,05/07/2014,14-00644705,Abandoned Vehicle Complaint,TRN5168,Chevrolet,White,FVI - Outcome,Create Work Order,30.0,1759 W WALLEN AVE,60626.0,1163408.86222982,1944217.75011052,40.0,24.0,1.0,24.0,42.0024508113502,-87.67494998359464,"(42.0024508113502, -87.67494998359464)",2014-05-03
74733,05/03/2014,Completed,05/07/2014,14-00643774,Abandoned Vehicle Complaint,5956744,Chevrolet,Silver,FVI - Outcome,Vehicle was moved from original address requested,30.0,7709 N ASHLAND AVE,60626.0,,,49.0,24.0,1.0,,42.021459536874396,-87.67056947381785,"(42.0214595368744, -87.67056947381785)",2014-05-03
74734,05/03/2014,Completed,05/07/2014,14-00644165,Abandoned Vehicle Complaint,S384660,Bmw,Black,FVI - Outcome,Vehicle was moved from original address requested,8.0,5631 N ARTESIAN AVE,60659.0,,,40.0,20.0,2.0,,41.984103895820155,-87.69054043186549,"(41.98410389582016, -87.69054043186549)",2014-05-03
74735,05/03/2014,Completed,05/07/2014,14-00644169,Abandoned Vehicle Complaint,L302254,Acura,Gray,FVI - Outcome,Vehicle was moved from original address requested,8.0,6637 N ARTESIAN AVE,60645.0,,,50.0,24.0,2.0,,42.002456723961785,-87.69107819691591,"(42.00245672396179, -87.6910781969159)",2014-05-03
74736,05/04/2014,Completed,05/07/2014,14-00646158,Abandoned Vehicle Complaint,BH95118,Dodge,Silver,FVI - Outcome,Vehicle was moved from original address requested,8.0,4960 N SPAULDING AVE,60625.0,,,39.0,17.0,14.0,,41.97195991497895,-87.71116488410819,"(41.971959914978946, -87.71116488410819)",2014-05-04
74737,05/02/2014,Completed - Dup,05/07/2014,14-00638980,Abandoned Vehicle Complaint,S137290,Honda,Green,FVI - Outcome,Create Work Order,21.0,6016 N LAWNDALE AVE,60659.0,1150616.18996863,1939725.801576,39.0,17.0,13.0,,41.99074266736173,-87.7215167789433,"(41.99074266736173, -87.7215167789433)",2014-05-02
74738,05/02/2014,Completed,05/07/2014,14-00639530,Abandoned Vehicle Complaint,24637VB,Chevrolet,Red,FVI - Outcome,Return to Owner - Vehicle,10.0,6742 S KOSTNER AVE,60629.0,,,13.0,8.0,65.0,,41.769976579349816,-87.73243917033008,"(41.769976579349816, -87.73243917033008)",2014-05-02
74739,05/02/2014,Completed,05/07/2014,14-00640599,Abandoned Vehicle Complaint,TENNESSEE,Chevrolet,Red,FVI - Outcome,Vehicle was moved from original address requested,30.0,7616 N ROGERS AVE,60626.0,,,49.0,24.0,1.0,19.0,42.0198279427441,-87.6675444115979,"(42.0198279427441, -87.6675444115979)",2014-05-02
74740,05/02/2014,Completed,05/07/2014,14-00640745,Abandoned Vehicle Complaint,N114542,Dodge,Maroon,FVI - Outcome,Vehicle was moved from original address requested,9.0,6531 S LOWE AVE,60621.0,,,20.0,7.0,68.0,,41.775257330487506,-87.64060339215105,"(41.775257330487506, -87.64060339215105)",2014-05-02
74741,05/02/2014,Completed,05/07/2014,14-00642164,Abandoned Vehicle Complaint,7277139,Honda,Beige,FVI - Outcome,Vehicle was moved from original address requested,60.0,2648 W GLENLAKE AVE,60659.0,,,50.0,24.0,2.0,,41.992321588992056,-87.69657276759905,"(41.992321588992056, -87.69657276759905)",2014-05-02
74742,05/01/2014,Completed,05/07/2014,14-00630790,Abandoned Vehicle Complaint,NO PLATE,Lincoln,Silver,FVI - Outcome,Vehicle was moved from original address requested,14.0,10549 S LA SALLE ST,60628.0,,,34.0,5.0,49.0,,41.70207753608591,-87.6268010338829,"(41.70207753608591, -87.6268010338829)",2014-05-01
74743,05/01/2014,Completed,05/07/2014,14-00631865,Abandoned Vehicle Complaint,5137290,Honda,Green,FVI - Outcome,Vehicle was moved from original address requested,21.0,6016 N LAWNDALE AVE,60659.0,,,39.0,17.0,13.0,,41.99074266736173,-87.7215167789433,"(41.99074266736173, -87.7215167789433)",2014-05-01
74744,05/01/2014,Completed,05/07/2014,14-00632021,Abandoned Vehicle Complaint,R176607,Range Rover Of North America,White,FVI - Outcome,Vehicle was moved from original address requested,30.0,3639 W GRACE ST,60618.0,,,39.0,17.0,16.0,,41.950017898882095,-87.71930631908968,"(41.950017898882095, -87.71930631908967)",2014-05-01
74745,05/01/2014,Completed,05/07/2014,14-00632644,Abandoned Vehicle Complaint,K972281,Toyota,White,FVI - Outcome,Vehicle was moved from original address requested,7.0,2820 W COYLE AVE,60645.0,,,50.0,24.0,2.0,,42.007650386300114,-87.70064823275456,"(42.00765038630012, -87.70064823275455)",2014-05-01
74746,05/01/2014,Completed,05/07/2014,14-00633299,Abandoned Vehicle Complaint,I DON'T KNOW,(Unlisted Make),Multi - Color,FVI - Outcome,Vehicle was moved from original address requested,45.0,1912 W WAVELAND AVE,60613.0,,,47.0,19.0,5.0,,41.94882217444247,-87.67675553839649,"(41.94882217444247, -87.67675553839648)",2014-05-01
74747,05/01/2014,Completed,05/07/2014,14-00635044,Abandoned Vehicle Complaint,PRN5165,Chevrolet,White,FVI - Outcome,Vehicle was moved from original address requested,60.0,1759 W WALLEN AVE,60626.0,,,40.0,24.0,1.0,24.0,42.0024508113502,-87.67494998359464,"(42.0024508113502, -87.67494998359464)",2014-05-01
74748,05/01/2014,Completed,05/07/2014,14-00635962,Abandoned Vehicle Complaint,WISCONSIN PLATES,Mercedes,Black,FVI - Outcome,Vehicle was moved from original address requested,45.0,7314 N HAMILTON AVE,60645.0,,,49.0,24.0,2.0,,42.01452801535017,-87.68511034447643,"(42.014528015350166, -87.68511034447644)",2014-05-01
74749,05/01/2014,Completed,05/07/2014,14-00636220,Abandoned Vehicle Complaint,L692151,Chevrolet,Gray,FVI - Outcome,Vehicle was moved from original address requested,12.0,11821 S JUSTINE ST,60643.0,,,34.0,5.0,53.0,,41.678725300498925,-87.66006144364944,"(41.67872530049892, -87.66006144364945)",2014-05-01
74806,05/08/2014,Completed,05/08/2014,14-00671291,Abandoned Vehicle Complaint,00000000,Mercury,Black,FVI - Outcome,Return to Owner - Vehicle,30.0,942 W GARFIELD BLVD,60609.0,,,20.0,9.0,61.0,,41.794357103796976,-87.6493002155842,"(41.79435710379698, -87.6493002155842)",2014-05-08
74807,05/07/2014,Completed,05/08/2014,14-00664111,Abandoned Vehicle Complaint,NO PLATES,Acura,Cream,FVI - Outcome,Vehicle was moved from original address requested,14.0,5421 S WABASH AVE,60615.0,,,3.0,2.0,40.0,,41.79584396430845,-87.62396978546585,"(41.79584396430845, -87.62396978546585)",2014-05-07
74808,05/07/2014,Completed,05/08/2014,14-00669294,Abandoned Vehicle Complaint,P210802,Toyota,Green,FVI - Outcome,Vehicle was moved from original address requested,3.0,4700 S CORNELL AVE,60615.0,,,4.0,2.0,39.0,,41.81021958558944,-87.59030198932379,"(41.810219585589444, -87.59030198932378)",2014-05-07
74809,05/06/2014,Completed,05/08/2014,14-00655696,Abandoned Vehicle Complaint,DH8M779,Ford,Black,FVI - Outcome,Vehicle was moved from original address requested,9.0,3511 E 112TH ST,60617.0,,,10.0,4.0,52.0,,41.691745599653906,-87.53842449601306,"(41.69174559965391, -87.53842449601308)",2014-05-06
74810,05/06/2014,Completed,05/08/2014,14-00657443,Abandoned Vehicle Complaint,4890605,Kia Motors Corp,Blue,FVI - Outcome,Vehicle was moved from original address requested,7.0,6011 S PULASKI RD,60629.0,,,13.0,8.0,65.0,3.0,41.78373014844758,-87.7227573934572,"(41.78373014844758, -87.7227573934572)",2014-05-06
74811,05/04/2014,Completed - Dup,05/08/2014,14-00645836,Abandoned Vehicle Complaint,UNKNOWN,Jeep - Year Greater 1988,Black,FVI - Outcome,Create Work Order,30.0,3625 W CORNELIA AVE,60618.0,1151481.29992558,1923024.52459143,35.0,17.0,21.0,,41.94455877361096,-87.71865883484537,"(41.94455877361095, -87.71865883484537)",2014-05-04
74812,05/04/2014,Completed - Dup,05/08/2014,14-00647328,Abandoned Vehicle Complaint,1443155,Chevrolet,Gray,FVI - Outcome,Create Work Order,7.0,1703 W FARRAGUT AVE,60640.0,1164027.48470733,1934919.85889091,40.0,20.0,77.0,,41.97693672508753,-87.6722915524525,"(41.97693672508753, -87.67229155245252)",2014-05-04
74813,05/04/2014,Completed,05/08/2014,14-00646975,Abandoned Vehicle Complaint,7924980,Chevrolet,Blue,FVI - Outcome,Return to Owner - Vehicle,14.0,5718 N WASHTENAW AVE,60659.0,,,40.0,20.0,2.0,,41.985532788751335,-87.69695249835813,"(41.985532788751335, -87.69695249835814)",2014-05-04
74814,05/04/2014,Completed,05/08/2014,14-00647321,Abandoned Vehicle Complaint,000000,Jeep/Cherokee,White,FVI - Outcome,Vehicle was moved from original address requested,21.0,1703 W FARRAGUT AVE,60640.0,,,40.0,20.0,77.0,,41.97693672508753,-87.6722915524525,"(41.97693672508753, -87.67229155245252)",2014-05-04
74815,05/05/2014,Completed - Dup,05/08/2014,14-00648279,Abandoned Vehicle Complaint,276163,(Unlisted Make),Yellow,FVI - Outcome,Create Work Order,30.0,2506 N SACRAMENTO AVE,60647.0,1155950.78210107,1916528.92996887,35.0,14.0,22.0,,41.926794349475635,-87.70251893323494,"(41.92679434947563, -87.70251893323494)",2014-05-05
74816,05/05/2014,Completed,05/08/2014,14-00648150,Abandoned Vehicle Complaint,K76 4914,Oldsmobile,Green,FVI - Outcome,Vehicle was moved from original address requested,0.0,4408 N HAZEL ST,60640.0,,,46.0,19.0,3.0,34.0,41.96210429526993,-87.65248297639464,"(41.96210429526993, -87.65248297639464)",2014-05-05
74817,05/05/2014,Completed,05/08/2014,14-00648314,Abandoned Vehicle Complaint,H268041,Lexus,White,FVI - Outcome,Return to Owner - Vehicle,20.0,1612 W FARWELL AVE,60626.0,,,49.0,24.0,1.0,24.0,42.00671849367085,-87.67059164334214,"(42.00671849367085, -87.67059164334212)",2014-05-05
74818,05/05/2014,Completed,05/08/2014,14-00650910,Abandoned Vehicle Complaint,WHOHIM,Chevrolet,White,FVI - Outcome,Vehicle was moved from original address requested,14.0,9312 S PRINCETON AVE,60620.0,,,21.0,6.0,49.0,,41.72535826507606,-87.63036149753826,"(41.72535826507606, -87.63036149753826)",2014-05-05
74819,05/02/2014,Completed,05/08/2014,14-00636828,Abandoned Vehicle Complaint,P426189,Nissan,Blue,FVI - Outcome,Vehicle was moved from original address requested,30.0,4032 N FRANCISCO AVE,60618.0,,,33.0,17.0,16.0,,41.95494981946522,-87.70086085514761,"(41.95494981946522, -87.70086085514761)",2014-05-02
74820,05/02/2014,Completed,05/08/2014,14-00640551,Abandoned Vehicle Complaint,N929400,Cadillac,Burgundy,FVI - Outcome,Vehicle was moved from original address requested,21.0,8507 S EGGLESTON AVE,60620.0,,,21.0,6.0,71.0,,41.739528204729226,-87.63689508627455,"(41.739528204729226, -87.63689508627455)",2014-05-02
74821,05/02/2014,Completed,05/08/2014,14-00640942,Abandoned Vehicle Complaint,135R240,Infiniti/M30,Gold,FVI - Outcome,Vehicle was moved from original address requested,14.0,5813 S UNION AVE,60621.0,,,3.0,7.0,68.0,,41.78847495728786,-87.64242292627398,"(41.78847495728786, -87.64242292627398)",2014-05-02
74822,05/03/2014,Completed,05/08/2014,14-00643279,Abandoned Vehicle Complaint,276163,Ford,Yellow,FVI - Outcome,Vehicle was moved from original address requested,21.0,2506 N SACRAMENTO AVE,60647.0,,,35.0,14.0,22.0,,41.926794349475635,-87.70251893323494,"(41.92679434947563, -87.70251893323494)",2014-05-03
74823,05/03/2014,Completed,05/08/2014,14-00644163,Abandoned Vehicle Complaint,S259128,Pontiac,Black,FVI - Outcome,Vehicle was moved from original address requested,21.0,3301 W ARDMORE AVE,60659.0,,,39.0,17.0,13.0,,41.9865633278902,-87.71148558229817,"(41.986563327890195, -87.71148558229815)",2014-05-03
74824,05/03/2014,Completed,05/08/2014,14-00644323,Abandoned Vehicle Complaint,9290537,Jeep (If Mfd. Prior To 1970),Green,FVI - Outcome,Vehicle was moved from original address requested,14.0,710 W GORDON TER,60613.0,,,46.0,19.0,3.0,,41.957989443825724,-87.64789248884817,"(41.957989443825724, -87.64789248884817)",2014-05-03
74825,05/03/2014,Completed,05/08/2014,14-00644615,Abandoned Vehicle Complaint,5979921,Mitsubishi,White,FVI - Outcome,Vehicle was moved from original address requested,14.0,4050 N MAPLEWOOD AVE,60618.0,,,47.0,19.0,5.0,38.0,41.95550533835688,-87.69225770302658,"(41.95550533835688, -87.69225770302658)",2014-05-03
74826,05/01/2014,Completed - Dup,05/08/2014,14-00630833,Abandoned Vehicle Complaint,N719793,Volvo,Black,FVI - Outcome,Create Work Order,21.0,3120 S GILES AVE,60616.0,1178777.7500152,1884375.28001621,2.0,2.0,35.0,,41.83773496888011,-87.61961493120022,"(41.83773496888011, -87.61961493120022)",2014-05-01
74827,05/01/2014,Completed,05/08/2014,14-00630789,Abandoned Vehicle Complaint,N719793,Volvo,Black,FVI - Outcome,Vehicle was moved from original address requested,21.0,3120 S GILES AVE,60616.0,,,2.0,2.0,35.0,,41.83773496888011,-87.61961493120022,"(41.83773496888011, -87.61961493120022)",2014-05-01
74828,05/01/2014,Completed,05/08/2014,14-00632519,Abandoned Vehicle Complaint,H915274,Ford,Red,FVI - Outcome,Vehicle was moved from original address requested,7.0,2744 W SUPERIOR ST,60612.0,,,26.0,12.0,24.0,,41.89483839729396,-87.69601390273209,"(41.89483839729396, -87.69601390273208)",2014-05-01
74829,05/01/2014,Completed,05/08/2014,14-00633526,Abandoned Vehicle Complaint,296R669,Pontiac,Red,FVI - Outcome,Vehicle was moved from original address requested,5.0,4428 S LAWLER AVE,60638.0,,,23.0,8.0,56.0,,41.81212744379499,-87.74954299490965,"(41.81212744379499, -87.74954299490965)",2014-05-01
74873,05/08/2014,Completed,05/09/2014,14-00670816,Abandoned Vehicle Complaint,652BVZ,Buick,Blue,FVI - Outcome,Return to Owner - Vehicle,30.0,11842 S INDIANA AVE,60628.0,,,9.0,5.0,53.0,,41.67864583005089,-87.61798478664352,"(41.67864583005089, -87.61798478664353)",2014-05-08
74874,05/08/2014,Completed,05/09/2014,14-00674211,Abandoned Vehicle Complaint,UNKNOWN,Legacy Unknown,Maroon,FVI - Outcome,Vehicle was moved from original address requested,30.0,1401 N LONG AVE,60651.0,,,37.0,25.0,25.0,,41.90590830485953,-87.76067599006777,"(41.90590830485953, -87.76067599006777)",2014-05-08
74875,05/08/2014,Completed,05/09/2014,14-00674728,Abandoned Vehicle Complaint,1275145,"Monon Trailer, Div. Of Evans Products Co.",Green,FVI - Outcome,Vehicle was moved from original address requested,30.0,4346 W ADAMS ST,60624.0,,,28.0,11.0,26.0,,41.877976338535845,-87.73480380458233,"(41.87797633853584, -87.73480380458233)",2014-05-08
74876,05/08/2014,Completed,05/09/2014,14-00674767,Abandoned Vehicle Complaint,NONE,(Unlisted Make),White,FVI - Outcome,Return to Owner - Vehicle,400.0,2248 W WARREN BLVD,60612.0,,,2.0,12.0,28.0,,41.88223554165003,-87.68336760426158,"(41.88223554165003, -87.68336760426158)",2014-05-08
74877,05/08/2014,Completed,05/09/2014,14-00675195,Abandoned Vehicle Complaint,210172V,Ford,Black,FVI - Outcome,Vehicle was moved from original address requested,15.0,3700 S HALSTED ST,60609.0,,,11.0,9.0,60.0,,41.82760367532435,-87.64617984465889,"(41.82760367532434, -87.64617984465889)",2014-05-08
74878,05/08/2014,Completed,05/09/2014,14-00677545,Abandoned Vehicle Complaint,R85 9506,(Unlisted Make),Gray,FVI - Outcome,Vehicle was moved from original address requested,12.0,3532 S UNION AVE,60609.0,,,11.0,9.0,60.0,,41.82978066820355,-87.64379460713705,"(41.82978066820355, -87.64379460713705)",2014-05-08
74879,05/07/2014,Completed - Dup,05/09/2014,14-00664869,Abandoned Vehicle Complaint,.,(Unlisted Make),Black,FVI - Outcome,Create Work Order,7.0,330 W SWANN ST,60609.0,1174745.64412508,1874064.96852686,3.0,9.0,37.0,,41.80993172401163,-87.6347107351152,"(41.80993172401163, -87.6347107351152)",2014-05-07
74880,05/07/2014,Completed,05/09/2014,14-00662643,Abandoned Vehicle Complaint,S108560,Ford,Green,FVI - Outcome,Vehicle was moved from original address requested,30.0,10941 S HERMOSA AVE,60643.0,,,19.0,22.0,75.0,,41.69435395873744,-87.66476629097168,"(41.69435395873744, -87.66476629097168)",2014-05-07
74881,05/07/2014,Completed,05/09/2014,14-00664463,Abandoned Vehicle Complaint,155-LKA,Ford,Blue,FVI - Outcome,Vehicle was moved from original address requested,7.0,2848 S WALLACE ST,60616.0,,,11.0,9.0,60.0,,41.84208615025807,-87.64165155788966,"(41.84208615025807, -87.64165155788965)",2014-05-07
74882,05/07/2014,Completed,05/09/2014,14-00664836,Abandoned Vehicle Complaint,HAS PLATES,Toyota,Gray,FVI - Outcome,Vehicle was moved from original address requested,30.0,6515 N WHIPPLE ST,60645.0,,,50.0,24.0,2.0,,41.999765512847716,-87.70566300606849,"(41.99976551284772, -87.7056630060685)",2014-05-07
74883,05/07/2014,Completed,05/09/2014,14-00664859,Abandoned Vehicle Complaint,.,(Unlisted Make),Gray,FVI - Outcome,Vehicle was moved from original address requested,7.0,330 W SWANN ST,60609.0,,,3.0,9.0,37.0,,41.80993172401163,-87.6347107351152,"(41.80993172401163, -87.6347107351152)",2014-05-07
74884,05/07/2014,Completed,05/09/2014,14-00667092,Abandoned Vehicle Complaint,R803729,Pontiac,Tan,FVI - Outcome,Vehicle was moved from original address requested,21.0,8500 S MICHIGAN AVE,60619.0,,,6.0,6.0,44.0,,41.73996249219318,-87.62123216634406,"(41.73996249219318, -87.62123216634404)",2014-05-07
74885,05/07/2014,Completed,05/09/2014,14-00667665,Abandoned Vehicle Complaint,L434762,Cadillac,Black,FVI - Outcome,Vehicle was moved from original address requested,30.0,7515 S VERNON AVE,60619.0,,,6.0,6.0,69.0,51.0,41.757944890344326,-87.61372401592699,"(41.75794489034433, -87.61372401592698)",2014-05-07
74886,05/06/2014,Completed - Dup,05/09/2014,14-00661767,Abandoned Vehicle Complaint,N493593,Acura,Blue,FVI - Outcome,Create Work Order,120.0,3736 W BRYN MAWR AVE,60659.0,1150459.17997398,1936950.32001353,39.0,17.0,13.0,,41.98299653075535,-87.72265487875481,"(41.98299653075535, -87.72265487875481)",2014-05-06
74887,05/06/2014,Completed,05/09/2014,14-00655418,Abandoned Vehicle Complaint,H818414,Nissan,Gold,FVI - Outcome,Return to Owner - Vehicle,30.0,6348 N RAVENSWOOD AVE,60660.0,,,50.0,24.0,2.0,,41.996985488988855,-87.67566699919917,"(41.99698548898885, -87.67566699919915)",2014-05-06
74888,05/06/2014,Completed,05/09/2014,14-00656599,Abandoned Vehicle Complaint,P435522,Toyota,Gray,FVI - Outcome,Vehicle was moved from original address requested,25.0,2716 S PRINCETON AVE,60616.0,,,11.0,9.0,34.0,,41.84349043290759,-87.634382607955,"(41.84349043290759, -87.634382607955)",2014-05-06
74889,05/06/2014,Completed,05/09/2014,14-00658793,Abandoned Vehicle Complaint,R977825,Nissan,Tan,FVI - Outcome,Vehicle was moved from original address requested,14.0,816 S KOSTNER AVE,60624.0,,,24.0,11.0,29.0,,41.87022588625629,-87.7352559185341,"(41.870225886256286, -87.7352559185341)",2014-05-06
74890,05/06/2014,Completed,05/09/2014,14-00659007,Abandoned Vehicle Complaint,P99 4860,Toyota,Gray,FVI - Outcome,Vehicle was moved from original address requested,20.0,1139 N AVERS AVE,60651.0,,,27.0,11.0,23.0,,41.90204779296812,-87.7224774023183,"(41.90204779296812, -87.72247740231829)",2014-05-06
74891,05/06/2014,Completed,05/09/2014,14-00659479,Abandoned Vehicle Complaint,P42 1815,Volkswagen,Black,FVI - Outcome,Vehicle was moved from original address requested,10.0,5736 N RICHMOND ST,60659.0,,,40.0,20.0,2.0,,41.98598903625437,-87.70303983034955,"(41.98598903625437, -87.70303983034957)",2014-05-06
74892,05/06/2014,Completed,05/09/2014,14-00661517,Abandoned Vehicle Complaint,413P283,Kia Motors Corp,Gold,FVI - Outcome,Vehicle was moved from original address requested,21.0,5224 W ADAMS ST,60644.0,,,29.0,15.0,25.0,,41.87856902402055,-87.75604484734848,"(41.87856902402055, -87.75604484734849)",2014-05-06
74893,05/06/2014,Completed,05/09/2014,14-00661558,Abandoned Vehicle Complaint,NONE,Pontiac,Burgundy,FVI - Outcome,Vehicle was moved from original address requested,10.0,407 E 86TH ST,60619.0,,,6.0,6.0,44.0,,41.738227567048824,-87.61423389423317,"(41.73822756704883, -87.61423389423317)",2014-05-06
74894,05/06/2014,Completed,05/09/2014,14-00661739,Abandoned Vehicle Complaint,N493593,Acura,Blue,FVI - Outcome,Vehicle was moved from original address requested,120.0,3736 W BRYN MAWR AVE,60659.0,,,39.0,17.0,13.0,,41.98299653075535,-87.72265487875481,"(41.98299653075535, -87.72265487875481)",2014-05-06
74895,05/06/2014,Completed,05/09/2014,14-00662112,Abandoned Vehicle Complaint,R257432,Geo/Prism,White,FVI - Outcome,Vehicle was moved from original address requested,14.0,3230 W LAWRENCE AVE,60625.0,,,39.0,17.0,14.0,60.0,41.96854853465925,-87.70975744754303,"(41.96854853465925, -87.70975744754303)",2014-05-06
74896,05/06/2014,Completed,05/09/2014,14-00662316,Abandoned Vehicle Complaint,40266,Ford,Red,FVI - Outcome,Vehicle was moved from original address requested,8.0,2521 N CALIFORNIA AVE,60647.0,,,35.0,14.0,22.0,,41.92723033363832,-87.69733417567808,"(41.92723033363832, -87.69733417567808)",2014-05-06
74897,05/05/2014,Completed,05/09/2014,14-00650979,Abandoned Vehicle Complaint,I52611380804,Dodge,Tan,FVI - Outcome,Vehicle was moved from original address requested,33.0,55 W JACKSON BLVD,60604.0,,,2.0,1.0,32.0,,41.878049842503025,-87.6298403049682,"(41.87804984250302, -87.62984030496821)",2014-05-05
74898,05/05/2014,Completed,05/09/2014,14-00651418,Abandoned Vehicle Complaint,305,Cadillac,White,FVI - Outcome,Vehicle was moved from original address requested,120.0,4907 N MCCUTCHEON TER,60640.0,,,48.0,20.0,3.0,,41.97186049786668,-87.65392003447697,"(41.97186049786668, -87.65392003447697)",2014-05-05
74899,05/05/2014,Completed,05/09/2014,14-00652721,Abandoned Vehicle Complaint,N806985,Volkswagen,Blue,FVI - Outcome,Vehicle was moved from original address requested,60.0,5932 N LAKEWOOD AVE,60660.0,,,48.0,20.0,77.0,,41.99000683734169,-87.66283960673124,"(41.99000683734169, -87.66283960673124)",2014-05-05
74900,05/03/2014,Completed,05/09/2014,14-00643375,Abandoned Vehicle Complaint,P829550,Ford,White,FVI - Outcome,Vehicle was moved from original address requested,21.0,9227 S STATE ST,60619.0,,,6.0,6.0,49.0,,41.7263870380635,-87.6237132629742,"(41.7263870380635, -87.6237132629742)",2014-05-03
74901,05/03/2014,Completed,05/09/2014,14-00644642,Abandoned Vehicle Complaint,S891531,Honda,Gray,FVI - Outcome,Vehicle was moved from original address requested,30.0,2830 W BERTEAU AVE,60618.0,,,33.0,17.0,16.0,,41.957701088795005,-87.69963872645961,"(41.957701088795005, -87.69963872645963)",2014-05-03
74902,05/01/2014,Completed - Dup,05/09/2014,14-00634798,Abandoned Vehicle Complaint,4968587,Chevrolet,Red,FVI - Outcome,Vehicle was moved from original address requested,30.0,1852 N ALBANY AVE,60647.0,,,26.0,14.0,22.0,,41.91527366415988,-87.70535922090704,"(41.915273664159876, -87.70535922090703)",2014-05-01
74903,05/01/2014,Completed - Dup,05/09/2014,14-00635681,Abandoned Vehicle Complaint,R379071,(Unlisted Make),Red,FVI - Outcome,Create Work Order,60.0,3029 W LELAND AVE,60625.0,1155197.4096896,1931067.1149082,33.0,17.0,14.0,60.0,41.96654861326812,-87.70468435080292,"(41.96654861326812, -87.70468435080292)",2014-05-01
74904,05/01/2014,Completed,05/09/2014,14-00631675,Abandoned Vehicle Complaint,2222222,(Unlisted Make),Red,FVI - Outcome,Vehicle was moved from original address requested,21.0,1236 W GRACE ST,60613.0,,,44.0,19.0,6.0,17.0,41.951136299626576,-87.66077076494804,"(41.95113629962658, -87.66077076494805)",2014-05-01
74905,05/01/2014,Completed,05/09/2014,14-00632178,Abandoned Vehicle Complaint,X50 2461,Chevrolet,Gray,FVI - Outcome,Vehicle was moved from original address requested,14.0,3221 N RAVENSWOOD AVE,60657.0,,,32.0,19.0,6.0,27.0,41.940316256267245,-87.67330695079703,"(41.94031625626724, -87.67330695079703)",2014-05-01
74906,05/01/2014,Completed,05/09/2014,14-00633983,Abandoned Vehicle Complaint,S956252,Chrysler,White,FVI - Outcome,Vehicle was moved from original address requested,150.0,3514 N JANSSEN AVE,60657.0,,,44.0,19.0,6.0,,41.94570901387228,-87.66534135255148,"(41.945709013872275, -87.66534135255148)",2014-05-01
74907,05/01/2014,Completed,05/09/2014,14-00634131,Abandoned Vehicle Complaint,102 JHR,Saab,Gray,FVI - Outcome,Vehicle was moved from original address requested,30.0,2008 N LAMON AVE,60639.0,,,31.0,25.0,19.0,,41.917216519759606,-87.74882707076124,"(41.91721651975961, -87.74882707076124)",2014-05-01
74908,05/01/2014,Completed,05/09/2014,14-00634447,Abandoned Vehicle Complaint,S25-5517,Honda,Silver,FVI - Outcome,Vehicle was moved from original address requested,35.0,4438 W GEORGE ST,60641.0,,,31.0,25.0,20.0,,41.93357597012025,-87.73846391634329,"(41.93357597012025, -87.73846391634329)",2014-05-01
74909,05/01/2014,Completed,05/09/2014,14-00634796,Abandoned Vehicle Complaint,V388206,Nissan,White,FVI - Outcome,Vehicle was moved from original address requested,30.0,1852 N ALBANY AVE,60647.0,,,26.0,14.0,22.0,,41.91527366415988,-87.70535922090704,"(41.915273664159876, -87.70535922090703)",2014-05-01
74910,05/01/2014,Completed,05/09/2014,14-00635427,Abandoned Vehicle Complaint,NO PLATES,Chrysler,Blue,FVI - Outcome,Vehicle was moved from original address requested,300.0,3500 W ALTGELD ST,60647.0,,,26.0,14.0,22.0,,41.92655296284219,-87.71466081067673,"(41.92655296284219, -87.71466081067672)",2014-05-01
74911,05/01/2014,Completed,05/09/2014,14-00636084,Abandoned Vehicle Complaint,BCH543,Honda,Black,FVI - Outcome,Vehicle was moved from original address requested,35.0,2450 N CALIFORNIA AVE,60647.0,,,35.0,14.0,22.0,,41.92630961746305,-87.69760344752358,"(41.92630961746305, -87.69760344752358)",2014-05-01
74912,05/01/2014,Completed,05/09/2014,14-00636582,Abandoned Vehicle Complaint,L75 1283,Volvo,Silver,FVI - Outcome,Vehicle was moved from original address requested,45.0,3530 W MEDILL AVE,60647.0,,,26.0,14.0,22.0,,41.92382258383455,-87.71502681725669,"(41.92382258383455, -87.71502681725667)",2014-05-01
74913,05/02/2014,Completed - Dup,05/09/2014,14-00642488,Abandoned Vehicle Complaint,X731461,(Unlisted Make),White,FVI - Outcome,Create Work Order,18.0,2910 E 90TH ST,60617.0,1197060.5581948,1845850.74131396,10.0,4.0,46.0,,41.73199078627719,-87.55355301900501,"(41.73199078627719, -87.55355301900501)",2014-05-02
74914,05/02/2014,Completed,05/09/2014,14-00642477,Abandoned Vehicle Complaint,X731461,Oldsmobile,White,FVI - Outcome,Return to Owner - Vehicle,18.0,2910 E 90TH ST,60617.0,,,10.0,4.0,46.0,,41.73199078627719,-87.55355301900501,"(41.73199078627719, -87.55355301900501)",2014-05-02
74968,05/11/2014,Completed,05/12/2014,14-00687697,Abandoned Vehicle Complaint,N926023,Dodge,Red,FVI - Outcome,Vehicle was moved from original address requested,45.0,6802 S CLYDE AVE,60649.0,,,5.0,3.0,43.0,,41.771509118329966,-87.57414634479423,"(41.771509118329966, -87.57414634479424)",2014-05-11
74969,05/08/2014,Completed - Dup,05/12/2014,14-00675855,Abandoned Vehicle Complaint,R137907,Dodge,Green,FVI - Outcome,Create Work Order,30.0,3519 N OKETO AVE,60634.0,1126151.641493,1922506.40818082,36.0,16.0,17.0,,41.94395431074106,-87.81161578569984,"(41.94395431074106, -87.81161578569984)",2014-05-08
74970,05/08/2014,Completed,05/12/2014,14-00671518,Abandoned Vehicle Complaint,14200LY,Legacy Unknown,Black,FVI - Outcome,Vehicle was moved from original address requested,16.0,3800 S PAULINA ST,60609.0,,,11.0,9.0,59.0,,41.82494689388577,-87.66796260642319,"(41.82494689388577, -87.66796260642319)",2014-05-08
74971,05/08/2014,Completed,05/12/2014,14-00671556,Abandoned Vehicle Complaint,UNKNOWN,Nissan,Silver,FVI - Outcome,Return to Owner - Vehicle,45.0,6535 S KEDZIE AVE,60629.0,,,15.0,8.0,66.0,,41.774310774131656,-87.70288250330134,"(41.77431077413166, -87.70288250330134)",2014-05-08
74972,05/08/2014,Completed,05/12/2014,14-00674192,Abandoned Vehicle Complaint,UNKNOWN,Legacy Unknown,Blue,FVI - Outcome,Vehicle was moved from original address requested,30.0,415 W PERSHING RD,60609.0,,,11.0,9.0,61.0,13.0,41.82346774949652,-87.63696863430195,"(41.823467749496515, -87.63696863430195)",2014-05-08
74973,05/08/2014,Completed,05/12/2014,14-00674481,Abandoned Vehicle Complaint,N206980,Chevrolet,Red,FVI - Outcome,Vehicle was moved from original address requested,10.0,3812 W 64TH PL,60629.0,,,13.0,8.0,65.0,,41.77609573917826,-87.71836837886605,"(41.77609573917826, -87.71836837886605)",2014-05-08
74974,05/08/2014,Completed,05/12/2014,14-00675638,Abandoned Vehicle Complaint,R137907,Dodge,Green,FVI - Outcome,Vehicle was moved from original address requested,14.0,3518 N OKETO AVE,60634.0,,,36.0,16.0,17.0,,41.943947493097184,-87.81190969946005,"(41.94394749309719, -87.81190969946005)",2014-05-08
74975,05/07/2014,Completed - Dup,05/12/2014,14-00666034,Abandoned Vehicle Complaint,DON'T HAVE,Subaru,White,FVI - Outcome,Create Work Order,21.0,3125 S THROOP ST,60608.0,1168168.05693179,1883970.09432864,11.0,9.0,60.0,,41.837084642787715,-87.65826872003286,"(41.837084642787715, -87.65826872003286)",2014-05-07
74976,05/07/2014,Completed,05/12/2014,14-00665769,Abandoned Vehicle Complaint,A970214,Subaru,White,FVI - Outcome,Vehicle was moved from original address requested,14.0,3125 S THROOP ST,60608.0,,,11.0,9.0,60.0,,41.837084642787715,-87.65826872003286,"(41.837084642787715, -87.65826872003286)",2014-05-07
74977,05/07/2014,Completed,05/12/2014,14-00669713,Abandoned Vehicle Complaint,122R877,Buick,Tan,FVI - Outcome,Return to Owner - Vehicle,30.0,6727 S CREGIER AVE,60649.0,,,5.0,3.0,43.0,,41.77256832168205,-87.58124880825994,"(41.772568321682044, -87.58124880825993)",2014-05-07
74978,05/06/2014,Completed - Dup,05/12/2014,14-00657822,Abandoned Vehicle Complaint,WISCONSIN 857-DGS,Pontiac,Red,FVI - Outcome,Create Work Order,3.0,3037 W JARVIS AVE,60645.0,1154926.96738616,1948892.07737834,50.0,24.0,2.0,,42.015454947762414,-87.70581155084373,"(42.015454947762414, -87.70581155084373)",2014-05-06
74979,05/06/2014,Completed - Dup,05/12/2014,14-00657847,Abandoned Vehicle Complaint,S25 3819,Nissan,White,FVI - Outcome,Create Work Order,2.0,3037 W JARVIS AVE,60645.0,1154926.96738616,1948892.07737834,50.0,24.0,2.0,,42.015454947762414,-87.70581155084373,"(42.015454947762414, -87.70581155084373)",2014-05-06
74980,05/06/2014,Completed,05/12/2014,14-00657820,Abandoned Vehicle Complaint,442NAE,Mitsubishi,Silver,FVI - Outcome,Return to Owner - Vehicle,2.0,3037 W JARVIS AVE,60645.0,,,50.0,24.0,2.0,,42.015454947762414,-87.70581155084373,"(42.015454947762414, -87.70581155084373)",2014-05-06
74981,05/06/2014,Completed,05/12/2014,14-00661032,Abandoned Vehicle Complaint,BPB8308,Infiniti/M30,White,FVI - Outcome,Vehicle was moved from original address requested,10.0,2855 S HILLOCK AVE,60608.0,,,11.0,9.0,60.0,,41.842825135839895,-87.66122035745232,"(41.842825135839895, -87.66122035745232)",2014-05-06
74982,05/06/2014,Completed,05/12/2014,14-00661174,Abandoned Vehicle Complaint,V282301,Dodge,White,FVI - Outcome,Vehicle was moved from original address requested,7.0,1478 W 72ND PL,60636.0,,,17.0,7.0,67.0,,41.76231768907847,-87.66197040251828,"(41.762317689078465, -87.66197040251828)",2014-05-06
74983,05/05/2014,Completed,05/12/2014,14-00653501,Abandoned Vehicle Complaint,.,Honda,White,FVI - Outcome,Vehicle was moved from original address requested,21.0,1910 N DRAKE AVE,60647.0,,,26.0,14.0,22.0,,41.91582518290284,-87.71525613841781,"(41.91582518290284, -87.71525613841781)",2014-05-05
74984,05/03/2014,Completed,05/12/2014,14-00644179,Abandoned Vehicle Complaint,1128973,Toyota,Black,FVI - Outcome,Vehicle was moved from original address requested,30.0,4206 W HENDERSON ST,60641.0,,,30.0,17.0,16.0,,41.94186557862378,-87.73247160386639,"(41.94186557862378, -87.73247160386639)",2014-05-03
74985,05/04/2014,Completed,05/12/2014,14-00645573,Abandoned Vehicle Complaint,R803296,Volkswagen,Silver,FVI - Outcome,Vehicle was moved from original address requested,10.0,2812 W CHICAGO AVE,60622.0,,,26.0,12.0,24.0,,41.895763754345204,-87.69724369058761,"(41.895763754345204, -87.69724369058763)",2014-05-04
74986,05/04/2014,Completed,05/12/2014,14-00646049,Abandoned Vehicle Complaint,00000000,Lincoln,Green,FVI - Outcome,Vehicle was moved from original address requested,14.0,5200 W BARRY AVE,60641.0,,,30.0,25.0,19.0,,41.936984101198355,-87.7567490128529,"(41.93698410119835, -87.7567490128529)",2014-05-04
74987,05/04/2014,Completed,05/12/2014,14-00646627,Abandoned Vehicle Complaint,N218601,Chevrolet,Maroon,FVI - Outcome,Vehicle was moved from original address requested,8.0,4016 W PATTERSON AVE,60641.0,,,30.0,17.0,16.0,,41.947379611536505,-87.72813276860768,"(41.94737961153651, -87.72813276860767)",2014-05-04
74988,05/05/2014,Completed,05/12/2014,14-00647558,Abandoned Vehicle Complaint,XX,(Unlisted Make),Gray,FVI - Outcome,Vehicle was moved from original address requested,3.0,4632 W BELDEN AVE,60639.0,,,31.0,25.0,19.0,,41.922564386851505,-87.74298001198233,"(41.922564386851505, -87.74298001198233)",2014-05-05
74989,05/05/2014,Completed,05/12/2014,14-00648377,Abandoned Vehicle Complaint,N15 4104,Dodge,Gray,FVI - Outcome,Vehicle was moved from original address requested,-30.0,5021 W BELDEN AVE,60639.0,,,31.0,25.0,19.0,,41.92222676296721,-87.75202341507669,"(41.92222676296721, -87.7520234150767)",2014-05-05
74990,05/05/2014,Completed,05/12/2014,14-00649384,Abandoned Vehicle Complaint,1170228B,Chevrolet,White,FVI - Outcome,Return to Owner - Vehicle,90.0,3547 W 25TH ST,60623.0,,,22.0,10.0,30.0,25.0,41.84611025902577,-87.71427102772219,"(41.84611025902577, -87.71427102772219)",2014-05-05
74991,05/05/2014,Completed,05/12/2014,14-00649624,Abandoned Vehicle Complaint,YGV 12A,Jeep/Cherokee,Green,FVI - Outcome,Vehicle was moved from original address requested,14.0,4121 W HENDERSON ST,60641.0,,,31.0,17.0,16.0,,41.94164775916571,-87.73055566772877,"(41.94164775916571, -87.73055566772877)",2014-05-05
74992,05/05/2014,Completed,05/12/2014,14-00651617,Abandoned Vehicle Complaint,S118331,Ford,White,FVI - Outcome,Return to Owner - Vehicle,21.0,3453 N LOWELL AVE,60641.0,,,30.0,17.0,16.0,,41.94418461853752,-87.73580783931179,"(41.94418461853752, -87.73580783931178)",2014-05-05
74993,05/05/2014,Completed,05/12/2014,14-00651987,Abandoned Vehicle Complaint,R137907,Dodge,Green,FVI - Outcome,Vehicle was moved from original address requested,28.0,3515 N OKETO AVE,60634.0,,,36.0,16.0,17.0,,41.9438436231104,-87.81161064107563,"(41.94384362311041, -87.81161064107563)",2014-05-05
74994,05/05/2014,Completed,05/12/2014,14-00652018,Abandoned Vehicle Complaint,R137907,Dodge,Green,FVI - Outcome,Vehicle was moved from original address requested,28.0,3519 N OKETO AVE,60634.0,,,36.0,16.0,17.0,,41.94395431074106,-87.81161578569984,"(41.94395431074106, -87.81161578569984)",2014-05-05
74995,05/05/2014,Completed,05/12/2014,14-00653260,Abandoned Vehicle Complaint,L625912,Nissan,Gray,FVI - Outcome,Vehicle was moved from original address requested,90.0,3850 W BELDEN AVE,60647.0,,,30.0,25.0,22.0,,41.92279702382564,-87.72390206044216,"(41.92279702382564, -87.72390206044216)",2014-05-05
74996,05/05/2014,Completed,05/12/2014,14-00653347,Abandoned Vehicle Complaint,UNKNOWN,(Unlisted Make),Green,FVI - Outcome,Vehicle was moved from original address requested,9.0,2240 N AVERS AVE,60647.0,,,30.0,25.0,22.0,,41.922094144692714,-87.72318082374575,"(41.92209414469272, -87.72318082374575)",2014-05-05
74997,05/02/2014,Completed,05/12/2014,14-00639786,Abandoned Vehicle Complaint,(MISSOURI) WA3B1G,Acura,Gray,FVI - Outcome,Vehicle was moved from original address requested,12.0,2815 N TALMAN AVE,60618.0,,,1.0,14.0,21.0,,41.93260535565153,-87.69382275645063,"(41.93260535565153, -87.69382275645064)",2014-05-02
74998,05/02/2014,Completed,05/12/2014,14-00641415,Abandoned Vehicle Complaint,K726411,Ford,Black,FVI - Outcome,Vehicle was moved from original address requested,100.0,1215 W LILL AVE,60614.0,,,32.0,19.0,7.0,,41.927647814869644,-87.6591546641624,"(41.927647814869644, -87.65915466416241)",2014-05-02
74999,05/02/2014,Completed,05/12/2014,14-00641442,Abandoned Vehicle Complaint,NO PLATES,Bmw,White,FVI - Outcome,Vehicle was moved from original address requested,14.0,1218 N MAPLEWOOD AVE,60622.0,,,26.0,14.0,24.0,,41.90358156914099,-87.69088262845905,"(41.90358156914099, -87.69088262845905)",2014-05-02
75000,05/02/2014,Completed,05/12/2014,14-00642440,Abandoned Vehicle Complaint,1271230 B PLATE,Ford,White,FVI - Outcome,Vehicle was moved from original address requested,7.0,1743 W LE MOYNE ST,60622.0,,,1.0,14.0,24.0,,41.908949513189704,-87.6718013983255,"(41.9089495131897, -87.6718013983255)",2014-05-02
75001,05/02/2014,Completed,05/12/2014,14-00642451,Abandoned Vehicle Complaint,LSC 405,Ford,White,FVI - Outcome,Vehicle was moved from original address requested,8.0,1744 W LE MOYNE ST,60622.0,,,1.0,14.0,24.0,,41.90916809899704,-87.67188197917034,"(41.909168098997036, -87.67188197917034)",2014-05-02
75002,05/03/2014,Completed,05/12/2014,14-00643599,Abandoned Vehicle Complaint,,,,FVI - Outcome,Vehicle was moved from original address requested,,4815 S KARLOV AVE,60632.0,,,14.0,8.0,57.0,,41.8055232490546,-87.7258189250839,"(41.8055232490546, -87.72581892508391)",2014-05-03
75033,05/12/2014,Completed,05/13/2014,14-00693962,Abandoned Vehicle Complaint,K512209,Chevrolet,Tan,FVI - Outcome,Vehicle was moved from original address requested,30.0,1503 W 112TH PL,60643.0,,,34.0,22.0,75.0,,41.68918785817803,-87.6602559477779,"(41.68918785817803, -87.6602559477779)",2014-05-12
75034,05/12/2014,Completed,05/13/2014,14-00694226,Abandoned Vehicle Complaint,33430Z,Ford,White,FVI - Outcome,Vehicle was moved from original address requested,10.0,12549 S MICHIGAN AVE,60628.0,,,9.0,5.0,53.0,,41.66495555527927,-87.61987695380583,"(41.66495555527927, -87.61987695380583)",2014-05-12
75035,05/12/2014,Completed,05/13/2014,14-00694329,Abandoned Vehicle Complaint,R211310,Kia Motors Corp,Blue,FVI - Outcome,Return to Owner - Vehicle,30.0,1024 W 87TH ST,60620.0,,,21.0,6.0,71.0,,41.73609780276372,-87.6495614310402,"(41.73609780276373, -87.64956143104018)",2014-05-12
75036,05/12/2014,Completed,05/13/2014,14-00696556,Abandoned Vehicle Complaint,S68 XXXXX,Honda,Gold,FVI - Outcome,Vehicle was moved from original address requested,12.0,457 N ABERDEEN ST,60642.0,,,27.0,12.0,24.0,,41.89059749621407,-87.65446791226783,"(41.89059749621407, -87.65446791226783)",2014-05-12
75037,05/12/2014,Completed,05/13/2014,14-00697281,Abandoned Vehicle Complaint,NO PLATES,Mercury,White,FVI - Outcome,Vehicle was moved from original address requested,30.0,3212 W WALNUT ST,60624.0,,,28.0,11.0,27.0,,41.88549907722979,-87.70677942183323,"(41.88549907722979, -87.70677942183323)",2014-05-12
75038,05/10/2014,Completed,05/13/2014,14-00685959,Abandoned Vehicle Complaint,7672038,Mitsubishi,Gray,FVI - Outcome,Vehicle was moved from original address requested,14.0,5047 W WINONA ST,60630.0,,,45.0,16.0,12.0,,41.97422784631206,-87.7547405951819,"(41.97422784631206, -87.75474059518191)",2014-05-10
75039,05/10/2014,Completed,05/13/2014,14-00686414,Abandoned Vehicle Complaint,S414404,Mazda,Tan,FVI - Outcome,Return to Owner - Vehicle,14.0,2311 W 18TH PL,60608.0,,,25.0,12.0,31.0,,41.85655095665465,-87.68383105235327,"(41.85655095665465, -87.68383105235326)",2014-05-10
75040,05/10/2014,Completed,05/13/2014,14-00686780,Abandoned Vehicle Complaint,S678495,Cadillac,White,FVI - Outcome,Vehicle was moved from original address requested,6.0,112 S GREEN ST,60607.0,,,27.0,12.0,28.0,,41.88004397591651,-87.6486247744879,"(41.88004397591651, -87.64862477448789)",2014-05-10
75041,05/11/2014,Completed,05/13/2014,14-00688248,Abandoned Vehicle Complaint,52229A,Ford,White,FVI - Outcome,Vehicle was moved from original address requested,10.0,445 W 96TH ST,60628.0,,,21.0,22.0,73.0,,41.719631821606754,-87.63571485037642,"(41.71963182160675, -87.63571485037642)",2014-05-11
75042,05/11/2014,Completed,05/13/2014,14-00688729,Abandoned Vehicle Complaint,AAT077,Pontiac,Silver,FVI - Outcome,Vehicle was moved from original address requested,30.0,849 N FRANKLIN ST,60610.0,,,27.0,18.0,8.0,,41.89814708456635,-87.63559305841726,"(41.89814708456634, -87.63559305841726)",2014-05-11
75043,05/11/2014,Completed,05/13/2014,14-00688821,Abandoned Vehicle Complaint,V132356,Pontiac,Brown,FVI - Outcome,Vehicle was moved from original address requested,14.0,12023 S MICHIGAN AVE,60628.0,,,9.0,5.0,53.0,,41.67543678629917,-87.62028595263304,"(41.67543678629917, -87.62028595263303)",2014-05-11
75044,05/11/2014,Completed,05/13/2014,14-00689721,Abandoned Vehicle Complaint,R671604,Dodge,Red,FVI - Outcome,Vehicle was moved from original address requested,10.0,3455 W AUGUSTA BLVD,60651.0,,,27.0,11.0,23.0,,41.89902072538195,-87.7137517588086,"(41.89902072538195, -87.7137517588086)",2014-05-11
75045,05/12/2014,Completed,05/13/2014,14-00690412,Abandoned Vehicle Complaint,UNKNOWN,Ford,Green,FVI - Outcome,Vehicle was moved from original address requested,60.0,5224 S WINCHESTER AVE,60609.0,,,16.0,9.0,61.0,,41.79865698297533,-87.6733679820148,"(41.79865698297533, -87.6733679820148)",2014-05-12
75046,05/12/2014,Completed,05/13/2014,14-00691498,Abandoned Vehicle Complaint,V188127,Pontiac,Red,FVI - Outcome,Vehicle was moved from original address requested,4.0,1478 W 114TH PL,60643.0,,,34.0,22.0,75.0,,41.685861071995504,-87.65985592705763,"(41.685861071995504, -87.65985592705763)",2014-05-12
75047,05/12/2014,Completed,05/13/2014,14-00692554,Abandoned Vehicle Complaint,X151656,Honda,Gray,FVI - Outcome,Vehicle was moved from original address requested,10.0,2800 S KOMENSKY AVE,60623.0,,,22.0,10.0,30.0,,41.840458247392284,-87.72581234085196,"(41.840458247392284, -87.72581234085196)",2014-05-12
75048,05/09/2014,Completed,05/13/2014,14-00679030,Abandoned Vehicle Complaint,R803729,Pontiac,Beige,FVI - Outcome,Need Vehicle Tow Report,35.0,101 E 101ST ST,60628.0,,,9.0,5.0,49.0,,41.710755206377904,-87.61983551364204,"(41.71075520637791, -87.61983551364204)",2014-05-09
75049,05/09/2014,Completed,05/13/2014,14-00680779,Abandoned Vehicle Complaint,279ZSI,Oldsmobile,Red,FVI - Outcome,Return to Owner - Vehicle,14.0,11613 S AVENUE N,60617.0,,,10.0,4.0,52.0,,41.68415365846307,-87.5387245588781,"(41.68415365846307, -87.5387245588781)",2014-05-09
75050,05/09/2014,Completed,05/13/2014,14-00680783,Abandoned Vehicle Complaint,6716709,Dodge,White,FVI - Outcome,Vehicle was moved from original address requested,90.0,8428 S GREEN BAY AVE,60617.0,,,10.0,4.0,46.0,,41.74207857202796,-87.54193903235647,"(41.74207857202796, -87.54193903235647)",2014-05-09
75051,05/09/2014,Completed,05/13/2014,14-00681677,Abandoned Vehicle Complaint,N367434,Toyota,White,FVI - Outcome,Vehicle was moved from original address requested,7.0,2858 S CENTRAL PARK AVE,60623.0,,,22.0,10.0,30.0,,41.83897692923129,-87.71479101954719,"(41.8389769292313, -87.71479101954719)",2014-05-09
75052,05/09/2014,Completed,05/13/2014,14-00683821,Abandoned Vehicle Complaint,37874R,(Unlisted Make),White,FVI - Outcome,Vehicle was moved from original address requested,120.0,3332 W MAYPOLE AVE,60624.0,,,28.0,11.0,27.0,,41.8836847135545,-87.71004298819362,"(41.8836847135545, -87.71004298819362)",2014-05-09
75053,05/09/2014,Completed,05/13/2014,14-00684309,Abandoned Vehicle Complaint,R217183,Ford,Red,FVI - Outcome,Vehicle was moved from original address requested,14.0,2301 S WOLCOTT AVE,60608.0,,,25.0,10.0,31.0,,41.85067391132431,-87.67320710284265,"(41.85067391132431, -87.67320710284265)",2014-05-09
75054,05/09/2014,Completed,05/13/2014,14-00685019,Abandoned Vehicle Complaint,S859415,Ford,White,FVI - Outcome,Return to Owner - Vehicle,14.0,8800 S BURLEY AVE,60617.0,,,7.0,4.0,46.0,,41.735524769924396,-87.54594161739374,"(41.7355247699244, -87.54594161739375)",2014-05-09
75055,05/08/2014,Completed,05/13/2014,14-00670618,Abandoned Vehicle Complaint,N/LP,Ford,Black,FVI - Outcome,Vehicle was moved from original address requested,20.0,10118 S MORGAN ST,60643.0,,,34.0,22.0,73.0,,41.70988688576146,-87.64792256454194,"(41.70988688576146, -87.64792256454196)",2014-05-08
75056,05/08/2014,Completed,05/13/2014,14-00671081,Abandoned Vehicle Complaint,8472843,Pontiac,Silver,FVI - Outcome,Return to Owner - Vehicle,7.0,10421 S WHIPPLE ST,60655.0,,,19.0,22.0,74.0,,41.70373536231215,-87.69758250562685,"(41.703735362312145, -87.69758250562685)",2014-05-08
75057,05/08/2014,Completed,05/13/2014,14-00671217,Abandoned Vehicle Complaint,000000000,Chevrolet,Gray,FVI - Outcome,Vehicle was moved from original address requested,20.0,11820 S JUSTINE ST,60643.0,,,34.0,5.0,53.0,,41.6787204471249,-87.66035421258137,"(41.678720447124896, -87.66035421258137)",2014-05-08
75058,05/08/2014,Completed,05/13/2014,14-00674856,Abandoned Vehicle Complaint,VPC147,,Gold,FVI - Outcome,Vehicle was moved from original address requested,4.0,10258 S ELIZABETH ST,60643.0,,,21.0,22.0,73.0,,41.70729850467123,-87.65386152650417,"(41.70729850467123, -87.65386152650417)",2014-05-08
75059,05/07/2014,Completed,05/13/2014,14-00665220,Abandoned Vehicle Complaint,51918M,Chevrolet,Gray,FVI - Outcome,Vehicle was moved from original address requested,180.0,932 N GREENVIEW AVE,60642.0,,,27.0,12.0,24.0,29.0,41.89886154343221,-87.66506740370849,"(41.898861543432204, -87.6650674037085)",2014-05-07
75060,05/07/2014,Completed,05/13/2014,14-00668859,Abandoned Vehicle Complaint,0,Mazda,Black,FVI - Outcome,Vehicle was moved from original address requested,7.0,2224 N KEDZIE BLVD,60647.0,,,26.0,14.0,22.0,,41.92189239906181,-87.70727455451113,"(41.921892399061804, -87.70727455451112)",2014-05-07
75061,05/07/2014,Completed,05/13/2014,14-00669311,Abandoned Vehicle Complaint,S414404,Mercury,Gray,FVI - Outcome,Vehicle was moved from original address requested,7.0,2307 W 18TH PL,60608.0,,,25.0,12.0,31.0,,41.8565530468793,-87.68367421055272,"(41.8565530468793, -87.68367421055274)",2014-05-07
75062,05/07/2014,Completed,05/13/2014,14-00669695,Abandoned Vehicle Complaint,R690388,Oldsmobile,Black,FVI - Outcome,Vehicle was moved from original address requested,30.0,1711 N RIDGEWAY AVE,60647.0,,,26.0,25.0,23.0,,41.91211947080715,-87.72013729165757,"(41.91211947080715, -87.72013729165757)",2014-05-07
75063,05/06/2014,Completed - Dup,05/13/2014,14-00656929,Abandoned Vehicle Complaint,A778517,Infiniti/M30,Green,FVI - Outcome,Create Work Order,21.0,2415 N MILWAUKEE AVE,60647.0,1156354.21771453,1915925.15472482,35.0,14.0,22.0,,41.925161594855524,-87.70079914992428,"(41.92516159485552, -87.70079914992428)",2014-05-06
75064,05/06/2014,Completed - Dup,05/13/2014,14-00661521,Abandoned Vehicle Complaint,A905643,Chevrolet,Blue,FVI - Outcome,Create Work Order,17.0,4149 W BARRY AVE,60641.0,1148064.67352739,1920285.52162125,31.0,25.0,21.0,,41.93710008055977,-87.73152263793574,"(41.93710008055977, -87.73152263793573)",2014-05-06
75065,05/06/2014,Completed,05/13/2014,14-00654598,Abandoned Vehicle Complaint,R496527,Jeep/Cherokee,Black,FVI - Outcome,Vehicle was moved from original address requested,60.0,1818 S LAFLIN ST,60608.0,,,25.0,12.0,31.0,,41.857224049710325,-87.66389227199667,"(41.857224049710325, -87.66389227199667)",2014-05-06
75066,05/06/2014,Completed,05/13/2014,14-00654600,Abandoned Vehicle Complaint,K705660,Mazda,Red,FVI - Outcome,Vehicle was moved from original address requested,60.0,1512 W 18TH PL,60608.0,,,25.0,12.0,31.0,,41.85703183439377,-87.66430304141122,"(41.85703183439377, -87.6643030414112)",2014-05-06
75067,05/06/2014,Completed,05/13/2014,14-00655844,Abandoned Vehicle Complaint,8126537,Honda,Black,FVI - Outcome,Return to Owner - Vehicle,21.0,3917 W 58TH ST,60629.0,,,13.0,8.0,62.0,3.0,41.78767350565146,-87.72128520912727,"(41.78767350565146, -87.72128520912726)",2014-05-06
75068,05/06/2014,Completed,05/13/2014,14-00658843,Abandoned Vehicle Complaint,A905643,Oldsmobile,Blue,FVI - Outcome,Vehicle was moved from original address requested,14.0,4149 W BARRY AVE,60641.0,,,31.0,25.0,21.0,,41.93710008055977,-87.73152263793574,"(41.93710008055977, -87.73152263793573)",2014-05-06
75069,05/06/2014,Completed,05/13/2014,14-00658934,Abandoned Vehicle Complaint,UNKOWN,Nissan,Blue,FVI - Outcome,Vehicle was moved from original address requested,80.0,5217 S WASHTENAW AVE,60632.0,,,14.0,9.0,63.0,,41.798663718253934,-87.69134863417877,"(41.79866371825394, -87.69134863417878)",2014-05-06
75070,05/06/2014,Completed,05/13/2014,14-00660664,Abandoned Vehicle Complaint,H878967,Dodge,Gray,FVI - Outcome,Vehicle was moved from original address requested,14.0,4220 S KILDARE BLVD,60632.0,,,14.0,8.0,57.0,,41.81618993867252,-87.73151746437786,"(41.816189938672515, -87.73151746437786)",2014-05-06
75071,05/06/2014,Completed,05/13/2014,14-00660956,Abandoned Vehicle Complaint,NLP,Lincoln,Black,FVI - Outcome,Vehicle was moved from original address requested,90.0,2200 N MILWAUKEE AVE,60647.0,,,1.0,14.0,22.0,,41.920734131956394,-87.69404109393422,"(41.9207341319564, -87.6940410939342)",2014-05-06
75072,05/06/2014,Completed,05/13/2014,14-00661095,Abandoned Vehicle Complaint,L21 4537,Ford,White,FVI - Outcome,Vehicle was moved from original address requested,1.0,1018 W 15TH ST,60608.0,,,25.0,12.0,28.0,,41.86180648091967,-87.65170061743638,"(41.86180648091967, -87.65170061743638)",2014-05-06
75073,05/06/2014,Completed,05/13/2014,14-00661508,Abandoned Vehicle Complaint,S133867,Ford,Black,FVI - Outcome,Vehicle was moved from original address requested,7.0,530 W 24TH PL,60616.0,,,25.0,9.0,34.0,,41.84823209174753,-87.64138072703491,"(41.848232091747526, -87.64138072703491)",2014-05-06
75074,05/06/2014,Completed,05/13/2014,14-00662013,Abandoned Vehicle Complaint,9136608,Chevrolet,Red,FVI - Outcome,Vehicle was moved from original address requested,8.0,3405 W 53RD ST,60632.0,,,14.0,8.0,63.0,,41.796983945969856,-87.70877724322847,"(41.79698394596985, -87.70877724322847)",2014-05-06
75075,05/05/2014,Completed,05/13/2014,14-00653075,Abandoned Vehicle Complaint,X299092,Mazda,Gray,FVI - Outcome,Vehicle was moved from original address requested,7.0,3122 N WOLCOTT AVE,60657.0,,,32.0,19.0,5.0,,41.938517731925046,-87.67603900741756,"(41.93851773192505, -87.67603900741756)",2014-05-05
75076,05/05/2014,Completed,05/13/2014,14-00653439,Abandoned Vehicle Complaint,G345882,Chevrolet,Gray,FVI - Outcome,Vehicle was moved from original address requested,14.0,1834 W WELLINGTON AVE,60657.0,,,32.0,19.0,5.0,,41.93607834574016,-87.6749622047126,"(41.93607834574016, -87.6749622047126)",2014-05-05
75077,05/05/2014,Completed,05/13/2014,14-00654489,Abandoned Vehicle Complaint,S679765,Mercedes,Gray,FVI - Outcome,Vehicle was moved from original address requested,21.0,2258 N KEYSTONE AVE,60639.0,,,31.0,25.0,20.0,,41.92254630118779,-87.72808497789428,"(41.9225463011878, -87.72808497789428)",2014-05-05
75078,05/02/2014,Completed,05/13/2014,14-00641855,Abandoned Vehicle Complaint,1275870,Chevrolet,Tan,FVI - Outcome,Vehicle was moved from original address requested,7.0,5311 S MOZART ST,60632.0,,,14.0,9.0,63.0,,41.796945654286816,-87.69496447537261,"(41.79694565428681, -87.69496447537263)",2014-05-02
75080,05/02/2014,Completed,05/13/2014,14-00642808,Abandoned Vehicle Complaint,S391399,General Motors Corp.,Blue,FVI - Outcome,Vehicle was moved from original address requested,7.0,2442 W 54TH ST,60632.0,,,14.0,9.0,63.0,,41.79531904345619,-87.68585669078912,"(41.79531904345619, -87.68585669078912)",2014-05-02
75081,05/03/2014,Completed,05/13/2014,14-00643869,Abandoned Vehicle Complaint,UNKNOWN,Chevrolet,Gray,FVI - Outcome,Vehicle was moved from original address requested,180.0,5713 W HIGGINS AVE,60630.0,,,45.0,16.0,11.0,,41.97122039857713,-87.77132034040743,"(41.97122039857713, -87.77132034040744)",2014-05-03
75082,05/03/2014,Completed,05/13/2014,14-00644370,Abandoned Vehicle Complaint,STUPAR 1,Volvo,Burgundy,FVI - Outcome,Vehicle was moved from original address requested,120.0,5037 W WINONA ST,60630.0,,,45.0,16.0,12.0,,41.9742317080836,-87.75437562605477,"(41.9742317080836, -87.75437562605477)",2014-05-03
75083,05/03/2014,Completed,05/13/2014,14-00644479,Abandoned Vehicle Complaint,S391376,Mitsubishi,Gray,FVI - Outcome,Vehicle was moved from original address requested,21.0,4100 S ALBANY AVE,60632.0,,,14.0,9.0,58.0,,41.81898898013904,-87.70207881111185,"(41.81898898013904, -87.70207881111185)",2014-05-03
75084,05/01/2014,Completed - Dup,05/13/2014,14-00634974,Abandoned Vehicle Complaint,X70 3766,Toyota,Green,FVI - Outcome,Create Work Order,15.0,4435 N MANGO AVE,60630.0,1137211.98011738,1928915.28739066,38.0,16.0,15.0,,41.961517855001595,-87.77079687559505,"(41.96151785500159, -87.77079687559507)",2014-05-01
75085,05/01/2014,Completed,05/13/2014,14-00630059,Abandoned Vehicle Complaint,NO PLATE,(Unlisted Make),Orange,FVI - Outcome,Vehicle was moved from original address requested,2.0,3141 S BENSON ST,60608.0,,,11.0,9.0,60.0,,41.83665210737951,-87.66063198055565,"(41.83665210737951, -87.66063198055565)",2014-05-01
75086,05/01/2014,Completed,05/13/2014,14-00636703,Abandoned Vehicle Complaint,8939787,Chevrolet,Black,FVI - Outcome,Vehicle was moved from original address requested,60.0,2299 W COULTER ST,60608.0,,,25.0,10.0,31.0,,41.8465785269445,-87.68291431137742,"(41.8465785269445, -87.6829143113774)",2014-05-01
75087,05/02/2014,Completed,05/13/2014,14-00639798,Abandoned Vehicle Complaint,170979,General Motors Corp.,Multi-Color,FVI - Outcome,Vehicle was moved from original address requested,30.0,1368 W 21ST ST,60608.0,,,25.0,12.0,31.0,,41.85435651163578,-87.66109592337091,"(41.854356511635785, -87.6610959233709)",2014-05-02
75141,05/14/2014,Completed - Dup,05/14/2014,14-00707562,Abandoned Vehicle Complaint,000000,Ford,Beige,FVI - Outcome,Create Work Order,14.0,7939 S PAULINA ST,60620.0,1166391.59210899,1852054.29602476,21.0,6.0,71.0,,41.74916112009848,-87.66568932999365,"(41.74916112009848, -87.66568932999364)",2014-05-14
75142,05/14/2014,Completed - Dup,05/14/2014,14-00710024,Abandoned Vehicle Complaint,,,,,,,4915 N MENARD AVE,60630.0,1136505.11291953,1932165.13003122,45.0,16.0,11.0,,41.970004419839505,-87.7733006680985,"(41.97000441983951, -87.7733006680985)",2014-05-14
75143,05/01/2014,Completed,05/14/2014,14-00631022,Abandoned Vehicle Complaint,,,,,,,4555 N BERNARD ST,60625.0,1152565.85000057,1930059.42166802,33.0,17.0,14.0,,41.96454951504523,-87.71432047186632,"(41.96454951504523, -87.71432047186632)",2014-05-01
75144,05/14/2014,Completed,05/14/2014,14-00706726,Abandoned Vehicle Complaint,X30 3058,Chevrolet,White,FVI - Outcome,Vehicle was moved from original address requested,30.0,517 S MAPLEWOOD AVE,60612.0,,,2.0,11.0,28.0,,41.87440068399577,-87.69047003551803,"(41.87440068399577, -87.69047003551803)",2014-05-14
75145,05/14/2014,Completed,05/14/2014,14-00707146,Abandoned Vehicle Complaint,KA9265,Jeep/Cherokee,Blue,FVI - Outcome,Vehicle was moved from original address requested,200.0,4410 N PAULINA ST,60640.0,,,47.0,19.0,3.0,31.0,41.9619418545337,-87.67099500580437,"(41.961941854533706, -87.67099500580437)",2014-05-14
75146,05/14/2014,Completed,05/14/2014,14-00707519,Abandoned Vehicle Complaint,FZG7247,Toyota,Red,FVI - Outcome,Return to Owner - Vehicle,32.0,1702 W FARWELL AVE,60626.0,,,49.0,24.0,1.0,24.0,42.00666547922489,-87.67357051526562,"(42.00666547922489, -87.67357051526561)",2014-05-14
75147,05/14/2014,Completed,05/14/2014,14-00707529,Abandoned Vehicle Complaint,N669012,Pontiac,Red,FVI - Outcome,Vehicle was moved from original address requested,14.0,7939 S PAULINA ST,60620.0,,,21.0,6.0,71.0,,41.74916112009848,-87.66568932999365,"(41.74916112009848, -87.66568932999364)",2014-05-14
75148,05/14/2014,Completed,05/14/2014,14-00707946,Abandoned Vehicle Complaint,5410962,Chevrolet,Gray,FVI - Outcome,Vehicle was moved from original address requested,25.0,6700 S CAMPBELL AVE,60629.0,,,15.0,8.0,66.0,14.0,41.77185201177543,-87.68602563013883,"(41.77185201177543, -87.68602563013884)",2014-05-14
75149,05/13/2014,Completed - Dup,05/14/2014,14-00701695,Abandoned Vehicle Complaint,552WIJ,(Unlisted Make),Burgundy,FVI - Outcome,Create Work Order,4.0,8326 S BRANDON AVE,60617.0,1198931.17501914,1850266.83008347,10.0,4.0,46.0,,41.743926963691614,-87.54681506095206,"(41.743926963691614, -87.54681506095206)",2014-05-13
75150,05/13/2014,Completed,05/14/2014,14-00700160,Abandoned Vehicle Complaint,00000000000,Legacy Unknown,Green,FVI - Outcome,Vehicle was moved from original address requested,30.0,13230 S ST LAWRENCE AVE,60827.0,,,9.0,5.0,54.0,,41.65452477449521,-87.6077023707856,"(41.65452477449521, -87.60770237078559)",2014-05-13
75151,05/13/2014,Completed,05/14/2014,14-00700398,Abandoned Vehicle Complaint,NO PLATES,Lexus,Gray,FVI - Outcome,Vehicle was moved from original address requested,20.0,4701 W BELDEN AVE,60639.0,,,31.0,25.0,19.0,,41.922333317985505,-87.74387751471487,"(41.9223333179855, -87.74387751471487)",2014-05-13
75152,05/13/2014,Completed,05/14/2014,14-00700484,Abandoned Vehicle Complaint,294676,Ford,White,FVI - Outcome,Vehicle was moved from original address requested,15.0,2940 N KILDARE AVE,60641.0,,,31.0,25.0,20.0,,41.9347599621764,-87.7350235515351,"(41.9347599621764, -87.7350235515351)",2014-05-13
75153,05/13/2014,Completed,05/14/2014,14-00701640,Abandoned Vehicle Complaint,552WIJ,(Unlisted Make),Burgundy,FVI - Outcome,Vehicle was moved from original address requested,4.0,8326 S BRANDON AVE,60617.0,,,10.0,4.0,46.0,,41.743926963691614,-87.54681506095206,"(41.743926963691614, -87.54681506095206)",2014-05-13
75154,05/13/2014,Completed,05/14/2014,14-00701799,Abandoned Vehicle Complaint,552WIJ,(Unlisted Make),Burgundy,FVI - Outcome,Vehicle was moved from original address requested,3.0,8327 S BRANDON AVE,60617.0,,,10.0,4.0,46.0,,41.74393034055757,-87.54652196315722,"(41.74393034055757, -87.54652196315722)",2014-05-13
75155,05/13/2014,Completed,05/14/2014,14-00702244,Abandoned Vehicle Complaint,N65 0541,Honda,White,FVI - Outcome,Vehicle was moved from original address requested,7.0,1423 W RASCHER AVE,60640.0,,,48.0,20.0,77.0,22.0,41.98068708960988,-87.66584843687649,"(41.98068708960988, -87.66584843687649)",2014-05-13
75156,05/13/2014,Completed,05/14/2014,14-00702615,Abandoned Vehicle Complaint,R313249,Mitsubishi,Red,FVI - Outcome,Return to Owner - Vehicle,45.0,7043 S ARTESIAN AVE,60629.0,,,17.0,8.0,66.0,14.0,41.765223788724754,-87.68433424025845,"(41.76522378872475, -87.68433424025845)",2014-05-13
75157,05/13/2014,Completed,05/14/2014,14-00704351,Abandoned Vehicle Complaint,A51 6161,Lincoln,Blue,FVI - Outcome,Vehicle was moved from original address requested,120.0,635 W 48TH PL,60609.0,,,11.0,9.0,61.0,,41.80608543093781,-87.64206270310234,"(41.80608543093781, -87.64206270310235)",2014-05-13
75158,05/11/2014,Completed,05/14/2014,14-00688874,Abandoned Vehicle Complaint,X75 0101,Acura,Black,FVI - Outcome,Vehicle was moved from original address requested,48.0,428 S PLYMOUTH CT,60605.0,,,2.0,1.0,32.0,,41.87619688531472,-87.62886246211059,"(41.87619688531472, -87.6288624621106)",2014-05-11
75159,05/12/2014,Completed - Dup,05/14/2014,14-00694406,Abandoned Vehicle Complaint,S125770,Chevrolet,Black,FVI - Outcome,Create Work Order,60.0,2070 N HUMBOLDT BLVD,60647.0,1156032.50231821,1913772.45499881,35.0,14.0,22.0,,41.919507380732405,-87.70230156637365,"(41.91950738073241, -87.70230156637365)",2014-05-12
75160,05/12/2014,Completed,05/14/2014,14-00690204,Abandoned Vehicle Complaint,KA9265,Jeep/Cherokee,Blue,FVI - Outcome,Vehicle was moved from original address requested,60.0,4610 N PAULINA ST,60640.0,,,47.0,19.0,3.0,,41.96558488052657,-87.6710830543209,"(41.96558488052657, -87.6710830543209)",2014-05-12
75161,05/12/2014,Completed,05/14/2014,14-00693510,Abandoned Vehicle Complaint,NONE,Honda,White,FVI - Outcome,Vehicle was moved from original address requested,200.0,1545 W BIRCHWOOD AVE,60626.0,,,49.0,24.0,1.0,,42.018029114710906,-87.67001487693463,"(42.018029114710906, -87.67001487693462)",2014-05-12
75162,05/12/2014,Completed,05/14/2014,14-00694029,Abandoned Vehicle Complaint,R257182,Chevrolet,White,FVI - Outcome,Vehicle was moved from original address requested,14.0,8149 S EXCHANGE AVE,60617.0,,,7.0,4.0,46.0,,41.746811563115074,-87.55265402036311,"(41.746811563115074, -87.55265402036311)",2014-05-12
75163,05/12/2014,Completed,05/14/2014,14-00697565,Abandoned Vehicle Complaint,S231082,Honda,Red,FVI - Outcome,Vehicle was moved from original address requested,14.0,3207 S MAY ST,60608.0,,,11.0,9.0,60.0,,41.835869930772965,-87.6545973035348,"(41.835869930772965, -87.65459730353479)",2014-05-12
75164,05/12/2014,Completed,05/14/2014,14-00697573,Abandoned Vehicle Complaint,R507544,Oldsmobile,White,FVI - Outcome,Return to Owner - Vehicle,28.0,1766 W MORSE AVE,60626.0,,,49.0,24.0,1.0,24.0,42.00786488324874,-87.67484535125315,"(42.00786488324874, -87.67484535125314)",2014-05-12
75165,05/12/2014,Completed,05/14/2014,14-00697680,Abandoned Vehicle Complaint,UNKNOWN,Ford,Black,FVI - Outcome,Vehicle was moved from original address requested,14.0,4538 S EMERALD AVE,60609.0,,,11.0,9.0,61.0,,41.81135547667788,-87.64454014282039,"(41.81135547667788, -87.64454014282039)",2014-05-12
75166,05/09/2014,Completed,05/14/2014,14-00682501,Abandoned Vehicle Complaint,479 5246,Chevrolet,Blue,FVI - Outcome,Vehicle was moved from original address requested,10.0,1939 W CHASE AVE,60626.0,,,49.0,24.0,1.0,,42.01356108178804,-87.67972502921394,"(42.01356108178804, -87.67972502921394)",2014-05-09
75167,05/09/2014,Completed,05/14/2014,14-00683346,Abandoned Vehicle Complaint,9256369,Honda,Green,FVI - Outcome,Vehicle was moved from original address requested,9.0,1932 N HALSTED ST,60614.0,,,43.0,18.0,7.0,,41.91696380930648,-87.64860031224846,"(41.91696380930648, -87.64860031224846)",2014-05-09
75168,05/09/2014,Completed,05/14/2014,14-00684611,Abandoned Vehicle Complaint,3518957,Ford,Black,FVI - Outcome,Vehicle was moved from original address requested,210.0,2307 W CONGRESS PKWY,60612.0,,,2.0,12.0,28.0,,41.87485328483756,-87.6841424047576,"(41.87485328483756, -87.6841424047576)",2014-05-09
75169,05/10/2014,Completed,05/14/2014,14-00686200,Abandoned Vehicle Complaint,42966A,(Unlisted Make),Red,FVI - Outcome,Vehicle was moved from original address requested,14.0,7728 S KILPATRICK AVE,60652.0,,,13.0,8.0,70.0,,41.75197357800566,-87.73916670525345,"(41.75197357800566, -87.73916670525345)",2014-05-10
75170,05/08/2014,Completed,05/14/2014,14-00674507,Abandoned Vehicle Complaint,NONE,Ford,Gray,FVI - Outcome,Vehicle was moved from original address requested,7.0,2354 W 42ND PL,60609.0,,,12.0,9.0,61.0,,41.816723529674334,-87.68404551131121,"(41.816723529674334, -87.6840455113112)",2014-05-08
75171,05/08/2014,Completed,05/14/2014,14-00674568,Abandoned Vehicle Complaint,DL6159A,Lexus,White,FVI - Outcome,Return to Owner - Vehicle,14.0,3029 N NEWLAND AVE,60634.0,,,36.0,25.0,18.0,,41.9353435170142,-87.7991423769687,"(41.935343517014196, -87.7991423769687)",2014-05-08
75172,05/08/2014,Completed,05/14/2014,14-00674604,Abandoned Vehicle Complaint,NONE,Ford,Red,FVI - Outcome,Vehicle was moved from original address requested,7.0,2356 W 42ND PL,60609.0,,,12.0,9.0,61.0,,41.816723529674334,-87.68404551131121,"(41.816723529674334, -87.6840455113112)",2014-05-08
75173,05/08/2014,Completed,05/14/2014,14-00674635,Abandoned Vehicle Complaint,NONE,Freightliner Corp.,Red,,,7.0,4032 W WRIGHTWOOD AVE,60639.0,1149060.25123219,1916977.47846737,31.0,25.0,22.0,,41.92820680361644,-87.72823466320177,"(41.92820680361644, -87.72823466320177)",2014-05-08
75174,05/08/2014,Completed,05/14/2014,14-00674714,Abandoned Vehicle Complaint,1439370,Ford,White,,,7.0,4010 W WRIGHTWOOD AVE,60639.0,1149210.35123219,1916982.47846737,31.0,25.0,22.0,,41.92822263220529,-87.7273897142737,"(41.92822263220529, -87.72738971427371)",2014-05-08
75175,05/08/2014,Completed,05/14/2014,14-00675931,Abandoned Vehicle Complaint,S860860,Chevrolet,Green,FVI - Outcome,Vehicle was moved from original address requested,7.0,6629 S MICHIGAN AVE,60637.0,,,20.0,3.0,69.0,,41.7741251431299,-87.62259802423046,"(41.7741251431299, -87.62259802423047)",2014-05-08
75176,05/07/2014,Completed,05/14/2014,14-00662605,Abandoned Vehicle Complaint,L312416,Chevrolet,Maroon,FVI - Outcome,Vehicle was moved from original address requested,10.0,4442 W 77TH PL,60652.0,,,13.0,8.0,70.0,,41.75263129612386,-87.7334580365769,"(41.75263129612386, -87.7334580365769)",2014-05-07
75177,05/07/2014,Completed,05/14/2014,14-00663358,Abandoned Vehicle Complaint,5956744,Chevrolet,Silver,FVI - Outcome,Return to Owner - Vehicle,,1558 W JONQUIL TER,60626.0,,,49.0,24.0,1.0,,42.02126329997416,-87.67065513332929,"(42.02126329997416, -87.67065513332929)",2014-05-07
75178,05/08/2014,Completed,05/14/2014,14-00671997,Abandoned Vehicle Complaint,R12 9724,Dodge,Maroon,FVI - Outcome,Vehicle was moved from original address requested,-31.0,2908 W ROSEMONT AVE,60659.0,,,50.0,24.0,2.0,43.0,41.99583938997536,-87.70235890147663,"(41.99583938997536, -87.70235890147663)",2014-05-08
75179,05/06/2014,Completed,05/14/2014,14-00657877,Abandoned Vehicle Complaint,X570426,Nissan,Gold,FVI - Outcome,Vehicle was moved from original address requested,10.0,1330 W EARLY AVE,60660.0,,,48.0,20.0,77.0,,41.98739118051019,-87.66406613010571,"(41.98739118051019, -87.66406613010571)",2014-05-06
75180,05/06/2014,Completed,05/14/2014,14-00661012,Abandoned Vehicle Complaint,181232,(Unlisted Make),Green,FVI - Outcome,Vehicle was moved from original address requested,30.0,5715 S TROY ST,60629.0,,,14.0,8.0,63.0,,41.78934360803051,-87.70207063774109,"(41.789343608030514, -87.70207063774109)",2014-05-06
75181,05/06/2014,Completed,05/14/2014,14-00661709,Abandoned Vehicle Complaint,NO PLATES,Hyundai,Burgundy,FVI - Outcome,Vehicle was moved from original address requested,60.0,7136 S FAIRFIELD AVE,60629.0,,,18.0,8.0,66.0,14.0,41.763448377375056,-87.69192138623455,"(41.763448377375056, -87.69192138623455)",2014-05-06
75182,05/04/2014,Completed,05/14/2014,14-00645922,Abandoned Vehicle Complaint,K108284,Honda,Blue,FVI - Outcome,Vehicle was moved from original address requested,14.0,3512 N RUTHERFORD AVE,60634.0,,,36.0,16.0,17.0,,41.9440990277669,-87.79486044916122,"(41.94409902776691, -87.79486044916122)",2014-05-04
75183,05/05/2014,Completed,05/14/2014,14-00652140,Abandoned Vehicle Complaint,378R599,Chevrolet,Green,FVI - Outcome,Vehicle was moved from original address requested,10.0,5136 W 64TH ST,60638.0,,,13.0,8.0,64.0,,41.776141440194934,-87.75070615848774,"(41.776141440194934, -87.75070615848773)",2014-05-05
75184,05/01/2014,Completed - Dup,05/14/2014,14-00630658,Abandoned Vehicle Complaint,K108284,Honda,Blue,FVI - Outcome,Create Work Order,15.0,3516 N RUTHERFORD AVE,60634.0,1130784.23948207,1922631.21021165,36.0,16.0,17.0,,41.94421281316456,-87.79486449294498,"(41.944212813164555, -87.79486449294498)",2014-05-01
75185,05/01/2014,Completed,05/14/2014,14-00634222,Abandoned Vehicle Complaint,DF5471,Honda,Silver,FVI - Outcome,Vehicle was moved from original address requested,21.0,4438 N MENARD AVE,60630.0,,,38.0,16.0,15.0,,41.96161147181069,-87.77231640758488,"(41.96161147181069, -87.77231640758487)",2014-05-01
75186,05/01/2014,Completed,05/14/2014,14-00635938,Abandoned Vehicle Complaint,62700X,Ford,Silver,FVI - Outcome,Vehicle was moved from original address requested,720.0,6367 S LECLAIRE AVE,60638.0,,,13.0,8.0,64.0,,41.776369761066775,-87.74893428320524,"(41.77636976106677, -87.74893428320523)",2014-05-01
75187,05/01/2014,Completed,05/14/2014,14-00636247,Abandoned Vehicle Complaint,K561172,Chrysler,Gray,FVI - Outcome,Vehicle was moved from original address requested,30.0,6155 S NARRAGANSETT AVE,60638.0,,,23.0,8.0,64.0,,41.77971557849811,-87.78119047005192,"(41.77971557849812, -87.78119047005192)",2014-05-01
75188,05/02/2014,Completed - Dup,05/14/2014,14-00640299,Abandoned Vehicle Complaint,S148563,Toyota,Green,FVI - Outcome,Create Work Order,14.0,4915 N MENARD AVE,60630.0,1136505.11291953,1932165.13003122,45.0,16.0,11.0,,41.970004419839505,-87.7733006680985,"(41.97000441983951, -87.7733006680985)",2014-05-02
75189,05/02/2014,Completed,05/14/2014,14-00638016,Abandoned Vehicle Complaint,NONE,Chevrolet,Blue,FVI - Outcome,Need Vehicle Tow Report,50.0,8823 S THROOP ST,60620.0,,,21.0,22.0,71.0,,41.7333873043451,-87.65555047329231,"(41.7333873043451, -87.65555047329231)",2014-05-02
75190,05/02/2014,Completed,05/14/2014,14-00638878,Abandoned Vehicle Complaint,283R626,Dodge,Black,FVI - Outcome,Vehicle was moved from original address requested,30.0,6006 S MCVICKER AVE,60638.0,,,23.0,8.0,64.0,,41.783078433822396,-87.77306097377027,"(41.783078433822396, -87.77306097377028)",2014-05-02
75232,05/15/2014,Completed,05/15/2014,14-00714272,Abandoned Vehicle Complaint,8094268,Chevrolet,Brown,FVI - Outcome,Vehicle was moved from original address requested,15.0,5747 W 64TH ST,60638.0,,,13.0,8.0,64.0,,41.7760463645522,-87.76595499928389,"(41.7760463645522, -87.76595499928389)",2014-05-15
75233,05/15/2014,Completed,05/15/2014,14-00714479,Abandoned Vehicle Complaint,0000000000,Ford,Green,FVI - Outcome,Vehicle was moved from original address requested,14.0,6650 S DREXEL AVE,60637.0,,,5.0,3.0,42.0,,41.77347896810701,-87.60348986546677,"(41.77347896810701, -87.60348986546677)",2014-05-15
75234,05/15/2014,Completed,05/15/2014,14-00715500,Abandoned Vehicle Complaint,21072V,Ford,Black,FVI - Outcome,Vehicle was moved from original address requested,10.0,3737 S HALSTED ST,60609.0,,,11.0,9.0,60.0,,41.825997077151605,-87.64584778179005,"(41.825997077151605, -87.64584778179004)",2014-05-15
75235,05/13/2014,Completed - Dup,05/15/2014,14-00705198,Abandoned Vehicle Complaint,P59 2141,Dodge,Burgundy,FVI - Outcome,Create Work Order,11.0,4719 W 65TH ST,60629.0,1145960.49877361,1861088.87302128,13.0,8.0,64.0,,41.774699077380184,-87.74062019911072,"(41.77469907738019, -87.74062019911072)",2014-05-13
75236,05/13/2014,Completed,05/15/2014,14-00698815,Abandoned Vehicle Complaint,P59 2141,Dodge,Burgundy,FVI - Outcome,Vehicle was moved from original address requested,11.0,4719 W 65TH ST,60629.0,,,13.0,8.0,64.0,,41.774699077380184,-87.74062019911072,"(41.77469907738019, -87.74062019911072)",2014-05-13
75237,05/13/2014,Completed,05/15/2014,14-00700324,Abandoned Vehicle Complaint,K810117,Ford,White,FVI - Outcome,Vehicle was moved from original address requested,22.0,720 S DEARBORN ST,60605.0,,,2.0,1.0,32.0,,41.872924414089155,-87.62929973479568,"(41.872924414089155, -87.62929973479568)",2014-05-13
75238,05/13/2014,Completed,05/15/2014,14-00701689,Abandoned Vehicle Complaint,H85200,Nissan,Gray,FVI - Outcome,Vehicle was moved from original address requested,30.0,1623 W 16TH ST,60608.0,,,25.0,12.0,31.0,,41.85948454503453,-87.66727128454714,"(41.859484545034526, -87.66727128454714)",2014-05-13
75239,05/13/2014,Completed,05/15/2014,14-00703211,Abandoned Vehicle Complaint,785 3405,Land Rover,Green,FVI - Outcome,Return to Owner - Vehicle,1800.0,4930 N WESTERN AVE,60625.0,,,47.0,20.0,4.0,21.0,41.97127601078239,-87.68914307770821,"(41.97127601078239, -87.6891430777082)",2014-05-13
75240,05/13/2014,Completed,05/15/2014,14-00704649,Abandoned Vehicle Complaint,N912944,Ford,Black,FVI - Outcome,Vehicle was moved from original address requested,150.0,4200 N WOLCOTT AVE,60613.0,,,47.0,19.0,5.0,,41.957935277468536,-87.67603632190227,"(41.95793527746854, -87.67603632190227)",2014-05-13
75241,05/14/2014,Completed,05/15/2014,14-00706360,Abandoned Vehicle Complaint,S806989,Pontiac,Silver,FVI - Outcome,Return to Owner - Vehicle,10.0,3022 W WASHINGTON BLVD,60612.0,,,2.0,12.0,27.0,,41.88294698154069,-87.7022184319606,"(41.88294698154069, -87.70221843196059)",2014-05-14
75242,05/14/2014,Completed,05/15/2014,14-00710206,Abandoned Vehicle Complaint,NONE,Dodge,White,FVI - Outcome,Vehicle was moved from original address requested,10.0,5118 S PARKSIDE AVE,60638.0,,,23.0,8.0,56.0,,41.799445611735365,-87.76386825607929,"(41.79944561173537, -87.7638682560793)",2014-05-14
75243,05/11/2014,Completed,05/15/2014,14-00688162,Abandoned Vehicle Complaint,J796699,Toyota,Black,FVI - Outcome,Vehicle was moved from original address requested,10.0,6022 S WHIPPLE ST,60629.0,,,16.0,8.0,66.0,,41.783769453708096,-87.69976544790121,"(41.78376945370809, -87.6997654479012)",2014-05-11
75244,05/11/2014,Completed,05/15/2014,14-00688709,Abandoned Vehicle Complaint,S376058,Nissan,Gray,FVI - Outcome,Vehicle was moved from original address requested,150.0,5737 N TALMAN AVE,60659.0,,,40.0,20.0,2.0,,41.98606787164838,-87.69546156764616,"(41.98606787164838, -87.69546156764616)",2014-05-11
75245,05/12/2014,Completed,05/15/2014,14-00693833,Abandoned Vehicle Complaint,70130Y,Ford,Red,FVI - Outcome,Vehicle was moved from original address requested,30.0,4833 N KILDARE AVE,60630.0,,,39.0,17.0,14.0,,41.969127993088186,-87.7353124790315,"(41.969127993088186, -87.7353124790315)",2014-05-12
75246,05/12/2014,Completed,05/15/2014,14-00695085,Abandoned Vehicle Complaint,V333640,Legacy Unknown,Black,FVI - Outcome,Vehicle was moved from original address requested,30.0,5848 W 60TH ST,60638.0,,,13.0,8.0,64.0,,41.78353422810492,-87.76878395294192,"(41.78353422810492, -87.76878395294192)",2014-05-12
75247,05/12/2014,Completed,05/15/2014,14-00697295,Abandoned Vehicle Complaint,NB1806,Chevrolet,Green,FVI - Outcome,Return to Owner - Vehicle,7.0,5422 S INGLESIDE AVE,60615.0,,,5.0,2.0,41.0,,41.79719010018287,-87.60292515328817,"(41.79719010018287, -87.60292515328817)",2014-05-12
75248,05/10/2014,Completed,05/15/2014,14-00686700,Abandoned Vehicle Complaint,H976407,Dodge,Black,FVI - Outcome,Vehicle was moved from original address requested,30.0,4641 W 62ND ST,60629.0,,,13.0,8.0,64.0,3.0,41.78018332311928,-87.73908156245524,"(41.78018332311928, -87.73908156245524)",2014-05-10
75249,05/10/2014,Completed,05/15/2014,14-00686743,Abandoned Vehicle Complaint,D582687,Dodge,Silver,FVI - Outcome,Vehicle was moved from original address requested,7.0,6015 N KILPATRICK AVE,60646.0,,,39.0,17.0,12.0,,41.990417771339054,-87.74575201742222,"(41.990417771339054, -87.74575201742222)",2014-05-10
75250,05/09/2014,Completed,05/15/2014,14-00680624,Abandoned Vehicle Complaint,NO PLATES,Nissan,Gray,FVI - Outcome,Vehicle was moved from original address requested,30.0,5901 S MAPLEWOOD AVE,60629.0,,,16.0,8.0,66.0,59.0,41.786416162599004,-87.6873480019499,"(41.786416162599, -87.68734800194991)",2014-05-09
75251,05/09/2014,Completed,05/15/2014,14-00684446,Abandoned Vehicle Complaint,TENNESSEE K14 73U,Volkswagen,Green,FVI - Outcome,Vehicle was moved from original address requested,13.0,2419 W WINNEMAC AVE,60625.0,,,47.0,20.0,4.0,21.0,41.97290429931628,-87.6898646626612,"(41.972904299316276, -87.68986466266118)",2014-05-09
75252,05/09/2014,Completed,05/15/2014,14-00684459,Abandoned Vehicle Complaint,S36 5144,Toyota,Black,FVI - Outcome,Vehicle was moved from original address requested,10.0,5109 N LOCKWOOD AVE,60630.0,,,45.0,16.0,11.0,,41.973672272847544,-87.76005935058633,"(41.97367227284755, -87.76005935058635)",2014-05-09
75253,05/08/2014,Completed,05/15/2014,14-00671786,Abandoned Vehicle Complaint,1350109B,Ford,White,FVI - Outcome,Vehicle was moved from original address requested,30.0,3700 W GLENLAKE AVE,60659.0,,,39.0,17.0,13.0,,41.9920645902191,-87.72143178115284,"(41.9920645902191, -87.72143178115284)",2014-05-08
75254,05/08/2014,Completed,05/15/2014,14-00675180,Abandoned Vehicle Complaint,NO PLATES,Jeep/Cherokee,Black,FVI - Outcome,Vehicle was moved from original address requested,10.0,6100 N CICERO AVE,60646.0,,,39.0,16.0,12.0,62.0,41.991483828231345,-87.74847522773773,"(41.99148382823134, -87.74847522773774)",2014-05-08
75255,05/08/2014,Completed,05/15/2014,14-00675844,Abandoned Vehicle Complaint,S155451,Chevrolet,Blue,FVI - Outcome,Vehicle was moved from original address requested,20.0,3602 N TRIPP AVE,60641.0,,,38.0,17.0,16.0,,41.94643775079242,-87.73389961281728,"(41.94643775079242, -87.73389961281728)",2014-05-08
75256,05/08/2014,Completed,05/15/2014,14-00675857,Abandoned Vehicle Complaint,P974339,Chevrolet,Black,FVI - Outcome,Vehicle was moved from original address requested,30.0,4741 N KEDVALE AVE,60630.0,,,39.0,17.0,14.0,,41.96763240533392,-87.73157407229891,"(41.967632405333916, -87.7315740722989)",2014-05-08
75257,05/08/2014,Completed,05/15/2014,14-00677394,Abandoned Vehicle Complaint,N177243,Jeep (If Mfd. Prior To 1970),Green,FVI - Outcome,Vehicle was moved from original address requested,10.0,5145 S NEENAH AVE,60638.0,,,23.0,8.0,56.0,,41.79829483694075,-87.78550266839424,"(41.79829483694075, -87.78550266839423)",2014-05-08
75258,05/06/2014,Completed - Dup,05/15/2014,14-00660433,Abandoned Vehicle Complaint,NONE,Lincoln,Black,FVI - Outcome,Create Work Order,5.0,4851 W 64TH ST,60638.0,1145053.1663256001,1861725.61662379,13.0,8.0,64.0,,41.776455745999506,-87.74426985251725,"(41.776455745999506, -87.74426985251723)",2014-05-06
75259,05/06/2014,Completed - Dup,05/15/2014,14-00661069,Abandoned Vehicle Complaint,,Lincoln,Black,FVI - Outcome,Create Work Order,4.0,4851 W 64TH ST,60638.0,1145053.1663256001,1861725.61662379,13.0,8.0,64.0,,41.776455745999506,-87.74426985251725,"(41.776455745999506, -87.74426985251723)",2014-05-06
75260,05/06/2014,Completed,05/15/2014,14-00660298,Abandoned Vehicle Complaint,55555555555,(Homemade Trailer),Beige,FVI - Outcome,Vehicle was moved from original address requested,120.0,3420 W 61ST ST,60629.0,,,16.0,8.0,66.0,,41.782631126242215,-87.70897327760612,"(41.78263112624222, -87.70897327760613)",2014-05-06
75261,05/06/2014,Completed,05/15/2014,14-00660390,Abandoned Vehicle Complaint,NONE,Lincoln,Black,FVI - Outcome,Vehicle was moved from original address requested,5.0,4851 W 64TH ST,60638.0,,,13.0,8.0,64.0,,41.776455745999506,-87.74426985251725,"(41.776455745999506, -87.74426985251723)",2014-05-06
75262,05/06/2014,Completed,05/15/2014,14-00661254,Abandoned Vehicle Complaint,NO PLATES,Toyota,Red,FVI - Outcome,Vehicle was moved from original address requested,14.0,5216 W 64TH PL,60638.0,,,13.0,8.0,64.0,,41.77525804470545,-87.75253680089891,"(41.775258044705446, -87.7525368008989)",2014-05-06
75263,05/07/2014,Completed - Dup,05/15/2014,14-00667224,Abandoned Vehicle Complaint,,Lincoln,Black,FVI - Outcome,Create Work Order,5.0,4851 W 64TH ST,60638.0,1145053.1663256001,1861725.61662379,13.0,8.0,64.0,,41.776455745999506,-87.74426985251725,"(41.776455745999506, -87.74426985251723)",2014-05-07
75264,05/05/2014,Completed - Dup,05/15/2014,14-00648558,Abandoned Vehicle Complaint,DON'T HAVE,Volvo,Black,FVI - Outcome,Create Work Order,150.0,2837 N HAMLIN AVE,60618.0,1150565.76683167,1918597.91807248,30.0,25.0,21.0,,41.93296392942671,-87.7219637243368,"(41.93296392942671, -87.72196372433679)",2014-05-05
75265,05/05/2014,Completed - Dup,05/15/2014,14-00649150,Abandoned Vehicle Complaint,R137606,Plymouth,Maroon,FVI - Outcome,Create Work Order,35.0,5916 S KEELER AVE,60629.0,1149381.74388586,1865041.98709148,13.0,8.0,65.0,,41.785341372947656,-87.72798178994219,"(41.785341372947656, -87.72798178994219)",2014-05-05
75266,05/02/2014,Completed,05/15/2014,14-00638942,Abandoned Vehicle Complaint,A895566,Chrysler,Red,FVI - Outcome,Vehicle was moved from original address requested,30.0,4106 N LAWLER AVE,60641.0,,,45.0,16.0,15.0,,41.95542894541045,-87.75368240374421,"(41.955428945410446, -87.7536824037442)",2014-05-02
75267,05/04/2014,Completed,05/15/2014,14-00645979,Abandoned Vehicle Complaint,R137606,Plymouth,Purple,FVI - Outcome,Vehicle was moved from original address requested,7.0,5916 S KEELER AVE,60629.0,,,13.0,8.0,65.0,,41.785341372947656,-87.72798178994219,"(41.785341372947656, -87.72798178994219)",2014-05-04
75322,05/15/2014,Completed,05/16/2014,14-00714296,Abandoned Vehicle Complaint,DOESN'T KNOW,Legacy Unknown,Gray,FVI - Outcome,Return to Owner - Vehicle,75.0,5043 S ABERDEEN ST,60609.0,,,16.0,9.0,61.0,,41.80202990343727,-87.65249954995346,"(41.80202990343727, -87.65249954995346)",2014-05-15
75323,05/15/2014,Completed,05/16/2014,14-00715787,Abandoned Vehicle Complaint,FFR6562,Toyota,Black,FVI - Outcome,Vehicle was moved from original address requested,14.0,3601 S SEELEY AVE,60609.0,,,11.0,9.0,59.0,,41.82846472321576,-87.67630470731139,"(41.82846472321576, -87.67630470731139)",2014-05-15
75324,05/15/2014,Completed,05/16/2014,14-00716222,Abandoned Vehicle Complaint,179BMQ,Dodge,Green,FVI - Outcome,Vehicle was moved from original address requested,30.0,3636 W 84TH PL,60652.0,,,18.0,8.0,70.0,,41.73967829086593,-87.71342661552654,"(41.73967829086593, -87.71342661552654)",2014-05-15
75325,05/15/2014,Completed,05/16/2014,14-00716474,Abandoned Vehicle Complaint,R49 8451,Chevrolet,Green,FVI - Outcome,Return to Owner - Vehicle,2.0,1118 S RICHMOND ST,60612.0,,,28.0,11.0,29.0,,41.867672687160095,-87.69974916054106,"(41.86767268716009, -87.69974916054107)",2014-05-15
75326,05/15/2014,Completed,05/16/2014,14-00716762,Abandoned Vehicle Complaint,NONE,Chevrolet,Gray,FVI - Outcome,Need Vehicle Tow Report,,5518 N CAMPBELL AVE,60625.0,,,40.0,20.0,4.0,,41.981950866500256,-87.69197537986904,"(41.981950866500256, -87.69197537986905)",2014-05-15
75327,05/15/2014,Completed,05/16/2014,14-00717302,Abandoned Vehicle Complaint,NO PLATES,Jeep/Cherokee,Black,FVI - Outcome,Return to Owner - Vehicle,21.0,4638 S SHIELDS AVE,60609.0,,,3.0,9.0,37.0,13.0,41.80983663708953,-87.63492325185038,"(41.809836637089525, -87.63492325185038)",2014-05-15
75328,05/15/2014,Completed,05/16/2014,14-00717831,Abandoned Vehicle Complaint,4093057,Ford,White,FVI - Outcome,Vehicle was moved from original address requested,30.0,8110 S ST LAWRENCE AVE,60619.0,,,6.0,6.0,44.0,,41.74716796461879,-87.61011589495523,"(41.74716796461879, -87.61011589495524)",2014-05-15
75329,05/15/2014,Completed,05/16/2014,14-00719797,Abandoned Vehicle Complaint,HFV305,Chrysler,Gray,FVI - Outcome,Vehicle was moved from original address requested,14.0,1926 W BERTEAU AVE,60613.0,,,47.0,19.0,5.0,,41.95793414761419,-87.67753086488182,"(41.95793414761419, -87.67753086488182)",2014-05-15
75330,05/15/2014,Completed,05/16/2014,14-00719954,Abandoned Vehicle Complaint,42693AV,(Unlisted Make),Gold,FVI - Outcome,Vehicle was moved from original address requested,21.0,1216 N MAYFIELD AVE,60651.0,,,29.0,25.0,25.0,,41.9025726706906,-87.7731004713036,"(41.902572670690596, -87.7731004713036)",2014-05-15
75331,05/15/2014,Completed,05/16/2014,14-00721428,Abandoned Vehicle Complaint,992P762,Chrysler,Blue,FVI - Outcome,Vehicle was moved from original address requested,12.0,1253 W 47TH ST,60609.0,,,3.0,9.0,61.0,,41.80859263241939,-87.65733492955452,"(41.80859263241939, -87.65733492955451)",2014-05-15
75332,05/14/2014,Completed,05/16/2014,14-00708347,Abandoned Vehicle Complaint,NO PLATES,Ford,Gold,FVI - Outcome,Vehicle was moved from original address requested,30.0,3342 W IOWA ST,60651.0,,,27.0,11.0,23.0,,41.89745260806056,-87.71060194461509,"(41.897452608060554, -87.7106019446151)",2014-05-14
75333,05/14/2014,Completed,05/16/2014,14-00709024,Abandoned Vehicle Complaint,182089 EN,Mitsubishi,White,FVI - Outcome,Return to Owner - Vehicle,24.0,6019 N ST LOUIS AVE,60659.0,,,50.0,17.0,13.0,,41.99087925153103,-87.71629259223091,"(41.99087925153102, -87.71629259223091)",2014-05-14
75334,05/14/2014,Completed,05/16/2014,14-00710539,Abandoned Vehicle Complaint,NONE,Audi,Gold,FVI - Outcome,Need Vehicle Tow Report,365.0,6431 S ELLIS AVE,60637.0,,,20.0,3.0,42.0,,41.777690605933344,-87.60024640130187,"(41.77769060593334, -87.60024640130187)",2014-05-14
