Creation Date,Status,Completion Date,Service Request Number,Type of Service Request,Location of Trees,Street Address,ZIP Code,X Coordinate,Y Coordinate,Ward,Police District,Community Area,Latitude,Longitude,Location,date
01/01/2011,Completed,03/03/2011,11-00000535,Tree Trim,Vacant Lot,4352 W CARROLL AVE,60624.0,1147306.99082365,1901942.60811419,28.0,11.0,26.0,41.88689279158362,-87.73450660677538,"(41.88689279158362, -87.73450660677537)",2011-01-01
01/02/2011,Completed - Dup,05/14/2012,11-00003745,Tree Trim,Parkway,3100 W 107TH ST,60655.0,1157553.69860786,1833514.70912471,19.0,22.0,74.0,41.698914776486,-87.69873266504874,"(41.698914776486, -87.69873266504874)",2011-01-02
01/02/2011,Completed - Dup,10/19/2012,11-00004295,Tree Trim,Parkway,6819 S KENNETH AVE,60629.0,1147884.067095,1859037.93848822,13.0,8.0,65.0,41.769145308685786,-87.73348751352323,"(41.76914530868579, -87.73348751352323)",2011-01-02
01/02/2011,Completed,01/23/2013,11-00004486,Tree Trim,Parkway,3241 N RUTHERFORD AVE,60634.0,1130850.9248093,1920798.00952551,36.0,16.0,17.0,41.93893365949575,-87.79450377047064,"(41.938933659495746, -87.79450377047064)",2011-01-02
01/02/2011,Completed,03/10/2011,11-00004195,Tree Trim,Parkway,6029 S NATOMA AVE,60638.0,1133104.19446906,1863822.32458836,23.0,8.0,64.0,41.7825446669779,-87.78755342707431,"(41.7825446669779, -87.78755342707431)",2011-01-02
01/02/2011,Completed,08/20/2012,11-00004553,Tree Trim,Parkway,1262 N PAULINA ST,60622.0,1164839.17070053,1908611.61939458,1.0,14.0,24.0,41.90483927731252,-87.66993428217056,"(41.90483927731252, -87.66993428217057)",2011-01-02
01/03/2011,Completed - Dup,01/07/2011,11-00011215,Tree Trim,Parkway,9528 S LAFAYETTE AVE,60628.0,1177594.91641084,1841776.9155671,21.0,5.0,49.0,41.721158755695406,-87.62510235612687,"(41.72115875569541, -87.62510235612687)",2011-01-03
01/03/2011,Completed - Dup,03/14/2011,11-00009553,Tree Trim,Parkway,3333 N NATCHEZ AVE,60634.0,1132457.85232647,1921460.31883125,36.0,16.0,17.0,41.94072324273747,-87.78858231969609,"(41.94072324273747, -87.78858231969608)",2011-01-03
01/03/2011,Completed - Dup,03/14/2011,11-00011959,Tree Trim,Parkway,3347 N NORMANDY AVE,60634.0,1131157.17329662,1921515.78872876,36.0,16.0,17.0,41.94089804048973,-87.79336158983715,"(41.94089804048973, -87.79336158983716)",2011-01-03
01/03/2011,Completed - Dup,04/18/2012,11-00007029,Tree Trim,Parkway,8364 S BALTIMORE AVE,60617.0,1196988.35321497,1850083.56030458,10.0,4.0,46.0,41.743493110060506,-87.55379382251628,"(41.743493110060506, -87.5537938225163)",2011-01-03
01/03/2011,Completed - Dup,05/11/2011,11-00010737,Tree Trim,Parkway,2244 N LAKEWOOD AVE,60614.0,1167276.78792751,1915046.07761147,32.0,18.0,7.0,41.92244374027196,-87.66079488531021,"(41.92244374027196, -87.66079488531021)",2011-01-03
01/03/2011,Completed - Dup,05/18/2011,11-00011228,Tree Trim,Parkway,4939 W AINSLIE ST,60630.0,1142470.21807545,1932125.05940189,45.0,16.0,12.0,41.96980773609129,-87.75151664767509,"(41.96980773609129, -87.7515166476751)",2011-01-03
01/03/2011,Completed,01/03/2011,11-00010382,Tree Trim,,4903 W LEXINGTON ST,60644.0,1143882.25803062,1896171.16413062,24.0,15.0,25.0,41.87112013535404,-87.74722803243947,"(41.87112013535404, -87.74722803243945)",2011-01-03
01/03/2011,Completed,01/03/2011,11-00010628,Tree Trim,,5342 N MCVICKER AVE,60630.0,1134825.89028653,1935143.54502944,45.0,16.0,11.0,41.9782297514797,-87.77955376977755,"(41.9782297514797, -87.77955376977754)",2011-01-03
01/03/2011,Completed,01/05/2012,11-00008237,Tree Trim,Parkway,5456 W FERDINAND ST,60644.0,1139797.86102334,1902618.0799887,37.0,15.0,25.0,41.888886855215674,-87.76206601393636,"(41.88888685521567, -87.76206601393638)",2011-01-03
01/03/2011,Completed,01/09/2012,11-00007941,Tree Trim,Parkway,5805 S MAYFIELD AVE,60638.0,1138042.31027946,1865476.25538002,23.0,8.0,56.0,41.78699591009128,-87.76940868792082,"(41.78699591009128, -87.76940868792082)",2011-01-03
01/03/2011,Completed,03/14/2011,11-00010536,Tree Trim,Parkway,3347 N NORMANDY AVE,60634.0,1131157.17329662,1921515.78872876,36.0,16.0,17.0,41.94089804048973,-87.79336158983715,"(41.94089804048973, -87.79336158983716)",2011-01-03
01/03/2011,Completed,05/14/2012,11-00009844,Tree Trim,Parkway,5008 N CALIFORNIA AVE,60625.0,1156794.68937764,1933175.44502385,40.0,20.0,4.0,41.97241103063321,-87.69881624533963,"(41.97241103063321, -87.69881624533963)",2011-01-03
01/03/2011,Completed,08/21/2012,11-00009575,Tree Trim,Parkway,11006 S HOYNE AVE,60643.0,1164270.68232856,1831729.03926885,19.0,22.0,75.0,41.69387614536828,-87.67418809781302,"(41.69387614536828, -87.67418809781302)",2011-01-03
01/03/2011,Completed,12/05/2011,11-00008475,Tree Trim,Parkway,3510 S MICHIGAN AVE,60653.0,1177769.42372042,1881769.67199851,3.0,2.0,35.0,41.83089913341239,-87.62325364677977,"(41.83089913341239, -87.62325364677976)",2011-01-03
01/03/2011,Completed,12/08/2011,11-00009776,Tree Trim,Parkway,5004 N CALIFORNIA AVE,60625.0,1156795.98937764,1933132.64502385,40.0,20.0,4.0,41.972293558745,-87.6988126306721,"(41.972293558745, -87.6988126306721)",2011-01-03
01/03/2011,Completed,12/19/2012,11-00010298,Tree Trim,,10061 S AVENUE L,60617.0,1201815.39628776,1838906.14226929,10.0,4.0,52.0,41.71270010731993,-87.53648679217069,"(41.71270010731993, -87.53648679217068)",2011-01-03
01/04/2011,Completed - Dup,01/04/2011,11-00017246,Tree Trim,,5259 S NOTTINGHAM AVE,60638.0,1129920.86063259,1868898.22820018,23.0,8.0,56.0,41.796528763665094,-87.79910911727603,"(41.79652876366509, -87.79910911727605)",2011-01-04
01/04/2011,Completed - Dup,01/07/2011,11-00015323,Tree Trim,Parkway,9528 S LAFAYETTE AVE,60628.0,1177594.91641084,1841776.9155671,21.0,5.0,49.0,41.721158755695406,-87.62510235612687,"(41.72115875569541, -87.62510235612687)",2011-01-04
01/04/2011,Completed - Dup,01/13/2011,11-00012416,Tree Trim,Parkway,8750 S MICHIGAN AVE,60619.0,1178670.88288223,1847342.26967088,6.0,6.0,44.0,41.73640643027977,-87.62099263907854,"(41.73640643027977, -87.62099263907854)",2011-01-04
01/04/2011,Completed - Dup,09/12/2011,11-00015171,Tree Trim,Parkway,7137 N ORIOLE AVE,60631.0,1124733.15959889,1946773.64997084,41.0,16.0,9.0,42.01031695825352,-87.81641255599901,"(42.01031695825352, -87.81641255599901)",2011-01-04
01/04/2011,Completed - Dup,09/26/2012,11-00015629,Tree Trim,Parkway,8212 S ELIZABETH ST,60620.0,1169419.77897991,1850325.55701593,21.0,6.0,71.0,41.7447981093536,-87.65479932949263,"(41.7447981093536, -87.65479932949262)",2011-01-04
01/04/2011,Completed - Dup,10/11/2012,11-00014593,Tree Trim,Parkway,5891 N HARLEM AVE,60631.0,1127370.66422262,1938820.0490053,41.0,16.0,10.0,41.988447428991996,-87.80688793246486,"(41.988447428991996, -87.80688793246487)",2011-01-04
01/04/2011,Completed,01/04/2011,11-00017168,Tree Trim,,519 N MAY ST,60642.0,1168727.02650916,1903710.79041448,27.0,13.0,24.0,41.891307690438715,-87.65579526536125,"(41.89130769043872, -87.65579526536125)",2011-01-04
01/04/2011,Completed,01/04/2011,11-00017179,Tree Trim,,4450 S CAMPBELL AVE,60632.0,1160425.52582632,1875417.37847631,12.0,9.0,58.0,41.81384346097632,-87.68706472177651,"(41.81384346097632, -87.6870647217765)",2011-01-04
01/04/2011,Completed,01/04/2011,11-00017181,Tree Trim,,4436 S CAMPBELL AVE,60632.0,1160432.42582632,1875177.27847631,12.0,9.0,58.0,41.81318445468879,-87.68704603544866,"(41.81318445468879, -87.68704603544867)",2011-01-04
01/04/2011,Completed,01/04/2011,11-00017183,Tree Trim,,4920 W POLK ST,60644.0,1143805.13567685,1895847.55677319,24.0,15.0,25.0,41.87023356046956,-87.74751928853014,"(41.87023356046956, -87.74751928853014)",2011-01-04
01/04/2011,Completed,01/04/2011,11-00017185,Tree Trim,,4430 S CAMPBELL AVE,60632.0,1160431.22582632,1875217.27847631,12.0,9.0,58.0,41.81329424437179,-87.68704933367901,"(41.81329424437179, -87.68704933367901)",2011-01-04
01/04/2011,Completed,01/04/2011,11-00017191,Tree Trim,,4924 W POLK ST,60644.0,1143784.03567685,1895847.05677319,24.0,15.0,25.0,41.87023258352363,-87.74759676677297,"(41.87023258352363, -87.74759676677297)",2011-01-04
01/04/2011,Completed,01/04/2011,11-00017193,Tree Trim,,4420 S CAMPBELL AVE,60632.0,1160429.32582632,1875283.97847631,12.0,9.0,58.0,41.813477316579146,-87.68705446302219,"(41.813477316579146, -87.6870544630222)",2011-01-04
01/04/2011,Completed,01/04/2011,11-00017197,Tree Trim,,4410 S CAMPBELL AVE,60632.0,1160427.42582632,1875350.67847631,12.0,9.0,58.0,41.813660388780654,-87.68705959238802,"(41.81366038878066, -87.68705959238802)",2011-01-04
01/04/2011,Completed,01/04/2011,11-00017198,Tree Trim,,4710 S CAMPBELL AVE,60632.0,1160493.05993048,1873333.13318646,12.0,9.0,58.0,41.808122639633694,-87.68687450978564,"(41.808122639633694, -87.68687450978564)",2011-01-04
01/04/2011,Completed,01/04/2011,11-00017199,Tree Trim,,4713 S CAMPBELL AVE,60632.0,1160494.05993048,1873302.93318646,12.0,9.0,58.0,41.80803974640777,-87.68687167519255,"(41.808039746407765, -87.68687167519255)",2011-01-04
01/04/2011,Completed,01/04/2011,11-00017202,Tree Trim,,4505 S LAWLER AVE,60638.0,1143448.82950865,1874296.88197854,23.0,8.0,56.0,41.811102118580315,-87.7493653593851,"(41.81110211858031, -87.7493653593851)",2011-01-04
01/04/2011,Completed,01/04/2011,11-00017204,Tree Trim,,4507 S LAWLER AVE,60638.0,1143449.22950865,1874283.48197854,23.0,8.0,56.0,41.811065339429895,-87.74936422617878,"(41.8110653394299, -87.74936422617878)",2011-01-04
01/04/2011,Completed,01/04/2011,11-00017209,Tree Trim,,4506 S LAWLER AVE,60638.0,1143449.02950865,1874290.18197854,23.0,8.0,56.0,41.81108372900514,-87.74936479278179,"(41.81108372900514, -87.7493647927818)",2011-01-04
01/04/2011,Completed,01/04/2011,11-00017213,Tree Trim,,4516 S LAWLER AVE,60638.0,1143450.82950865,1874222.88197854,23.0,8.0,56.0,41.81089901373268,-87.7493598678353,"(41.81089901373268, -87.7493598678353)",2011-01-04
01/04/2011,Completed,01/04/2011,11-00017215,Tree Trim,,4529 S LAWLER AVE,60638.0,1143453.12950865,1874135.28197854,23.0,8.0,56.0,41.81065858275826,-87.74935361489813,"(41.81065858275826, -87.74935361489813)",2011-01-04
01/04/2011,Completed,01/04/2011,11-00017216,Tree Trim,,4532 S LAWLER AVE,60638.0,1143453.72950865,1874115.18197854,23.0,8.0,56.0,41.810603414028265,-87.74935191510653,"(41.810603414028265, -87.74935191510653)",2011-01-04
01/04/2011,Completed,01/04/2011,11-00017219,Tree Trim,,4543 S LAWLER AVE,60638.0,1143455.62950865,1874041.08197854,23.0,8.0,56.0,41.810400036612,-87.74934679291069,"(41.810400036612, -87.74934679291069)",2011-01-04
01/04/2011,Completed,01/04/2011,11-00017222,Tree Trim,,4547 S LAWLER AVE,60638.0,1143456.32950865,1874014.18197854,23.0,8.0,56.0,41.810326205750975,-87.74934489582239,"(41.81032620575098, -87.74934489582239)",2011-01-04
01/04/2011,Completed,01/04/2011,11-00017223,Tree Trim,,4702 S LEAMINGTON AVE,60638.0,1142815.65858919,1872969.98498375,23.0,8.0,56.0,41.807472686626895,-87.75172075827534,"(41.807472686626895, -87.75172075827534)",2011-01-04
01/04/2011,Completed,01/04/2011,11-00017231,Tree Trim,,4704 S LEAMINGTON AVE,60638.0,1142816.05858919,1872956.58498375,23.0,8.0,56.0,41.80743590746837,-87.75171962376183,"(41.80743590746837, -87.75171962376183)",2011-01-04
01/04/2011,Completed,01/04/2011,11-00017234,Tree Trim,,4735 S LEAMINGTON AVE,60638.0,1142822.25858919,1872748.58498375,23.0,8.0,56.0,41.806865007233036,-87.75170204638425,"(41.806865007233036, -87.75170204638427)",2011-01-04
01/04/2011,Completed,01/04/2011,11-00017237,Tree Trim,,4755 S LEAMINGTON AVE,60638.0,1142826.36287766,1872614.34251664,23.0,8.0,56.0,41.80649654829261,-87.75169032498884,"(41.8064965482926, -87.75169032498884)",2011-01-04
01/04/2011,Completed,01/04/2011,11-00017240,Tree Trim,,5243 S NOTTINGHAM AVE,60638.0,1129919.11131409,1869004.76352642,23.0,8.0,56.0,41.7968211462801,-87.79911310445412,"(41.7968211462801, -87.79911310445411)",2011-01-04
01/04/2011,Completed,01/04/2011,11-00017243,Tree Trim,,5242 S NOTTINGHAM AVE,60638.0,1129918.91131409,1869011.46352642,23.0,8.0,56.0,41.79683953573856,-87.7991136852031,"(41.796839535738556, -87.7991136852031)",2011-01-04
01/04/2011,Completed,01/04/2011,11-00017366,Tree Trim,,5751 S MELVINA AVE,60638.0,1136035.07399446,1865767.75778873,23.0,8.0,56.0,41.78783173679122,-87.77676155303105,"(41.78783173679122, -87.77676155303104)",2011-01-04
01/04/2011,Completed,01/28/2011,11-00014969,Tree Trim,Parkway,5407 W VAN BUREN ST,60644.0,1140474.35819467,1897485.4534749,29.0,15.0,25.0,41.874789889774135,-87.75970760845709,"(41.87478988977413, -87.7597076084571)",2011-01-04
01/04/2011,Completed,01/30/2012,11-00014256,Tree Trim,Parkway,3631 N OTTAWA AVE,60634.0,1124416.61617513,1923210.65332499,36.0,16.0,17.0,41.94566279941712,-87.81809873555244,"(41.945662799417114, -87.81809873555244)",2011-01-04
01/04/2011,Completed,02/28/2011,11-00018585,Tree Trim,Parkway,732 W 50TH ST,60609.0,1172265.14998357,1871715.64011134,3.0,9.0,61.0,41.80343297166868,-87.64374505228892,"(41.80343297166868, -87.6437450522889)",2011-01-04
01/04/2011,Completed,04/10/2012,11-00015658,Tree Trim,,8348 S BRANDON AVE,60617.0,1198935.67501914,1850087.83008347,10.0,4.0,46.0,41.74345619702071,-87.54665873172372,"(41.743456197020706, -87.54665873172372)",2011-01-04
01/04/2011,Completed,04/19/2012,11-00014136,Tree Trim,Parkway,2541 S ELEANOR ST,60608.0,1168415.59542331,1887243.65159821,11.0,9.0,60.0,41.84612728976768,-87.65741518162805,"(41.84612728976768, -87.65741518162807)",2011-01-04
01/04/2011,Completed,04/19/2012,11-00014145,Tree Trim,Parkway,2537 S ELEANOR ST,60608.0,1168434.69542331,1887257.35159821,11.0,9.0,60.0,41.846164471278136,-87.65734469042542,"(41.84616447127813, -87.6573446904254)",2011-01-04
01/04/2011,Completed,05/18/2012,11-00016645,Tree Trim,Parkway,3835 N OKETO AVE,60634.0,1126048.80369464,1924596.86971919,36.0,16.0,17.0,41.94943966355464,-87.81206827309427,"(41.94943966355464, -87.81206827309428)",2011-01-04
01/05/2011,Completed - Dup,01/10/2011,11-00024168,Tree Trim,Parkway,2952 N LEAVITT ST,60618.0,1161173.34218411,1919659.61008729,1.0,19.0,5.0,41.935232738207695,-87.68309223989698,"(41.935232738207695, -87.68309223989698)",2011-01-05
01/05/2011,Completed - Dup,02/01/2012,11-00025509,Tree Trim,Parkway,3411 W 73RD ST,60629.0,1154897.5886267,1856001.10538439,18.0,8.0,66.0,41.760674658255574,-87.70785990648476,"(41.76067465825558, -87.70785990648477)",2011-01-05
01/05/2011,Completed - Dup,03/15/2012,11-00024962,Tree Trim,Parkway,1325 W WAVELAND AVE,60613.0,1166704.41212443,1924687.37746598,44.0,19.0,6.0,41.94891225618685,-87.662620813161,"(41.94891225618685, -87.662620813161)",2011-01-05
01/05/2011,Completed - Dup,06/17/2011,11-00021204,Tree Trim,Parkway,5906 W BRYN MAWR AVE,60646.0,1135817.83907851,1936855.83382918,45.0,16.0,11.0,41.98291076664143,-87.77586482004921,"(41.982910766641425, -87.77586482004922)",2011-01-05
01/05/2011,Completed - Dup,10/14/2011,11-00023811,Tree Trim,Parkway,7315 S HERMITAGE AVE,60636.0,1165947.89529138,1856186.48078545,17.0,7.0,67.0,41.76095573344286,-87.66735459072252,"(41.76095573344286, -87.66735459072251)",2011-01-05
01/05/2011,Completed,01/05/2011,11-00023931,Tree Trim,,129 S CICERO AVE,60644.0,1144408.05250868,1899068.63023418,28.0,11.0,25.0,41.879061271937545,-87.7452247366219,"(41.87906127193755, -87.74522473662192)",2011-01-05
01/05/2011,Completed,01/05/2011,11-00023937,Tree Trim,,5129 W MONROE ST,60644.0,1142028.08888744,1899172.73117348,28.0,15.0,25.0,41.879391357745796,-87.75396107044412,"(41.8793913577458, -87.75396107044412)",2011-01-05
01/05/2011,Completed,01/05/2011,11-00023939,Tree Trim,,5134 W MONROE ST,60644.0,1142007.28888744,1899172.13117348,28.0,15.0,25.0,41.879390096555404,-87.75403746061262,"(41.879390096555404, -87.75403746061262)",2011-01-05
01/05/2011,Completed,01/05/2011,11-00024111,Tree Trim,,2616 W WINNEMAC AVE,60625.0,1158007.14521914,1933443.19991162,40.0,20.0,4.0,41.9731210350004,-87.6943504746599,"(41.97312103500041, -87.69435047465991)",2011-01-05
01/05/2011,Completed,01/05/2011,11-00024118,Tree Trim,,1738 W SUMMERDALE AVE,60640.0,1163794.62597745,1935578.40271785,40.0,20.0,77.0,41.978859684401606,-87.67300813590597,"(41.978859684401606, -87.67300813590597)",2011-01-05
01/05/2011,Completed,01/05/2011,11-00024218,Tree Trim,,5050 W BERWYN AVE,60630.0,1141826.28718799,1935057.06771976,45.0,16.0,12.0,41.97786537747078,-87.75381149851715,"(41.97786537747078, -87.75381149851715)",2011-01-05
01/05/2011,Completed,01/06/2011,11-00020666,Tree Trim,Parkway,5522 S MASSASOIT AVE,,1138973.30001817,1867399.43090609,23.0,8.0,56.0,41.79225663201232,-87.76594856583121,"(41.79225663201232, -87.7659485658312)",2011-01-05
01/05/2011,Completed,01/06/2011,11-00023913,Tree Trim,Parkway,2330 W BARRY AVE,60618.0,1160299.84918713,1920536.47219408,1.0,19.0,5.0,41.937657038400246,-87.68627804210827,"(41.93765703840025, -87.68627804210827)",2011-01-05
01/05/2011,Completed,01/07/2011,11-00023882,Tree Trim,Parkway,2329 W BARRY AVE,60618.0,1160306.14918713,1920536.67219408,1.0,19.0,5.0,41.937657456726434,-87.68625488290634,"(41.937657456726434, -87.68625488290634)",2011-01-05
01/05/2011,Completed,01/07/2011,11-00023944,Tree Trim,Parkway,2225 W OAKDALE AVE,60618.0,1161008.64218411,1919556.61008729,1.0,19.0,5.0,41.93495352601438,-87.68370038762974,"(41.93495352601438, -87.68370038762973)",2011-01-05
01/05/2011,Completed,01/07/2011,11-00024128,Tree Trim,Parkway,2950 N OAKLEY AVE,60618.0,1160511.00230496,1919634.08012547,1.0,19.0,5.0,41.935176441685904,-87.6855270763457,"(41.93517644168591, -87.6855270763457)",2011-01-05
01/05/2011,Completed,01/07/2011,11-00024151,Tree Trim,Parkway,2216 W OAKDALE AVE,60618.0,1161068.84218411,1919558.01008729,1.0,19.0,5.0,41.934956115739666,-87.68347911206756,"(41.93495611573967, -87.68347911206757)",2011-01-05
01/05/2011,Completed,01/07/2011,11-00024185,Tree Trim,Parkway,2932 N DAMEN AVE,60618.0,1162503.84509481,1919600.93069738,1.0,19.0,5.0,41.935043922924855,-87.67820423763365,"(41.93504392292486, -87.67820423763366)",2011-01-05
01/05/2011,Completed,01/10/2011,11-00023929,Tree Trim,Parkway,3010 N OAKLEY AVE,60618.0,1160502.20869543,1919983.42001087,1.0,19.0,5.0,41.936135234824455,-87.6855496924747,"(41.936135234824455, -87.68554969247468)",2011-01-05
01/05/2011,Completed,01/11/2012,11-00022395,Tree Trim,Parkway,3309 N OPAL AVE,60634.0,1123177.51588144,1921012.93870124,36.0,16.0,17.0,41.93965234078916,-87.8227014561854,"(41.93965234078916, -87.82270145618541)",2011-01-05
01/05/2011,Completed,01/11/2012,11-00023721,Tree Trim,Parkway,3311 N OPAL AVE,60634.0,1123177.11588144,1921025.63870124,36.0,16.0,17.0,41.9396871977538,-87.82270264830139,"(41.9396871977538, -87.82270264830139)",2011-01-05
01/05/2011,Completed,01/12/2011,11-00020441,Tree Trim,Parkway,4048 W 81ST ST,60652.0,1150733.21989213,1850536.15231288,13.0,8.0,70.0,41.745759970562474,-87.72326472016539,"(41.745759970562474, -87.72326472016539)",2011-01-05
01/05/2011,Completed,01/27/2011,11-00024632,Tree Trim,Parkway,11312 S NORMAL AVE,60628.0,1174985.96041312,1829886.83980308,34.0,22.0,49.0,41.688589158654,-87.63501154244585,"(41.688589158654004, -87.63501154244585)",2011-01-05
01/05/2011,Completed,02/28/2011,11-00023938,Tree Trim,Parkway,2962 N OAKLEY AVE,60618.0,1160509.50230496,1919693.48012547,1.0,19.0,5.0,41.935339470167214,-87.68553093940595,"(41.93533947016721, -87.68553093940595)",2011-01-05
01/05/2011,Completed,03/11/2011,11-00021339,Tree Trim,,1600 S CARPENTER ST,60608.0,1169460.87009595,1892238.85638449,25.0,12.0,31.0,41.85981191837686,-87.65343395915329,"(41.85981191837686, -87.6534339591533)",2011-01-05
01/05/2011,Completed,04/19/2012,11-00021146,Tree Trim,Parkway,2531 S ELEANOR ST,60608.0,1168463.39542331,1887277.85159821,11.0,9.0,60.0,41.8462201051764,-87.65723877141727,"(41.8462201051764, -87.65723877141727)",2011-01-05
01/05/2011,Completed,05/02/2011,11-00021392,Tree Trim,,1604 S CARPENTER ST,60608.0,1169461.27009595,1892225.45638449,25.0,12.0,31.0,41.85977513898644,-87.65343288038923,"(41.85977513898644, -87.65343288038923)",2011-01-05
01/05/2011,Completed,05/02/2011,11-00021415,Tree Trim,,1612 S CARPENTER ST,60608.0,1169461.97009595,1892198.65638449,25.0,12.0,31.0,41.85970158237792,-87.65343108993315,"(41.85970158237792, -87.65343108993314)",2011-01-05
01/05/2011,Completed,12/01/2011,11-00021432,Tree Trim,,1622 S CARPENTER ST,60608.0,1169462.87009595,1892165.15638449,25.0,12.0,31.0,41.85960963607271,-87.65342876010004,"(41.859609636072705, -87.65342876010004)",2011-01-05
01/06/2011,Completed - Dup,01/06/2011,11-00030033,Tree Trim,,2906 N RIDGEWAY AVE,60618.0,1150839.55103148,1919072.38279703,30.0,25.0,21.0,41.933830132594096,-87.72108496757632,"(41.93383013259409, -87.72108496757632)",2011-01-06
01/06/2011,Completed - Dup,01/20/2012,11-00030198,Tree Trim,,5658 S DR MARTIN LUTHER KING JR DR,60637.0,1179889.77089452,1867585.99013096,20.0,2.0,40.0,41.79192957439413,-87.6159084981299,"(41.79192957439413, -87.6159084981299)",2011-01-06
01/06/2011,Completed - Dup,08/19/2011,11-00029259,Tree Trim,Parkway,10420 S GREEN BAY AVE,60617.0,1200512.79600951,1836464.22977759,10.0,4.0,52.0,41.70603227328717,-87.54133945819322,"(41.706032273287164, -87.54133945819322)",2011-01-06
01/06/2011,Completed - Dup,08/21/2012,11-00029819,Tree Trim,Parkway,11006 S HOYNE AVE,60643.0,1164270.68232856,1831729.03926885,19.0,22.0,75.0,41.69387614536828,-87.67418809781302,"(41.69387614536828, -87.67418809781302)",2011-01-06
01/06/2011,Completed - Dup,09/24/2012,11-00029904,Tree Trim,Parkway,2416 N SPRINGFIELD AVE,60647.0,1149978.46088699,1915779.88698485,30.0,25.0,22.0,41.92481206856617,-87.72433540709714,"(41.92481206856617, -87.72433540709716)",2011-01-06
01/06/2011,Completed - Dup,11/18/2011,11-00028174,Tree Trim,Parkway,1915 W HENDERSON ST,60657.0,1162982.01291044,1922259.63012007,32.0,19.0,5.0,41.942329505470546,-87.67637207934229,"(41.94232950547055, -87.6763720793423)",2011-01-06
01/06/2011,Completed - Dup,12/04/2012,11-00027628,Tree Trim,Parkway,5044 N ALBANY AVE,60625.0,1154796.81270419,1933346.60210534,33.0,17.0,14.0,41.972921065207856,-87.70615821607193,"(41.97292106520786, -87.70615821607193)",2011-01-06
01/06/2011,Completed,01/04/2012,11-00029954,Tree Trim,Parkway,3859 N OCTAVIA AVE,60634.0,1126722.43363196,1924780.72092543,38.0,16.0,17.0,41.949932903827694,-87.80958791918648,"(41.949932903827694, -87.80958791918647)",2011-01-06
01/06/2011,Completed,01/06/2011,11-00029854,Tree Trim,,5126 W VAN BUREN ST,60644.0,1142097.95869818,1897523.02126769,28.0,15.0,25.0,41.87486305039128,-87.75374542186512,"(41.874863050391276, -87.75374542186512)",2011-01-06
01/06/2011,Completed,01/06/2011,11-00029898,Tree Trim,,2321 W BARRY AVE,60618.0,1160356.84918713,1920537.87219408,1.0,19.0,5.0,41.937659699327,-87.68606851782656,"(41.937659699327, -87.68606851782656)",2011-01-06
01/06/2011,Completed,01/06/2011,11-00029903,Tree Trim,,2317 W BARRY AVE,60618.0,1160382.24918713,1920538.47219408,1.0,19.0,5.0,41.93766081947775,-87.68597515152405,"(41.93766081947775, -87.68597515152405)",2011-01-06
01/06/2011,Completed,01/06/2011,11-00029975,Tree Trim,,3347 N KOLMAR AVE,60641.0,1145455.02998713,1921871.04996655,30.0,17.0,16.0,41.941613741609856,-87.74080198169789,"(41.94161374160986, -87.74080198169789)",2011-01-06
01/06/2011,Completed,01/06/2011,11-00029979,Tree Trim,,3355 N KOLMAR AVE,60641.0,1145453.32978393,1921924.55588439,30.0,17.0,16.0,41.941760598873344,-87.74080687135356,"(41.94176059887334, -87.74080687135354)",2011-01-06
01/06/2011,Completed,01/06/2011,11-00029991,Tree Trim,,3341 N KOLMAR AVE,60641.0,1145456.22998713,1921830.84996655,30.0,17.0,16.0,41.941503406457855,-87.74079859247927,"(41.941503406457855, -87.74079859247927)",2011-01-06
01/06/2011,Completed,01/06/2011,11-00029997,Tree Trim,,3358 N KOLMAR AVE,60641.0,1145452.72978393,1921944.65588439,30.0,17.0,16.0,41.941815766447114,-87.74080856597305,"(41.941815766447114, -87.74080856597305)",2011-01-06
01/06/2011,Completed,01/06/2011,11-00029998,Tree Trim,,3301 N KOLMAR AVE,60641.0,1145464.32998713,1921563.14996655,30.0,17.0,16.0,41.940768660053145,-87.74077562276949,"(41.940768660053145, -87.74077562276949)",2011-01-06
01/06/2011,Completed,01/06/2011,11-00030003,Tree Trim,,3300 N KOLMAR AVE,60641.0,1145464.52998713,1921556.44996655,30.0,17.0,16.0,41.940750270858565,-87.7407750579113,"(41.94075027085856, -87.74077505791129)",2011-01-06
01/06/2011,Completed,01/06/2011,11-00030004,Tree Trim,,3326 N KOLMAR AVE,60641.0,1145459.22998713,1921730.44996655,30.0,17.0,16.0,41.941227842977426,-87.74079011693372,"(41.94122784297742, -87.74079011693372)",2011-01-06
01/06/2011,Completed,01/06/2011,11-00030007,Tree Trim,,3325 N KOLMAR AVE,60641.0,1145459.42998713,1921723.74996655,30.0,17.0,16.0,41.94120945378432,-87.74078955206882,"(41.94120945378432, -87.74078955206883)",2011-01-06
01/06/2011,Completed,01/06/2011,11-00030013,Tree Trim,,3329 N KOLMAR AVE,60641.0,1145458.62998713,1921750.54996655,30.0,17.0,16.0,41.94128301055636,-87.74079181152996,"(41.94128301055636, -87.74079181152996)",2011-01-06
01/06/2011,Completed,01/06/2011,11-00030019,Tree Trim,,3339 N KOLMAR AVE,60641.0,1145456.62998713,1921817.44996655,30.0,17.0,16.0,41.941466628073385,-87.74079746274185,"(41.941466628073385, -87.74079746274185)",2011-01-06
01/06/2011,Completed,01/06/2011,11-00030023,Tree Trim,,3339 N KOLMAR AVE,60641.0,1145456.62998713,1921817.44996655,30.0,17.0,16.0,41.941466628073385,-87.74079746274185,"(41.941466628073385, -87.74079746274185)",2011-01-06
01/06/2011,Completed,01/06/2011,11-00030028,Tree Trim,,3342 N KOLMAR AVE,60641.0,1145456.02998713,1921837.54996655,30.0,17.0,16.0,41.94152179565,-87.74079915734836,"(41.941521795650004, -87.74079915734838)",2011-01-06
01/06/2011,Completed,01/06/2011,11-00030029,Tree Trim,,2905 N RIDGEWAY AVE,60618.0,1150833.15103148,1919063.88279703,30.0,25.0,21.0,41.933806933301184,-87.72110871056553,"(41.93380693330118, -87.72110871056553)",2011-01-06
01/06/2011,Completed,01/06/2011,11-00030038,Tree Trim,,3744 N RIDGEWAY AVE,60618.0,1150728.31558568,1924811.12432995,39.0,17.0,16.0,41.94957987445371,-87.72134318921837,"(41.94957987445371, -87.72134318921836)",2011-01-06
01/06/2011,Completed,01/06/2011,11-00030041,Tree Trim,,2912 N RIDGEWAY AVE,60618.0,1150878.05103148,1919123.68279703,30.0,25.0,21.0,41.9339701495089,-87.72094213390409,"(41.933970149508895, -87.7209421339041)",2011-01-06
01/06/2011,Completed,01/06/2011,11-00030042,Tree Trim,,2914 N RIDGEWAY AVE,60618.0,1150890.85103148,1919140.78279703,30.0,25.0,21.0,41.934016822426095,-87.7208946450408,"(41.934016822426095, -87.7208946450408)",2011-01-06
01/06/2011,Completed,01/07/2011,11-00027604,Tree Trim,Parkway,1801 N NEWLAND AVE,60707.0,1129806.17780044,1911208.64469164,36.0,25.0,25.0,41.91263720804977,-87.7985633612227,"(41.912637208049766, -87.7985633612227)",2011-01-06
01/06/2011,Completed,01/12/2011,11-00030531,Tree Trim,Parkway,10743 S WABASH AVE,60628.0,1178479.82988595,1833745.26380543,9.0,5.0,49.0,41.69909879319452,-87.62210410566166,"(41.699098793194516, -87.62210410566166)",2011-01-06
01/06/2011,Completed,02/01/2012,11-00028812,Tree Trim,Parkway,1007 N KEELER AVE,60651.0,1148197.42987617,1906415.76128619,37.0,11.0,23.0,41.899150508152935,-87.73112135037037,"(41.89915050815294, -87.73112135037037)",2011-01-06
01/06/2011,Completed,03/03/2011,11-00029527,Tree Trim,Parkway,5812 S MEADE AVE,60638.0,1136713.93449206,1865384.85922916,23.0,8.0,56.0,41.786768908136295,-87.7742815220801,"(41.7867689081363, -87.77428152208009)",2011-01-06
01/06/2011,Completed,03/03/2011,11-00030877,Tree Trim,Parkway,5133 S NEW ENGLAND AVE,60638.0,1131254.45989169,1869757.87458033,23.0,8.0,56.0,41.79886494425514,-87.79419879488067,"(41.79886494425515, -87.79419879488067)",2011-01-06
01/06/2011,Completed,03/14/2011,11-00029654,Tree Trim,Parkway,6721 N TALMAN AVE,60645.0,1157439.59129497,1944499.40970449,50.0,24.0,2.0,42.003471358150065,-87.69613501105434,"(42.00347135815006, -87.69613501105435)",2011-01-06
01/06/2011,Completed,03/27/2013,11-00027835,Tree Trim,Parkway,5461 N MARMORA AVE,60630.0,1135878.70159732,1935937.20309135,45.0,16.0,11.0,41.98038887688281,-87.77566297394434,"(41.98038887688281, -87.77566297394435)",2011-01-06
01/06/2011,Completed,03/29/2012,11-00029269,Tree Trim,Parkway,1701 W CHICAGO AVE,60622.0,1164909.70026596,1905402.82269357,1.0,13.0,24.0,41.89603261225921,-87.66976637635814,"(41.89603261225921, -87.66976637635814)",2011-01-06
01/06/2011,Completed,04/13/2012,11-00030788,Tree Trim,Alley,9421 S VERNON AVE,60619.0,1180900.19127903,1842603.05877698,9.0,6.0,49.0,41.72335054036082,-87.6129705814162,"(41.72335054036082, -87.6129705814162)",2011-01-06
01/06/2011,Completed,05/31/2012,11-00029367,Tree Trim,Parkway,10525 S LONGWOOD DR,60643.0,1165114.74257969,1834751.08007466,19.0,22.0,72.0,41.702151370905966,-87.67101268720711,"(41.702151370905966, -87.67101268720711)",2011-01-06
01/06/2011,Completed,12/31/2012,11-00030092,Tree Trim,Parkway,4335 W CRYSTAL ST,60651.0,1147245.70951211,1907973.78227282,37.0,25.0,23.0,41.903444161089695,-87.73457708561916,"(41.903444161089695, -87.73457708561915)",2011-01-06
01/07/2011,Completed - Dup,10/24/2011,11-00037179,Tree Trim,Parkway,2749 S CENTRAL PARK AVE,60623.0,1152814.41058354,1885492.78883429,22.0,10.0,30.0,41.84164538361833,-87.71471702081217,"(41.84164538361833, -87.71471702081217)",2011-01-07
01/07/2011,Completed - Dup,11/07/2011,11-00032042,Tree Trim,,2539 S LAWNDALE AVE,60623.0,1152110.99187177,1886880.28357659,22.0,10.0,30.0,41.84546671575393,-87.71726183632809,"(41.84546671575393, -87.71726183632809)",2011-01-07
01/07/2011,Completed - Dup,11/07/2011,11-00032144,Tree Trim,,2539 S LAWNDALE AVE,60623.0,1152110.99187177,1886880.28357659,22.0,10.0,30.0,41.84546671575393,-87.71726183632809,"(41.84546671575393, -87.71726183632809)",2011-01-07
01/07/2011,Completed - Dup,11/23/2012,11-00037490,Tree Trim,,9412 S PERRY AVE,60620.0,1177266.85690851,1842554.09170321,21.0,6.0,49.0,41.72329882942574,-87.6262805844932,"(41.723298829425744, -87.6262805844932)",2011-01-07
01/07/2011,Completed - Dup,11/26/2012,11-00032604,Tree Trim,Parkway,4649 W GRACE ST,60641.0,1144660.84998342,1924857.0499996003,38.0,17.0,15.0,41.94982261758307,-87.74364544649335,"(41.949822617583074, -87.74364544649335)",2011-01-07
01/07/2011,Completed,01/07/2011,11-00036407,Tree Trim,,4300 S HALSTED ST,60609.0,1171687.6396796003,1876357.63000236,11.0,9.0,61.0,41.816183758268,-87.64572684373293,"(41.81618375826799, -87.64572684373292)",2011-01-07
01/07/2011,Completed,01/07/2011,11-00036408,Tree Trim,,4310 S HALSTED ST,60609.0,1171690.3396796002,1876255.93000236,11.0,9.0,61.0,41.815904624161504,-87.64571992479651,"(41.815904624161504, -87.6457199247965)",2011-01-07
01/07/2011,Completed,01/07/2011,11-00036412,Tree Trim,,4320 S HALSTED ST,60609.0,1171693.1396796003,1876154.33000236,11.0,9.0,61.0,41.81562576225557,-87.64571263615184,"(41.815625762255564, -87.64571263615184)",2011-01-07
01/07/2011,Completed,01/07/2011,11-00036413,Tree Trim,,4340 S HALSTED ST,60609.0,1171698.61067686,1875951.04003011,11.0,9.0,61.0,41.81506779434323,-87.64569853484413,"(41.81506779434323, -87.64569853484414)",2011-01-07
01/07/2011,Completed,01/07/2011,11-00036414,Tree Trim,,4430 S HALSTED ST,60609.0,1171714.13693337,1875353.1518264,11.0,9.0,61.0,41.81342678877056,-87.6456591328838,"(41.81342678877056, -87.6456591328838)",2011-01-07
01/07/2011,Completed,01/07/2011,11-00036418,Tree Trim,,4450 S HALSTED ST,60609.0,1171716.83693337,1875254.5518264,11.0,9.0,61.0,41.81315616124053,-87.64565212338366,"(41.813156161240535, -87.64565212338366)",2011-01-07
01/07/2011,Completed,01/07/2011,11-00036464,Tree Trim,,2925 N DAMEN AVE,60618.0,1162505.94509481,1919527.23069738,32.0,19.0,5.0,41.934841641684216,-87.67819858982556,"(41.93484164168422, -87.67819858982554)",2011-01-07
01/07/2011,Completed,01/07/2011,11-00036465,Tree Trim,,2224 W ERIE ST,60612.0,1161460.83781057,1904304.07179208,1.0,13.0,24.0,41.89309004775947,-87.68246393857376,"(41.89309004775947, -87.68246393857376)",2011-01-07
01/07/2011,Completed,01/07/2011,11-00036487,Tree Trim,,9526 S LAFAYETTE AVE,60628.0,1177596.21641084,1841790.1155671002,21.0,5.0,49.0,41.721194948888986,-87.62509719676638,"(41.721194948888986, -87.62509719676638)",2011-01-07
01/07/2011,Completed,01/07/2011,11-00036490,Tree Trim,,9520 S LAFAYETTE AVE,60628.0,1177600.01641084,1841829.5155671001,21.0,5.0,49.0,41.72130298189789,-87.62508209095347,"(41.72130298189789, -87.62508209095347)",2011-01-07
01/07/2011,Completed,01/07/2011,11-00036491,Tree Trim,,9532 S LAFAYETTE AVE,60628.0,1177592.31641084,1841750.7155671,21.0,5.0,49.0,41.721086918133174,-87.62511266880325,"(41.72108691813317, -87.62511266880325)",2011-01-07
01/07/2011,Completed,01/07/2011,11-00036569,Tree Trim,,401 E 85TH ST,60619.0,1180408.79292047,1848723.09559043,6.0,6.0,44.0,41.74015592943588,-87.61458332301765,"(41.74015592943588, -87.61458332301765)",2011-01-07
01/07/2011,Completed,01/07/2011,11-00036571,Tree Trim,,8549 S VERNON AVE,60619.0,1180848.35861934,1848407.21852852,6.0,6.0,44.0,41.739279040545675,-87.6129825100453,"(41.739279040545675, -87.6129825100453)",2011-01-07
01/07/2011,Completed,01/07/2011,11-00036573,Tree Trim,,8541 S VERNON AVE,60619.0,1180846.75861934,1848460.91852852,6.0,6.0,44.0,41.73942643632442,-87.61298672526685,"(41.73942643632442, -87.61298672526686)",2011-01-07
01/07/2011,Completed,01/07/2011,11-00036575,Tree Trim,,8510 S VERNON AVE,60619.0,1180840.55861934,1848669.11852852,6.0,6.0,44.0,41.73999790364455,-87.6130030559376,"(41.73999790364455, -87.6130030559376)",2011-01-07
01/07/2011,Completed,01/07/2011,11-00036684,Tree Trim,,5240 W FOSTER AVE,60630.0,1140368.43012455,1934077.27627922,45.0,16.0,11.0,41.97520368908711,-87.7591969804185,"(41.97520368908711, -87.7591969804185)",2011-01-07
01/07/2011,Completed,01/07/2011,11-00036745,Tree Trim,,5802 N WASHTENAW AVE,60659.0,1157291.02486573,1938425.78441135,40.0,20.0,2.0,41.98680811440443,-87.69684766775173,"(41.98680811440444, -87.69684766775173)",2011-01-07
01/07/2011,Completed,01/13/2011,11-00037203,Tree Trim,Parkway,6733 S THROOP ST,60636.0,1168818.13807166,1860121.09222798,17.0,7.0,67.0,41.77169135418517,-87.65672153110269,"(41.77169135418517, -87.6567215311027)",2011-01-07
01/07/2011,Completed,01/13/2011,11-00037636,Tree Trim,Parkway,5254 N LIND AVE,60630.0,1139506.20189904,1934708.92810286,45.0,16.0,11.0,41.97695280776926,-87.76235224946255,"(41.97695280776926, -87.76235224946255)",2011-01-07
01/07/2011,Completed,02/06/2013,11-00034409,Tree Trim,Parkway,7927 S PAXTON AVE,60617.0,1192241.12120192,1852839.7324678001,7.0,4.0,46.0,41.75117297809515,-87.57109819753164,"(41.75117297809515, -87.57109819753164)",2011-01-07
01/07/2011,Completed,04/24/2012,11-00033975,Tree Trim,Parkway,9530 S YALE AVE,60628.0,1176292.10881005,1841741.55427929,21.0,5.0,49.0,41.72109103162383,-87.62987530864685,"(41.72109103162383, -87.62987530864686)",2011-01-07
01/07/2011,Completed,07/10/2012,11-00037164,Tree Trim,Parkway,2701 S ST LOUIS AVE,60623.0,1153470.16701378,1885834.03399949,22.0,10.0,30.0,41.84256881602634,-87.71230153456825,"(41.84256881602634, -87.71230153456825)",2011-01-07
01/07/2011,Completed,10/28/2011,11-00037580,Tree Trim,Parkway,3337 W CRYSTAL ST,60651.0,1153887.90821723,1908121.86040924,26.0,14.0,23.0,41.90372069021811,-87.71017472942852,"(41.90372069021811, -87.71017472942852)",2011-01-07
01/07/2011,Completed,11/29/2011,11-00036528,Tree Trim,Alley,4244 W MADISON ST,60624.0,1148097.10237875,1899674.91171817,28.0,11.0,26.0,41.88065481094296,-87.7316634620949,"(41.88065481094296, -87.73166346209489)",2011-01-07
01/07/2011,Completed,12/07/2011,11-00036636,Tree Trim,Parkway,2303 W ADAMS ST,60612.0,1161089.19292452,1899029.16841099,2.0,12.0,28.0,41.87862298502552,-87.68397544605861,"(41.87862298502552, -87.68397544605861)",2011-01-07
01/09/2011,Completed - Dup,06/30/2011,11-00040432,Tree Trim,,2929 S CANAL ST,60616.0,1173765.62008308,1885514.70788968,11.0,9.0,60.0,41.84126570387137,-87.6378324670158,"(41.84126570387137, -87.6378324670158)",2011-01-09
01/09/2011,Completed - Dup,09/11/2012,11-00040036,Tree Trim,Parkway,4455 N KENTON AVE,60630.0,1144909.50966876,1929281.2140066002,45.0,17.0,16.0,41.96195819413581,-87.7426192927817,"(41.96195819413581, -87.74261929278171)",2011-01-09
01/09/2011,Completed,01/18/2011,11-00040035,Tree Trim,Parkway,2628 W 57TH ST,60629.0,1159711.25993327,1866764.1944080002,16.0,8.0,63.0,41.79011271100881,-87.68992231572464,"(41.79011271100881, -87.68992231572464)",2011-01-09
01/09/2011,Completed,03/14/2011,11-00040340,Tree Trim,Parkway,6416 W DEVON AVE,60631.0,1132513.67887587,1942096.99757436,41.0,16.0,10.0,41.99735135212222,-87.7878942584887,"(41.99735135212223, -87.7878942584887)",2011-01-09
01/09/2011,Completed,08/20/2012,11-00040024,Tree Trim,,8748 S BALTIMORE AVE,60617.0,1198412.0600666,1847559.13569962,10.0,4.0,46.0,41.73653038932726,-87.54866172497834,"(41.73653038932726, -87.54866172497836)",2011-01-09
01/09/2011,Completed,11/03/2011,11-00039629,Tree Trim,Parkway,11741 S ASHLAND AVE,60643.0,1167788.38043009,1826855.93002951,34.0,5.0,53.0,41.68042891744242,-87.66144805318977,"(41.68042891744242, -87.66144805318976)",2011-01-09
01/09/2011,Completed,12/21/2011,11-00040321,Tree Trim,Parkway,118 N LARAMIE AVE,60644.0,1141692.37382762,1900486.36010628,28.0,15.0,25.0,41.88300233249529,-87.75516128387981,"(41.88300233249529, -87.75516128387981)",2011-01-09
01/10/2011,Completed - Dup,03/30/2011,11-00044232,Tree Trim,,4 E HURON ST,60611.0,1176273.98283414,1905072.64416557,42.0,18.0,8.0,41.89487781463719,-87.62803805383854,"(41.894877814637184, -87.62803805383855)",2011-01-10
01/10/2011,Completed - Dup,06/07/2011,11-00043021,Tree Trim,,3012 S AVERS AVE,60623.0,1151183.30506877,1884357.65158389,22.0,10.0,30.0,41.838562504519075,-87.72073241117364,"(41.838562504519075, -87.72073241117364)",2011-01-10
01/10/2011,Completed - Dup,09/18/2012,11-00045103,Tree Trim,Parkway,8633 S PRAIRIE AVE,60619.0,1179540.67266685,1847810.64870228,6.0,6.0,44.0,41.73767191890345,-87.61779177918831,"(41.73767191890345, -87.61779177918832)",2011-01-10
01/10/2011,Completed - Dup,11/01/2011,11-00047265,Tree Trim,Parkway,3309 S LITUANICA AVE,60608.0,1170845.07912937,1883041.06727863,11.0,9.0,60.0,41.834542209742686,-87.64862213894672,"(41.834542209742686, -87.64862213894672)",2011-01-10
01/10/2011,Completed - Dup,11/26/2012,11-00045728,Tree Trim,Parkway,9704 S DOBSON AVE,60628.0,1184919.89947981,1840870.37051899,8.0,5.0,50.0,41.718502595873396,-87.59830105696737,"(41.7185025958734, -87.59830105696737)",2011-01-10
01/10/2011,Completed,01/10/2011,11-00046077,Tree Trim,,8058 S WOOD ST,60620.0,1165749.79609731,1851247.29029677,18.0,6.0,71.0,41.747406105221614,-87.66822058486437,"(41.747406105221614, -87.66822058486436)",2011-01-10
01/10/2011,Completed,01/10/2011,11-00046081,Tree Trim,,8059 S WOLCOTT AVE,60620.0,1165089.48082903,1851224.0825973,18.0,6.0,71.0,41.74735640081243,-87.67064083340469,"(41.74735640081243, -87.6706408334047)",2011-01-10
01/10/2011,Completed,01/10/2011,11-00046083,Tree Trim,,8101 S WOLCOTT AVE,60620.0,1165096.48082903,1850949.1825973,18.0,6.0,71.0,41.74660188721536,-87.67062294145686,"(41.746601887215355, -87.67062294145686)",2011-01-10
01/10/2011,Completed,01/10/2011,11-00046085,Tree Trim,,8100 S WOLCOTT AVE,60620.0,1165096.28082903,1850955.8825973,18.0,6.0,71.0,41.746620277219684,-87.67062348522639,"(41.74662027721969, -87.67062348522639)",2011-01-10
01/10/2011,Completed,01/10/2011,11-00046087,Tree Trim,,8055 S WINCHESTER AVE,60620.0,1164758.6507887,1851242.09803291,18.0,6.0,71.0,41.74741282331326,-87.67185258605726,"(41.74741282331326, -87.67185258605726)",2011-01-10
01/10/2011,Completed,01/10/2011,11-00046090,Tree Trim,,8056 S WINCHESTER AVE,60620.0,1164758.8507887,1851235.39803291,18.0,6.0,71.0,41.74739443331468,-87.67185204193309,"(41.747394433314675, -87.6718520419331)",2011-01-10
01/10/2011,Completed,01/10/2011,11-00046092,Tree Trim,,8056 S WINCHESTER AVE,60620.0,1164758.8507887,1851235.39803291,18.0,6.0,71.0,41.74739443331468,-87.67185204193309,"(41.747394433314675, -87.6718520419331)",2011-01-10
01/10/2011,Completed,01/10/2011,11-00046095,Tree Trim,,8059 S DAMEN AVE,60620.0,1164430.92419459,1851134.38007082,18.0,6.0,71.0,41.7471241367852,-87.67305650442455,"(41.747124136785196, -87.67305650442454)",2011-01-10
01/10/2011,Completed,01/10/2011,11-00046100,Tree Trim,,8101 S DAMEN AVE,60620.0,1164435.77757107,1850932.30993433,18.0,6.0,71.0,41.74656952440441,-87.67304440214834,"(41.74656952440441, -87.67304440214835)",2011-01-10
01/10/2011,Completed,01/10/2011,11-00046145,Tree Trim,,8516 S CALUMET AVE,60619.0,1179959.47176754,1848603.43698706,6.0,6.0,44.0,41.73983785831885,-87.6162332199487,"(41.73983785831885, -87.61623321994868)",2011-01-10
01/10/2011,Completed,01/10/2011,11-00046150,Tree Trim,,8322 S RHODES AVE,60619.0,1181244.68998053,1849933.53010613,6.0,6.0,44.0,41.743458300948795,-87.61148352594685,"(41.7434583009488, -87.61148352594685)",2011-01-10
01/10/2011,Completed,01/10/2011,11-00046154,Tree Trim,,8441 S ST LAWRENCE AVE,60619.0,1181713.46127485,1849085.78996597,6.0,6.0,44.0,41.74112120293621,-87.60979205059506,"(41.74112120293621, -87.60979205059506)",2011-01-10
01/10/2011,Completed,01/10/2011,11-00046288,Tree Trim,,3258 N LAKEWOOD AVE,60657.0,1167051.10350284,1921826.83361004,44.0,19.0,6.0,41.94105534157008,-87.66142886509917,"(41.94105534157008, -87.66142886509915)",2011-01-10
01/10/2011,Completed,01/13/2011,11-00045057,Tree Trim,Parkway,8009 S STEWART AVE,60620.0,1175016.03101426,1851826.56167398,17.0,6.0,44.0,41.748794129574854,-87.63424925344282,"(41.74879412957485, -87.63424925344282)",2011-01-10
01/10/2011,Completed,01/27/2011,11-00046523,Tree Trim,Parkway,8209 S DREXEL AVE,60619.0,1183662.52208117,1850755.68836919,8.0,6.0,44.0,41.74565839322639,-87.60259894584415,"(41.745658393226385, -87.60259894584415)",2011-01-10
01/10/2011,Completed,02/06/2013,11-00042883,Tree Trim,Parkway,1736 N HOYNE AVE,60647.0,1162079.83859923,1911655.5200081002,32.0,14.0,24.0,41.913250073133256,-87.67998495279127,"(41.913250073133256, -87.67998495279127)",2011-01-10
01/10/2011,Completed,02/17/2012,11-00045106,Tree Trim,,5827 S CLAREMONT AVE,60636.0,1161752.06581369,1865859.59842232,16.0,8.0,63.0,41.78758822529403,-87.68246431676769,"(41.78758822529403, -87.68246431676769)",2011-01-10
01/10/2011,Completed,02/17/2012,11-00045244,Tree Trim,Parkway,5821 S CLAREMONT AVE,60636.0,1161750.44187234,1865921.89077139,16.0,8.0,63.0,41.787759197502005,-87.68246854207969,"(41.787759197502005, -87.6824685420797)",2011-01-10
01/10/2011,Completed,03/03/2011,11-00044949,Tree Trim,Parkway,5211 S KOLIN AVE,60632.0,1148247.07181293,1869662.98377503,23.0,8.0,57.0,41.79829518435297,-87.73188446385792,"(41.79829518435297, -87.73188446385792)",2011-01-10
01/10/2011,Completed,03/03/2011,11-00046248,Tree Trim,Parkway,3264 S BELL AVE,60608.0,1161805.779091,1883230.95202487,12.0,9.0,59.0,41.835256207118725,-87.68178447087574,"(41.835256207118725, -87.68178447087574)",2011-01-10
01/10/2011,Completed,03/22/2011,11-00046245,Tree Trim,Parkway,3262 S BELL AVE,60608.0,1161846.079091,1883004.15202487,12.0,9.0,59.0,41.83463300414343,-87.68164291113929,"(41.83463300414342, -87.68164291113929)",2011-01-10
01/10/2011,Completed,12/12/2012,11-00042948,Tree Trim,,3021 S AVERS AVE,60623.0,1151184.90506877,1884296.65158389,22.0,10.0,30.0,41.838395081359394,-87.7207281363986,"(41.838395081359394, -87.7207281363986)",2011-01-10
01/11/2011,Completed - Dup,02/01/2012,11-00050039,Tree Trim,Parkway,5321 S KOSTNER AVE,60632.0,1147934.17479881,1868908.64471555,23.0,8.0,62.0,41.79623116331504,-87.73305125064266,"(41.79623116331504, -87.73305125064266)",2011-01-11
01/11/2011,Completed - Dup,04/01/2011,11-00051777,Tree Trim,Parkway,5025 W ROSCOE ST,60641.0,1142265.48681485,1922137.69891407,38.0,16.0,15.0,41.94240535242424,-87.75251835992428,"(41.94240535242424, -87.75251835992428)",2011-01-11
01/11/2011,Completed - Dup,04/19/2012,11-00051453,Tree Trim,Parkway,3517 N ODELL AVE,60634.0,1126465.93907338,1922502.95563027,36.0,16.0,17.0,41.9436867411735,-87.81058185098358,"(41.9436867411735, -87.81058185098358)",2011-01-11
01/11/2011,Completed - Dup,06/20/2011,11-00052746,Tree Trim,Parkway,1726 N PARKSIDE AVE,60639.0,1138450.2362149,1910825.59052073,29.0,25.0,25.0,41.91143377687477,-87.76681604591003,"(41.91143377687477, -87.76681604591003)",2011-01-11
01/11/2011,Completed - Dup,08/01/2011,11-00053916,Tree Trim,Parkway,5430 W MELROSE ST,60641.0,1139592.3737235002,1921076.00538465,38.0,16.0,15.0,41.93954124057965,-87.76236939472736,"(41.93954124057965, -87.76236939472736)",2011-01-11
01/11/2011,Completed - Dup,10/05/2011,11-00052269,Tree Trim,,4948 W HENDERSON ST,60641.0,1142787.36422126,1921817.25860524,38.0,16.0,15.0,41.94151631470528,-87.75060820571456,"(41.94151631470528, -87.75060820571454)",2011-01-11
01/11/2011,Completed - Dup,10/26/2011,11-00050029,Tree Trim,Parkway,5214 S KILDARE AVE,60632.0,1148581.29249402,1869629.30470268,23.0,8.0,57.0,41.79819634016095,-87.73065966193055,"(41.79819634016095, -87.73065966193055)",2011-01-11
01/11/2011,Completed - Dup,11/28/2011,11-00050055,Tree Trim,Parkway,5302 S KILDARE AVE,60632.0,1148595.33887825,1869109.49707118,23.0,8.0,62.0,41.79676963808207,-87.73062151601515,"(41.79676963808207, -87.73062151601516)",2011-01-11
01/11/2011,Completed,01/11/2011,11-00053002,Tree Trim,,3333 S CARPENTER ST,60608.0,1169857.86657214,1882734.82062876,11.0,9.0,60.0,41.83372337695087,-87.65225338034426,"(41.83372337695087, -87.65225338034426)",2011-01-11
01/11/2011,Completed,01/11/2011,11-00053250,Tree Trim,,3431 N RUTHERFORD AVE,60634.0,1130804.68252752,1922065.21577643,36.0,16.0,17.0,41.94241181696377,-87.794644458747,"(41.942411816963784, -87.794644458747)",2011-01-11
01/11/2011,Completed,01/11/2011,11-00053321,Tree Trim,,5825 S NATCHEZ AVE,60638.0,1134056.69726671,1865211.44308978,23.0,8.0,56.0,41.786340021938564,-87.78402865495524,"(41.78634002193856, -87.78402865495524)",2011-01-11
01/11/2011,Completed,01/11/2011,11-00053326,Tree Trim,,5516 S MOBILE AVE,60638.0,1135316.47002349,1867317.19997534,23.0,8.0,56.0,41.79209642099027,-87.77935983374267,"(41.79209642099027, -87.77935983374267)",2011-01-11
01/11/2011,Completed,01/11/2011,11-00053363,Tree Trim,,8300 S ST LAWRENCE AVE,60619.0,1181681.93968273,1850094.54027311,6.0,6.0,44.0,41.743890054563224,-87.60987647014002,"(41.74389005456323, -87.60987647014002)",2011-01-11
01/11/2011,Completed,01/27/2012,11-00049496,Tree Trim,Parkway,5635 S SEELEY AVE,60636.0,1163655.56622253,1867276.09218694,15.0,7.0,67.0,41.79143551103643,-87.67544521228834,"(41.79143551103643, -87.67544521228835)",2011-01-11
01/11/2011,Completed,02/12/2013,11-00051583,Tree Trim,Parkway,2719 S ST LOUIS AVE,60623.0,1153473.46701378,1885712.83399949,22.0,10.0,30.0,41.84223616291481,-87.71229264051459,"(41.84223616291481, -87.71229264051458)",2011-01-11
01/11/2011,Completed,03/14/2011,11-00051465,Tree Trim,Parkway,3521 N ODELL AVE,60634.0,1126464.83907338,1922529.75563027,36.0,16.0,17.0,41.94376030202124,-87.81058529342067,"(41.94376030202124, -87.81058529342067)",2011-01-11
01/11/2011,Completed,03/21/2011,11-00050870,Tree Trim,Parkway,4000 S CAMPBELL AVE,60632.0,1160354.29181113,1878054.07261737,12.0,9.0,58.0,41.821080338661965,-87.68725329537152,"(41.82108033866196, -87.68725329537152)",2011-01-11
01/11/2011,Completed,04/06/2011,11-00053416,Tree Trim,Parkway,6607 N GREENVIEW AVE,60626.0,1165074.05542805,1943981.89941406,40.0,24.0,1.0,42.0018919512137,-87.66806291191511,"(42.0018919512137, -87.66806291191511)",2011-01-11
01/11/2011,Completed,04/30/2012,11-00048734,Tree Trim,Parkway,10015 S HOYNE AVE,60643.0,1164130.32651096,1838214.26152896,19.0,22.0,72.0,41.711675638101696,-87.67452033799242,"(41.711675638101696, -87.67452033799242)",2011-01-11
01/11/2011,Completed,05/10/2012,11-00052360,Tree Trim,Parkway,1930 N WILMOT AVE,60647.0,1160598.32258222,1912844.79472777,1.0,14.0,22.0,41.91654436983187,-87.685394710155,"(41.91654436983187, -87.68539471015498)",2011-01-11
01/11/2011,Completed,08/30/2012,11-00048065,Tree Trim,Parkway,9768 S INGLESIDE AVE,60628.0,1184378.2083788998,1840407.18778603,8.0,5.0,50.0,41.71724424130027,-87.60029950075464,"(41.71724424130027, -87.60029950075464)",2011-01-11
01/11/2011,Completed,10/24/2011,11-00051520,Tree Trim,Parkway,3700 N OKETO AVE,60634.0,1126099.16082785,1923587.78097282,36.0,16.0,17.0,41.94666976301255,-87.8119057291868,"(41.94666976301255, -87.8119057291868)",2011-01-11
01/11/2011,Completed,11/28/2011,11-00053303,Tree Trim,Parkway,5408 S KEDVALE AVE,60632.0,1149618.399909,1868424.74199732,23.0,8.0,62.0,41.79487082096467,-87.72688751031822,"(41.79487082096467, -87.72688751031822)",2011-01-11
01/11/2011,Completed,12/20/2011,11-00053690,Tree Trim,Parkway,2923 W 55TH ST,60632.0,1157731.97122941,1868032.1230986,14.0,8.0,63.0,41.79363250160728,-87.69714546838604,"(41.79363250160727, -87.69714546838604)",2011-01-11
01/12/2011,Completed - Dup,01/20/2011,11-00055892,Tree Trim,Parkway,3110 W 55TH ST,60632.0,1156541.68011612,1867994.21949451,14.0,9.0,63.0,41.79355257759454,-87.70151123288284,"(41.79355257759454, -87.70151123288284)",2011-01-12
01/12/2011,Completed - Dup,03/02/2011,11-00056664,Tree Trim,Parkway,4817 N NORMANDY AVE,60656.0,1130901.98637251,1931704.13258232,41.0,16.0,10.0,41.968860365798896,-87.794063879237,"(41.968860365798896, -87.794063879237)",2011-01-12
01/12/2011,Completed - Dup,03/09/2011,11-00056469,Tree Trim,Parkway,5654 S FRANCISCO AVE,60629.0,1158008.63068669,1867014.49638448,14.0,8.0,63.0,41.79083437085401,-87.69615862845798,"(41.79083437085401, -87.69615862845798)",2011-01-12
01/12/2011,Completed,01/05/2012,11-00057112,Tree Trim,Parkway,5545 S RICHMOND ST,60629.0,1157654.87122941,1867727.8230986,14.0,8.0,63.0,41.79279902572734,-87.69743644417515,"(41.79279902572734, -87.69743644417515)",2011-01-12
01/12/2011,Completed,01/05/2012,11-00057201,Tree Trim,Parkway,5531 S RICHMOND ST,60629.0,1157652.17122941,1867821.6230986,14.0,8.0,63.0,41.793056480700585,-87.69744380067898,"(41.793056480700585, -87.69744380067898)",2011-01-12
01/12/2011,Completed,01/06/2012,11-00056350,Tree Trim,Parkway,5518 S FRANCISCO AVE,60629.0,1157982.37638391,1867919.30713313,14.0,8.0,63.0,41.793317830359136,-87.69623031065433,"(41.79331783035914, -87.69623031065433)",2011-01-12
01/12/2011,Completed,01/06/2012,11-00056357,Tree Trim,Parkway,5520 S FRANCISCO AVE,60629.0,1157982.77638391,1867905.90713313,14.0,8.0,63.0,41.79328105078282,-87.69622920802914,"(41.79328105078282, -87.69622920802914)",2011-01-12
01/12/2011,Completed,01/06/2012,11-00056362,Tree Trim,Parkway,5524 S FRANCISCO AVE,60629.0,1157983.57638391,1867879.00713313,14.0,8.0,63.0,41.79320721721568,-87.69622700549927,"(41.79320721721568, -87.69622700549927)",2011-01-12
01/12/2011,Completed,01/06/2012,11-00056892,Tree Trim,Parkway,5700 S RICHMOND ST,60629.0,1157684.29698899,1866703.14787775,14.0,8.0,63.0,41.78998657721404,-87.69735633799169,"(41.78998657721404, -87.69735633799169)",2011-01-12
01/12/2011,Completed,01/06/2012,11-00056901,Tree Trim,Parkway,5658 S RICHMOND ST,60629.0,1157676.49698899,1866977.64787775,14.0,8.0,63.0,41.79074000182745,-87.69737749325199,"(41.79074000182745, -87.69737749325199)",2011-01-12
01/12/2011,Completed,01/06/2012,11-00057926,Tree Trim,Parkway,5518 S SACRAMENTO AVE,60629.0,1157317.14141639,1867898.51879337,14.0,8.0,63.0,41.79327428690469,-87.69867024655011,"(41.79327428690469, -87.69867024655011)",2011-01-12
01/12/2011,Completed,01/06/2012,11-00058183,Tree Trim,Parkway,5524 S SACRAMENTO AVE,60629.0,1157318.34141639,1867858.31879337,14.0,8.0,63.0,41.793163948215366,-87.69866693449318,"(41.793163948215366, -87.69866693449318)",2011-01-12
01/12/2011,Completed,01/06/2012,11-00058610,Tree Trim,Parkway,5538 S SACRAMENTO AVE,60629.0,1157321.04141639,1867764.51879337,14.0,8.0,63.0,41.79290649329122,-87.69865957308657,"(41.79290649329122, -87.69865957308657)",2011-01-12
01/12/2011,Completed,01/06/2012,11-00059241,Tree Trim,Parkway,5656 S SACRAMENTO AVE,60629.0,1157343.31286598,1866980.73112491,14.0,8.0,63.0,41.79075521944467,-87.69859912529186,"(41.79075521944467, -87.69859912529186)",2011-01-12
01/12/2011,Completed,01/20/2011,11-00059299,Tree Trim,Parkway,4658 S TROY ST,60632.0,1156152.59989998,1873582.03377565,14.0,9.0,58.0,41.80889414454486,-87.70278766016787,"(41.80889414454486, -87.70278766016787)",2011-01-12
01/12/2011,Completed,02/11/2013,11-00059098,Tree Trim,Parkway,1919 N FAIRFIELD AVE,60647.0,1157731.41888049,1912637.4498820999,1.0,14.0,22.0,41.91603435179224,-87.69593330856773,"(41.916034351792234, -87.69593330856773)",2011-01-12
01/12/2011,Completed,02/28/2012,11-00056949,Tree Trim,Parkway,5625 S RICHMOND ST,60629.0,1157670.2707137,1867198.56817204,14.0,8.0,63.0,41.791346364239374,-87.69739433160082,"(41.791346364239374, -87.69739433160083)",2011-01-12
01/12/2011,Completed,03/04/2011,11-00055773,Tree Trim,Parkway,3049 W 55TH ST,60632.0,1156883.41987588,1868005.13147321,14.0,8.0,63.0,41.793575622544324,-87.7002577956571,"(41.79357562254433, -87.70025779565711)",2011-01-12
01/12/2011,Completed,03/04/2011,11-00055780,Tree Trim,Parkway,3052 W 55TH ST,60632.0,1156869.31987588,1868004.63147321,14.0,9.0,63.0,41.793574535396,-87.7003095131662,"(41.793574535396004, -87.7003095131662)",2011-01-12
01/12/2011,Completed,03/04/2011,11-00056205,Tree Trim,Parkway,2910 W 57TH ST,60629.0,1157909.73068669,1866709.99638448,14.0,8.0,63.0,41.79000079136811,-87.69652954435738,"(41.79000079136811, -87.69652954435738)",2011-01-12
01/12/2011,Completed,03/09/2011,11-00056256,Tree Trim,Parkway,5512 S FRANCISCO AVE,60629.0,1157981.17638391,1867959.50713313,14.0,8.0,63.0,41.79342816908673,-87.6962336185359,"(41.79342816908673, -87.6962336185359)",2011-01-12
01/12/2011,Completed,03/09/2011,11-00056346,Tree Trim,Parkway,5516 S FRANCISCO AVE,60629.0,1157981.97638391,1867932.70713313,14.0,8.0,63.0,41.79335460993524,-87.6962314132805,"(41.793354609935236, -87.69623141328051)",2011-01-12
01/12/2011,Completed,03/09/2011,11-00056367,Tree Trim,Parkway,5530 S FRANCISCO AVE,60629.0,1157984.77638391,1867838.80713313,14.0,8.0,63.0,41.793096878483844,-87.69622369763569,"(41.79309687848384, -87.69622369763569)",2011-01-12
01/12/2011,Completed,03/09/2011,11-00056427,Tree Trim,Parkway,5546 S FRANCISCO AVE,60629.0,1157987.97638391,1867731.50713313,14.0,8.0,63.0,41.7928023674414,-87.69621487942764,"(41.79280236744141, -87.69621487942764)",2011-01-12
01/12/2011,Completed,03/09/2011,11-00056481,Tree Trim,Parkway,5718 S FRANCISCO AVE,60629.0,1158020.53068669,1866592.69638448,14.0,8.0,63.0,41.78967665106162,-87.69612645687504,"(41.78967665106162, -87.69612645687504)",2011-01-12
01/12/2011,Completed,03/09/2011,11-00056484,Tree Trim,Parkway,5716 S FRANCISCO AVE,60629.0,1158020.23068669,1866606.09638448,14.0,8.0,63.0,41.78971342862729,-87.69612719273256,"(41.78971342862729, -87.69612719273256)",2011-01-12
01/12/2011,Completed,03/09/2011,11-00056505,Tree Trim,Parkway,5734 S FRANCISCO AVE,60629.0,1158023.63068669,1866485.49638448,14.0,8.0,63.0,41.789382416291005,-87.69611800333948,"(41.789382416291005, -87.69611800333949)",2011-01-12
01/12/2011,Completed,03/09/2011,11-00056542,Tree Trim,Parkway,5802 S FRANCISCO AVE,60629.0,1158036.48529851,1866036.68357187,14.0,8.0,63.0,41.788150549855,-87.69608306678438,"(41.788150549855, -87.69608306678437)",2011-01-12
01/12/2011,Completed,03/09/2011,11-00056549,Tree Trim,Parkway,5812 S FRANCISCO AVE,60629.0,1158038.38529851,1865969.68357187,14.0,8.0,63.0,41.787966653838865,-87.69607792101118,"(41.78796665383887, -87.69607792101118)",2011-01-12
01/12/2011,Completed,03/09/2011,11-00056565,Tree Trim,Parkway,5834 S FRANCISCO AVE,60629.0,1158042.48529851,1865822.28357187,14.0,8.0,63.0,41.787562084209796,-87.69606689371912,"(41.787562084209796, -87.69606689371913)",2011-01-12
01/12/2011,Completed,03/09/2011,11-00056597,Tree Trim,Parkway,5558 S FRANCISCO AVE,60629.0,1157990.3211988998,1867651.00508177,14.0,8.0,63.0,41.79258141103925,-87.69620846890619,"(41.79258141103925, -87.69620846890618)",2011-01-12
01/12/2011,Completed,03/09/2011,11-00056614,Tree Trim,Parkway,5658 S FRANCISCO AVE,60629.0,1158009.43068669,1866987.79638448,14.0,8.0,63.0,41.790761086083045,-87.69615642062277,"(41.790761086083045, -87.69615642062277)",2011-01-12
01/12/2011,Completed,03/09/2011,11-00056619,Tree Trim,Parkway,5700 S FRANCISCO AVE,60629.0,1158017.13068669,1866713.29638448,14.0,8.0,63.0,41.790007663380926,-87.6961356463348,"(41.79000766338092, -87.6961356463348)",2011-01-12
01/12/2011,Completed,03/10/2011,11-00056586,Tree Trim,Parkway,2901 W GARFIELD BLVD,60609.0,,,,,,,,,2011-01-12
01/12/2011,Completed,03/11/2011,11-00056651,Tree Trim,Parkway,5840 S RICHMOND ST,60629.0,1157710.90177455,1865772.39878868,14.0,8.0,63.0,41.78743193112558,-87.69728403292625,"(41.787431931125575, -87.69728403292625)",2011-01-12
01/12/2011,Completed,03/11/2011,11-00056776,Tree Trim,Parkway,5802 S RICHMOND ST,60629.0,1157703.80177455,1866026.89878868,14.0,8.0,63.0,41.78813045905497,-87.69730316271296,"(41.78813045905497, -87.69730316271296)",2011-01-12
01/12/2011,Completed,03/11/2011,11-00056863,Tree Trim,Parkway,5718 S RICHMOND ST,60629.0,1157687.79698899,1866582.64787775,14.0,8.0,63.0,41.789655837331544,-87.69734677286738,"(41.78965583733155, -87.69734677286738)",2011-01-12
01/12/2011,Completed,03/11/2011,11-00056869,Tree Trim,Parkway,5715 S RICHMOND ST,60629.0,1157687.19698899,1866602.74787775,14.0,8.0,63.0,41.789711006720616,-87.69734842770947,"(41.789711006720616, -87.69734842770947)",2011-01-12
01/12/2011,Completed,03/11/2011,11-00056873,Tree Trim,Parkway,5714 S RICHMOND ST,60629.0,1157686.99698899,1866609.44787775,14.0,8.0,63.0,41.789729396516854,-87.69734897932399,"(41.78972939651685, -87.697348979324)",2011-01-12
01/12/2011,Completed,03/11/2011,11-00057123,Tree Trim,Parkway,5600 S RICHMOND ST,60629.0,1157665.4707137,1867365.96817204,14.0,8.0,63.0,41.79180583052264,-87.69740739191549,"(41.791805830522634, -87.69740739191548)",2011-01-12
01/12/2011,Completed,03/11/2011,11-00057133,Tree Trim,Parkway,5533 S RICHMOND ST,60629.0,1157652.57122941,1867808.2230986,14.0,8.0,63.0,41.793019701129424,-87.69744269736252,"(41.793019701129424, -87.69744269736252)",2011-01-12
01/12/2011,Completed,03/11/2011,11-00057208,Tree Trim,Parkway,5521 S RICHMOND ST,60629.0,1157650.17122941,1867888.6230986,14.0,8.0,63.0,41.793240378552774,-87.69744931727638,"(41.793240378552774, -87.69744931727637)",2011-01-12
01/12/2011,Completed,03/11/2011,11-00057228,Tree Trim,Parkway,5515 S RICHMOND ST,60629.0,1157648.97122941,1867928.8230986,14.0,8.0,63.0,41.79335071726123,-87.6974526272468,"(41.793350717261234, -87.69745262724679)",2011-01-12
01/12/2011,Completed,03/11/2011,11-00057238,Tree Trim,Parkway,5500 S RICHMOND ST,60629.0,1157646.07122941,1868029.3230986,14.0,8.0,63.0,41.793626561993385,-87.6974605355171,"(41.79362656199338, -87.6974605355171)",2011-01-12
01/12/2011,Completed,03/11/2011,11-00057268,Tree Trim,Parkway,5514 S SACRAMENTO AVE,60629.0,1157316.34141639,1867925.31879337,14.0,8.0,63.0,41.79334784602972,-87.69867245459307,"(41.79334784602972, -87.69867245459307)",2011-01-12
01/12/2011,Completed,03/11/2011,11-00058152,Tree Trim,Parkway,5520 S SACRAMENTO AVE,60629.0,1157317.54141639,1867885.11879337,14.0,8.0,63.0,41.79323750734182,-87.69866914253012,"(41.79323750734182, -87.69866914253012)",2011-01-12
01/12/2011,Completed,03/11/2011,11-00058837,Tree Trim,Parkway,5554 S SACRAMENTO AVE,60629.0,1157324.12900417,1867657.23548536,14.0,8.0,63.0,41.79261203043128,-87.6986511554923,"(41.79261203043128, -87.69865115549231)",2011-01-12
01/12/2011,Completed,03/11/2011,11-00058845,Tree Trim,Parkway,5559 S SACRAMENTO AVE,60629.0,1157325.02900417,1867623.73548536,14.0,8.0,63.0,41.792520083538925,-87.6986487621772,"(41.79252008353893, -87.6986487621772)",2011-01-12
01/12/2011,Completed,03/11/2011,11-00058881,Tree Trim,Parkway,5603 S SACRAMENTO AVE,60629.0,1157333.42900417,1867335.63548536,14.0,8.0,63.0,41.791729326832716,-87.69862575976488,"(41.791729326832716, -87.69862575976487)",2011-01-12
01/12/2011,Completed,03/11/2011,11-00058924,Tree Trim,Parkway,5617 S SACRAMENTO AVE,60629.0,1157336.02900417,1867241.93548536,14.0,8.0,63.0,41.791472148283994,-87.69861876259192,"(41.79147214828399, -87.6986187625919)",2011-01-12
01/12/2011,Completed,03/11/2011,11-00059152,Tree Trim,Parkway,5623 S SACRAMENTO AVE,60629.0,1157337.12900417,1867201.73548536,14.0,8.0,63.0,41.79136181158589,-87.69861581736014,"(41.79136181158588, -87.69861581736012)",2011-01-12
01/12/2011,Completed,03/11/2011,11-00059161,Tree Trim,Parkway,5626 S SACRAMENTO AVE,60629.0,1157337.72900417,1867181.63548536,14.0,8.0,63.0,41.79130664222305,-87.69861416140611,"(41.79130664222305, -87.69861416140611)",2011-01-12
01/12/2011,Completed,03/11/2011,11-00059162,Tree Trim,Parkway,5633 S SACRAMENTO AVE,60629.0,1157339.02900417,1867134.73548536,14.0,8.0,63.0,41.79117791573367,-87.69861066420351,"(41.79117791573367, -87.69861066420351)",2011-01-12
01/12/2011,Completed,03/11/2011,11-00059176,Tree Trim,Parkway,5638 S SACRAMENTO AVE,60629.0,1157339.92900417,1867101.23548536,14.0,8.0,63.0,41.79108596881834,-87.69860827097422,"(41.791085968818344, -87.69860827097422)",2011-01-12
01/12/2011,Completed,03/11/2011,11-00059181,Tree Trim,Parkway,5639 S SACRAMENTO AVE,60629.0,1157340.12900417,1867094.53548536,14.0,8.0,63.0,41.79106757902991,-87.69860771899285,"(41.79106757902991, -87.69860771899285)",2011-01-12
01/12/2011,Completed,03/11/2011,11-00059209,Tree Trim,Parkway,5640 S SACRAMENTO AVE,60629.0,1157340.32900417,1867087.83548536,14.0,8.0,63.0,41.791049189241406,-87.69860716701174,"(41.791049189241406, -87.69860716701173)",2011-01-12
01/12/2011,Completed,03/11/2011,11-00059216,Tree Trim,Parkway,5643 S SACRAMENTO AVE,60629.0,1157340.92900417,1867067.73548536,14.0,8.0,63.0,41.79099401987557,-87.69860551106987,"(41.79099401987557, -87.69860551106987)",2011-01-12
01/12/2011,Completed,03/11/2011,11-00059220,Tree Trim,Parkway,5644 S SACRAMENTO AVE,60629.0,1157341.12900417,1867061.03548536,14.0,8.0,63.0,41.79097563008684,-87.69860495908975,"(41.79097563008684, -87.69860495908975)",2011-01-12
01/12/2011,Completed,03/11/2011,11-00059243,Tree Trim,Parkway,5659 S SACRAMENTO AVE,60629.0,1157343.91286598,1866960.63112491,14.0,8.0,63.0,41.79070005007599,-87.69859746936132,"(41.79070005007599, -87.69859746936133)",2011-01-12
01/12/2011,Completed,03/11/2011,11-00059246,Tree Trim,Parkway,5705 S SACRAMENTO AVE,60629.0,1157352.41286598,1866659.23112491,14.0,8.0,63.0,41.7898727940262,-87.69857446133615,"(41.789872794026195, -87.69857446133615)",2011-01-12
01/12/2011,Completed,03/11/2011,11-00059255,Tree Trim,Parkway,5708 S SACRAMENTO AVE,60629.0,1157353.01286598,1866639.13112491,14.0,8.0,63.0,41.78981762464901,-87.69857280544011,"(41.78981762464901, -87.69857280544011)",2011-01-12
01/12/2011,Completed,03/11/2011,11-00059266,Tree Trim,Parkway,5709 S SACRAMENTO AVE,60629.0,1157353.21286598,1866632.43112491,14.0,8.0,63.0,41.78979923485649,-87.69857225347526,"(41.789799234856496, -87.69857225347526)",2011-01-12
01/12/2011,Completed,03/11/2011,11-00059358,Tree Trim,Parkway,5717 S SACRAMENTO AVE,60629.0,1157354.81286598,1866578.83112491,14.0,8.0,63.0,41.78965211651428,-87.69856783776552,"(41.78965211651428, -87.69856783776552)",2011-01-12
01/12/2011,Completed,03/11/2011,11-00059367,Tree Trim,Parkway,5719 S SACRAMENTO AVE,60629.0,1157355.21286598,1866565.43112491,14.0,8.0,63.0,41.78961533692815,-87.6985667338406,"(41.789615336928144, -87.6985667338406)",2011-01-12
01/12/2011,Completed,03/11/2011,11-00059378,Tree Trim,Parkway,5723 S SACRAMENTO AVE,60629.0,1157356.01286598,1866538.63112491,14.0,8.0,63.0,41.789541777755154,-87.69856452599375,"(41.78954177775515, -87.69856452599375)",2011-01-12
01/12/2011,Completed,03/12/2012,11-00056431,Tree Trim,Parkway,5555 S FRANCISCO AVE,60629.0,1157989.7211989,1867671.10508177,16.0,8.0,63.0,41.79263658041042,-87.69621012281603,"(41.792636580410424, -87.69621012281603)",2011-01-12
01/12/2011,Completed,03/21/2011,11-00057214,Tree Trim,Parkway,5524 S RICHMOND ST,60629.0,1157650.77122941,1867868.5230986,14.0,8.0,63.0,41.79318520919772,-87.69744766229454,"(41.79318520919773, -87.69744766229454)",2011-01-12
01/12/2011,Completed,03/21/2011,11-00057233,Tree Trim,Parkway,5501 S RICHMOND ST,60629.0,1157646.27122941,1868022.6230986,14.0,8.0,63.0,41.79360817220967,-87.69745998385109,"(41.793608172209666, -87.69745998385109)",2011-01-12
01/12/2011,Completed,03/22/2011,11-00055059,Tree Trim,Parkway,2917 W 55TH ST,60632.0,1157796.37122941,1868034.1230986,14.0,8.0,63.0,41.79363668184444,-87.69690926239504,"(41.79363668184444, -87.69690926239504)",2011-01-12
01/12/2011,Completed,03/22/2011,11-00055063,Tree Trim,Parkway,2915 W 55TH ST,60632.0,1157817.77638391,1868034.80713313,14.0,8.0,63.0,41.793638124058425,-87.69683075214986,"(41.79363812405843, -87.69683075214986)",2011-01-12
01/12/2011,Completed,03/22/2011,11-00055066,Tree Trim,Parkway,2911 W 55TH ST,60632.0,1157860.67638391,1868036.20713313,14.0,8.0,63.0,41.793641094125526,-87.69667340189122,"(41.79364109412552, -87.6966734018912)",2011-01-12
01/12/2011,Completed,03/22/2011,11-00055069,Tree Trim,Parkway,2909 W 55TH ST,60632.0,1157882.17638391,1868036.90713313,14.0,8.0,63.0,41.793642578061956,-87.6965945434098,"(41.79364257806195, -87.69659454340982)",2011-01-12
01/12/2011,Completed,03/22/2011,11-00055084,Tree Trim,Parkway,2906 W 55TH ST,60632.0,1157914.37638391,1868037.90713313,14.0,9.0,63.0,41.793644667674606,-87.69647644038805,"(41.7936446676746, -87.69647644038805)",2011-01-12
01/12/2011,Completed,03/22/2011,11-00055088,Tree Trim,Parkway,2910 W 55TH ST,60632.0,1157871.47638391,1868036.60713313,14.0,9.0,63.0,41.79364197229119,-87.69663378794536,"(41.793641972291184, -87.69663378794537)",2011-01-12
01/12/2011,Completed,03/22/2011,11-00055091,Tree Trim,Parkway,2914 W 55TH ST,60632.0,1157828.47638391,1868035.20713313,14.0,9.0,63.0,41.79363900431027,-87.69679150490255,"(41.79363900431027, -87.69679150490254)",2011-01-12
01/12/2011,Completed,03/22/2011,11-00055101,Tree Trim,Parkway,2918 W 55TH ST,60632.0,1157785.57122941,1868033.8230986,14.0,9.0,63.0,41.7936360779975,-87.69694887362057,"(41.7936360779975, -87.69694887362056)",2011-01-12
01/12/2011,Completed,03/22/2011,11-00055103,Tree Trim,Parkway,2920 W 55TH ST,60632.0,1157764.17122941,1868033.1230986,14.0,9.0,63.0,41.793634591786606,-87.69702736539362,"(41.7936345917866, -87.69702736539362)",2011-01-12
01/12/2011,Completed,03/22/2011,11-00055104,Tree Trim,Parkway,2935 W 55TH ST,60632.0,1157631.17122941,1868028.8230986,14.0,8.0,63.0,41.793625492341526,-87.69751518666025,"(41.79362549234152, -87.69751518666025)",2011-01-12
01/12/2011,Completed,03/22/2011,11-00055113,Tree Trim,Parkway,2937 W 55TH ST,60632.0,1157621.27122941,1868028.5230986,14.0,8.0,63.0,41.7936248700206,-87.69755149761916,"(41.7936248700206, -87.69755149761916)",2011-01-12
01/12/2011,Completed,03/22/2011,11-00055119,Tree Trim,Parkway,2945 W 55TH ST,60632.0,1157581.57122941,1868027.3230986,14.0,8.0,63.0,41.79362238265114,-87.69769710814434,"(41.79362238265113, -87.69769710814435)",2011-01-12
01/12/2011,Completed,03/22/2011,11-00055124,Tree Trim,Parkway,3025 W 55TH ST,60632.0,1157046.01987588,1868010.33147321,14.0,8.0,63.0,41.79358660469706,-87.69966140893558,"(41.79358660469706, -87.6996614089356)",2011-01-12
01/12/2011,Completed,03/22/2011,11-00055131,Tree Trim,Parkway,3019 W 55TH ST,60632.0,1157110.21987588,1868012.43147321,14.0,8.0,63.0,41.793591068570684,-87.69942593389892,"(41.793591068570684, -87.69942593389892)",2011-01-12
01/12/2011,Completed,03/22/2011,11-00055139,Tree Trim,Parkway,3022 W 55TH ST,60632.0,1157078.11987588,1868011.43147321,14.0,9.0,63.0,41.79358897390118,-87.69954367006889,"(41.79358897390118, -87.69954367006889)",2011-01-12
01/12/2011,Completed,03/22/2011,11-00055546,Tree Trim,Parkway,3158 W 55TH ST,60632.0,1156176.30001556,1867982.52003232,14.0,9.0,63.0,41.79352783379585,-87.70285137850698,"(41.79352783379585, -87.70285137850699)",2011-01-12
01/12/2011,Completed,03/22/2011,11-00055553,Tree Trim,Parkway,3040 W 55TH ST,60632.0,1156925.51987588,1868006.43147321,14.0,9.0,63.0,41.79357833906428,-87.70010338191334,"(41.793578339064275, -87.70010338191334)",2011-01-12
01/12/2011,Completed,03/22/2011,11-00055612,Tree Trim,Parkway,3044 W 55TH ST,60632.0,1156906.81987588,1868005.83147321,14.0,9.0,63.0,41.79357707054228,-87.70017197010145,"(41.79357707054227, -87.70017197010145)",2011-01-12
01/12/2011,Completed,03/22/2011,11-00055799,Tree Trim,Parkway,3057 W 55TH ST,60632.0,1156845.91987588,1868003.93147321,14.0,8.0,63.0,41.79357308729526,-87.70039533871666,"(41.79357308729526, -87.70039533871666)",2011-01-12
01/12/2011,Completed,03/22/2011,11-00055805,Tree Trim,Parkway,3119 W 55TH ST,60632.0,1156445.20001556,1867991.22003232,14.0,8.0,63.0,41.79354629191535,-87.70186510144354,"(41.79354629191534, -87.70186510144353)",2011-01-12
01/12/2011,Completed,03/22/2011,11-00055853,Tree Trim,Parkway,3117 W 55TH ST,60632.0,1156466.70001556,1867991.92003232,14.0,8.0,63.0,41.7935477794174,-87.70178624315416,"(41.793547779417395, -87.70178624315417)",2011-01-12
01/12/2011,Completed,03/22/2011,11-00055859,Tree Trim,Parkway,3113 W 55TH ST,60632.0,1156509.58011612,1867993.21949451,14.0,8.0,63.0,41.793550480786855,-87.70162896894081,"(41.793550480786855, -87.70162896894082)",2011-01-12
01/12/2011,Completed,03/22/2011,11-00055864,Tree Trim,Parkway,3111 W 55TH ST,60632.0,1156530.98011612,1867993.91949451,14.0,8.0,63.0,41.793551970143405,-87.70155047733792,"(41.793551970143405, -87.7015504773379)",2011-01-12
01/12/2011,Completed,03/22/2011,11-00055875,Tree Trim,Parkway,3104 W 55TH ST,60632.0,1156606.08011612,1867996.31949451,14.0,9.0,63.0,41.79355704122668,-87.7012750246622,"(41.79355704122668, -87.70127502466218)",2011-01-12
01/12/2011,Completed,03/22/2011,11-00055896,Tree Trim,Parkway,3114 W 55TH ST,60632.0,1156498.78011612,1867992.91949451,14.0,9.0,63.0,41.793549875311754,-87.70166858008902,"(41.793549875311754, -87.70166858008902)",2011-01-12
01/12/2011,Completed,03/22/2011,11-00056150,Tree Trim,Parkway,3120 W 55TH ST,60632.0,1156434.50001556,1867990.92003232,14.0,9.0,63.0,41.79354568434325,-87.70190434589291,"(41.79354568434325, -87.70190434589291)",2011-01-12
01/12/2011,Completed,03/22/2011,11-00056171,Tree Trim,Parkway,3134 W 55TH ST,60632.0,1156288.50001556,1867986.32003232,14.0,9.0,63.0,41.79353600274457,-87.70243984447687,"(41.79353600274457, -87.70243984447687)",2011-01-12
01/12/2011,Completed,03/22/2011,11-00056218,Tree Trim,Parkway,2908 W 59TH ST,60629.0,1157968.85547578,1865384.20501706,14.0,8.0,63.0,41.78636143235802,-87.69634876534029,"(41.78636143235802, -87.69634876534029)",2011-01-12
01/12/2011,Completed,03/31/2011,11-00056708,Tree Trim,Parkway,2531 S WHIPPLE ST,60623.0,1156431.92529887,1887039.55000221,12.0,10.0,30.0,41.845817609022376,-87.70140007120338,"(41.845817609022376, -87.70140007120337)",2011-01-12
01/12/2011,Completed,04/27/2012,11-00059380,Tree Trim,Parkway,5722 S SACRAMENTO AVE,60629.0,1157355.81286598,1866545.33112491,14.0,8.0,63.0,41.78956016754847,-87.69856507795508,"(41.78956016754848, -87.69856507795508)",2011-01-12
01/12/2011,Completed,04/27/2012,11-00059383,Tree Trim,Parkway,5725 S SACRAMENTO AVE,60629.0,1157356.41286598,1866525.23112491,14.0,8.0,63.0,41.78950499816828,-87.69856342207181,"(41.78950499816828, -87.69856342207183)",2011-01-12
01/12/2011,Completed,07/08/2011,11-00054884,Tree Trim,,11606 S EWING AVE,60617.0,1202246.29716825,1828621.09661427,10.0,4.0,52.0,41.68446610419581,-87.53525776666237,"(41.68446610419581, -87.53525776666237)",2011-01-12
01/12/2011,Completed,08/22/2012,11-00057254,Tree Trim,Parkway,5515 S SACRAMENTO AVE,60629.0,1157316.54141639,1867918.61879337,14.0,8.0,63.0,41.79332945624854,-87.69867190258196,"(41.79332945624855, -87.69867190258195)",2011-01-12
01/12/2011,Completed,08/22/2012,11-00057307,Tree Trim,Parkway,5519 S SACRAMENTO AVE,60629.0,1157317.34141639,1867891.81879337,14.0,8.0,63.0,41.79325589712328,-87.69866969454,"(41.79325589712328, -87.69866969454)",2011-01-12
01/12/2011,Completed,08/22/2012,11-00058855,Tree Trim,Parkway,5601 S SACRAMENTO AVE,60629.0,1157333.02900417,1867349.03548536,14.0,8.0,63.0,41.791766106405284,-87.69862686374483,"(41.791766106405284, -87.69862686374483)",2011-01-12
01/12/2011,Completed,08/22/2012,11-00058891,Tree Trim,Parkway,5604 S SACRAMENTO AVE,60629.0,1157333.62900417,1867328.93548536,14.0,8.0,63.0,41.79171093704634,-87.69862520777525,"(41.791710937046346, -87.69862520777525)",2011-01-12
01/12/2011,Completed,08/22/2012,11-00058907,Tree Trim,Parkway,5610 S SACRAMENTO AVE,60629.0,1157334.72900417,1867288.73548536,14.0,8.0,63.0,41.791600600352815,-87.69862226252657,"(41.791600600352815, -87.69862226252656)",2011-01-12
01/12/2011,Completed,08/22/2012,11-00058929,Tree Trim,Parkway,5618 S SACRAMENTO AVE,60629.0,1157336.22900417,1867235.23548536,14.0,8.0,63.0,41.79145375849679,-87.6986182106056,"(41.791453758496786, -87.69861821060559)",2011-01-12
01/12/2011,Completed,08/22/2012,11-00059224,Tree Trim,Parkway,5646 S SACRAMENTO AVE,60629.0,1157341.42900417,1867047.63548536,14.0,8.0,63.0,41.79093885253517,-87.69860422181021,"(41.79093885253517, -87.6986042218102)",2011-01-12
01/12/2011,Completed,11/09/2011,11-00055080,Tree Trim,Parkway,2900 W 55TH ST,60632.0,1157978.77638391,1868040.00713313,14.0,9.0,63.0,41.79364912094922,-87.69624023160853,"(41.79364912094922, -87.69624023160851)",2011-01-12
01/12/2011,Completed,11/09/2011,11-00055108,Tree Trim,Parkway,2936 W 55TH ST,60632.0,1157626.27122941,1868028.7230986,14.0,9.0,63.0,41.79362531737465,-87.69753315743618,"(41.79362531737465, -87.69753315743618)",2011-01-12
01/12/2011,Completed,11/09/2011,11-00055163,Tree Trim,Parkway,3032 W 55TH ST,60632.0,1156963.01987588,1868007.63147321,14.0,9.0,63.0,41.793580873963606,-87.69996583883537,"(41.79358087396361, -87.69996583883538)",2011-01-12
01/12/2011,Completed,11/09/2011,11-00055790,Tree Trim,Parkway,3054 W 55TH ST,60632.0,1156859.91987588,1868004.33147321,14.0,9.0,63.0,41.793573902088816,-87.70034399060481,"(41.793573902088816, -87.7003439906048)",2011-01-12
01/12/2011,Completed,11/09/2011,11-00055901,Tree Trim,Parkway,3116 W 55TH ST,60632.0,1156648.98011612,1867997.61949451,14.0,9.0,63.0,41.79355974297016,-87.70111767742857,"(41.79355974297016, -87.70111767742858)",2011-01-12
01/12/2011,Completed,11/09/2011,11-00056159,Tree Trim,Parkway,3126 W 55TH ST,60632.0,1156370.10001556,1867988.92003232,14.0,9.0,63.0,41.79354149383054,-87.70214055135182,"(41.79354149383054, -87.70214055135182)",2011-01-12
01/12/2011,Completed,11/09/2011,11-00056435,Tree Trim,Parkway,5602 S FRANCISCO AVE,60629.0,1157998.9211988999,1867362.60508177,14.0,8.0,63.0,41.79178982675265,-87.69618477126477,"(41.79178982675265, -87.69618477126477)",2011-01-12
01/12/2011,Completed,11/09/2011,11-00056439,Tree Trim,Parkway,5624 S FRANCISCO AVE,60629.0,1158003.0211989,1867215.30508177,14.0,8.0,63.0,41.79138553180693,-87.696173740227,"(41.79138553180693, -87.69617374022698)",2011-01-12
01/12/2011,Completed,11/09/2011,11-00056447,Tree Trim,Parkway,5628 S FRANCISCO AVE,60629.0,1158003.8211988998,1867188.60508177,14.0,8.0,63.0,41.791312247043,-87.69617153236345,"(41.791312247043, -87.69617153236345)",2011-01-12
01/12/2011,Completed,11/09/2011,11-00056455,Tree Trim,Parkway,5640 S FRANCISCO AVE,60629.0,1158006.0211989,1867108.20508177,14.0,8.0,63.0,41.79109157357161,-87.6961656503109,"(41.79109157357161, -87.69616565031089)",2011-01-12
01/12/2011,Completed,11/09/2011,11-00056466,Tree Trim,Parkway,5652 S FRANCISCO AVE,60629.0,1158008.33068669,1867027.89638448,14.0,8.0,63.0,41.790871148412286,-87.69615936433891,"(41.79087114841229, -87.6961593643389)",2011-01-12
01/12/2011,Completed,11/09/2011,11-00056494,Tree Trim,Parkway,5722 S FRANCISCO AVE,60629.0,1158021.33068669,1866565.89638448,14.0,8.0,63.0,41.78960309186193,-87.69612425181744,"(41.78960309186193, -87.69612425181744)",2011-01-12
01/12/2011,Completed,11/09/2011,11-00056499,Tree Trim,Parkway,5728 S FRANCISCO AVE,60629.0,1158022.53068669,1866525.69638448,14.0,8.0,63.0,41.78949275306061,-87.69612094423852,"(41.78949275306061, -87.69612094423852)",2011-01-12
01/12/2011,Completed,11/09/2011,11-00056511,Tree Trim,Parkway,5742 S FRANCISCO AVE,60629.0,1158025.13068669,1866431.89638448,14.0,8.0,63.0,41.78923529991696,-87.69611395992945,"(41.78923529991696, -87.69611395992946)",2011-01-12
01/12/2011,Completed,11/09/2011,11-00056577,Tree Trim,Parkway,5858 S FRANCISCO AVE,60629.0,1158047.05547578,1865661.40501706,14.0,8.0,63.0,41.78712051794353,-87.69605450889469,"(41.78712051794352, -87.69605450889469)",2011-01-12
01/12/2011,Completed,11/09/2011,11-00056604,Tree Trim,Parkway,5600 S FRANCISCO AVE,60629.0,1157998.5211989,1867376.00508177,14.0,8.0,63.0,41.791826606338574,-87.6961858738496,"(41.791826606338574, -87.6961858738496)",2011-01-12
01/12/2011,Completed,11/09/2011,11-00056624,Tree Trim,Parkway,5758 S FRANCISCO AVE,60629.0,1158028.28529851,1866324.78357187,14.0,8.0,63.0,41.788941303267286,-87.69610530387024,"(41.788941303267286, -87.69610530387023)",2011-01-12
01/12/2011,Completed,11/09/2011,11-00056634,Tree Trim,Parkway,5858 S RICHMOND ST,60629.0,1157714.29693383,1865651.80887054,14.0,8.0,63.0,41.787100946475896,-87.6972748552362,"(41.7871009464759, -87.6972748552362)",2011-01-12
01/12/2011,Completed,11/09/2011,11-00056643,Tree Trim,Parkway,5859 S RICHMOND ST,60629.0,1157714.49693383,1865645.10887054,14.0,8.0,63.0,41.787082556671216,-87.69727430365606,"(41.78708255667122, -87.69727430365606)",2011-01-12
01/12/2011,Completed,11/09/2011,11-00056657,Tree Trim,Parkway,5823 S RICHMOND ST,60629.0,1157707.70177455,1865886.19878868,14.0,8.0,63.0,41.787744279303844,-87.69729267928892,"(41.78774427930384, -87.69729267928892)",2011-01-12
01/12/2011,Completed,11/09/2011,11-00056661,Tree Trim,Parkway,5821 S RICHMOND ST,60629.0,1157707.30177455,1865899.59878868,14.0,8.0,63.0,41.787781058908884,-87.69729378246662,"(41.78778105890888, -87.69729378246662)",2011-01-12
01/12/2011,Completed,11/09/2011,11-00056706,Tree Trim,Parkway,5813 S RICHMOND ST,60629.0,1157705.80177455,1865953.19878868,14.0,8.0,63.0,41.78792817529667,-87.69729782852464,"(41.78792817529667, -87.69729782852465)",2011-01-12
01/12/2011,Completed,11/09/2011,11-00056710,Tree Trim,Parkway,5811 S RICHMOND ST,60629.0,1157705.50177455,1865966.59878868,14.0,8.0,63.0,41.78796495287051,-87.6972985650442,"(41.78796495287051, -87.69729856504422)",2011-01-12
01/12/2011,Completed,11/09/2011,11-00056719,Tree Trim,Parkway,5808 S RICHMOND ST,60629.0,1157704.90177455,1865986.69878868,14.0,8.0,63.0,41.78802012227587,-87.69730021981951,"(41.78802012227587, -87.6973002198195)",2011-01-12
01/12/2011,Completed,11/09/2011,11-00056733,Tree Trim,Parkway,5809 S RICHMOND ST,60629.0,1157705.10177455,1865979.99878868,14.0,8.0,63.0,41.78800173247414,-87.69729966822749,"(41.78800173247414, -87.69729966822749)",2011-01-12
01/12/2011,Completed,11/09/2011,11-00056744,Tree Trim,Parkway,5801 S RICHMOND ST,60629.0,1157703.60177455,1866033.59878868,14.0,8.0,63.0,41.78814884885629,-87.6973037143066,"(41.78814884885629, -87.6973037143066)",2011-01-12
01/12/2011,Completed,11/09/2011,11-00056782,Tree Trim,Parkway,5800 S RICHMOND ST,60629.0,1157703.40177455,1866040.29878868,14.0,8.0,63.0,41.78816723865754,-87.6973042659005,"(41.78816723865754, -87.6973042659005)",2011-01-12
01/12/2011,Completed,11/09/2011,11-00056790,Tree Trim,Parkway,5758 S RICHMOND ST,60629.0,1157695.50177455,1866314.79878868,14.0,8.0,63.0,41.78892066554008,-87.69732578688566,"(41.78892066554008, -87.69732578688566)",2011-01-12
01/12/2011,Completed,11/09/2011,11-00056794,Tree Trim,Parkway,5759 S RICHMOND ST,60629.0,1157695.70177455,1866308.09878868,14.0,8.0,63.0,41.78890227574125,-87.69732523528181,"(41.78890227574125, -87.69732523528182)",2011-01-12
01/12/2011,Completed,11/09/2011,11-00056796,Tree Trim,Parkway,5756 S RICHMOND ST,60629.0,1157695.10177455,1866328.19878868,14.0,8.0,63.0,41.78895744513757,-87.69732689009409,"(41.78895744513757, -87.69732689009409)",2011-01-12
01/12/2011,Completed,11/09/2011,11-00056810,Tree Trim,Parkway,5755 S RICHMOND ST,60629.0,1157694.90177455,1866334.89878868,14.0,8.0,63.0,41.78897583493623,-87.69732744169869,"(41.788975834936224, -87.69732744169869)",2011-01-12
01/12/2011,Completed,11/09/2011,11-00056815,Tree Trim,Parkway,5751 S RICHMOND ST,60629.0,1157694.10177455,1866361.69878868,14.0,8.0,63.0,41.789049394130274,-87.69732964811955,"(41.789049394130274, -87.69732964811955)",2011-01-12
01/12/2011,Completed,11/09/2011,11-00056818,Tree Trim,Parkway,5747 S RICHMOND ST,60629.0,1157693.39698899,1866388.44787775,14.0,8.0,63.0,41.78912281168381,-87.69733150680301,"(41.789122811683804, -87.69733150680301)",2011-01-12
01/12/2011,Completed,11/09/2011,11-00056823,Tree Trim,Parkway,5742 S RICHMOND ST,60629.0,1157692.39698899,1866421.94787775,14.0,8.0,63.0,41.78921476067384,-87.69733426483923,"(41.789214760673836, -87.69733426483923)",2011-01-12
01/12/2011,Completed,11/09/2011,11-00056832,Tree Trim,Parkway,5740 S RICHMOND ST,60629.0,1157691.99698899,1866435.34787775,14.0,8.0,63.0,41.78925154026943,-87.69733536805546,"(41.789251540269426, -87.69733536805545)",2011-01-12
01/12/2011,Completed,11/09/2011,11-00056834,Tree Trim,Parkway,5738 S RICHMOND ST,60629.0,1157691.59698899,1866448.74787775,14.0,8.0,63.0,41.78928831986481,-87.69733647127268,"(41.78928831986481, -87.69733647127269)",2011-01-12
01/12/2011,Completed,11/09/2011,11-00056837,Tree Trim,Parkway,5733 S RICHMOND ST,60629.0,1157690.69698899,1866482.24787775,14.0,8.0,63.0,41.78938026682221,-87.69733886264919,"(41.789380266822214, -87.69733886264919)",2011-01-12
01/12/2011,Completed,11/09/2011,11-00056840,Tree Trim,Parkway,5734 S RICHMOND ST,60629.0,1157690.89698899,1866475.54787775,14.0,8.0,63.0,41.78936187702486,-87.69733831103929,"(41.78936187702486, -87.69733831103929)",2011-01-12
01/12/2011,Completed,11/09/2011,11-00056856,Tree Trim,Parkway,5727 S RICHMOND ST,60629.0,1157689.49698899,1866522.34787775,14.0,8.0,63.0,41.78949033119113,-87.69734217502617,"(41.78949033119113, -87.69734217502617)",2011-01-12
01/12/2011,Completed,11/09/2011,11-00056859,Tree Trim,Parkway,5719 S RICHMOND ST,60629.0,1157687.99698899,1866575.94787775,14.0,8.0,63.0,41.78963744753509,-87.69734622125385,"(41.789637447535085, -87.69734622125384)",2011-01-12
01/12/2011,Completed,11/11/2011,11-00059538,Tree Trim,Parkway,822 W 21ST ST,60608.0,1171259.58528632,1890114.97990149,25.0,12.0,31.0,41.85394455569384,-87.64689375293854,"(41.853944555693836, -87.64689375293854)",2011-01-12
01/12/2011,Completed,11/14/2011,11-00056225,Tree Trim,Parkway,3018 W 59TH ST,60629.0,1157196.94766785,1865361.85262333,14.0,8.0,63.0,41.786315752196884,-87.6991795994988,"(41.786315752196884, -87.69917959949882)",2011-01-12
01/12/2011,Completed,11/23/2011,11-00056908,Tree Trim,Parkway,5642 S RICHMOND ST,60629.0,1157673.4707137,1867084.76817204,14.0,8.0,63.0,41.79103401625729,-87.6973856844777,"(41.791034016257285, -87.69738568447768)",2011-01-12
01/12/2011,Completed,11/23/2011,11-00057042,Tree Trim,Parkway,5607 S RICHMOND ST,60629.0,1157666.7707137,1867319.06817204,14.0,8.0,63.0,41.791677104024274,-87.69740389711313,"(41.791677104024274, -87.69740389711312)",2011-01-12
01/12/2011,Completed,11/23/2011,11-00057048,Tree Trim,Parkway,5559 S RICHMOND ST,60629.0,1157657.6707137,1867633.96817204,14.0,8.0,63.0,41.79254141799714,-87.69742872440928,"(41.79254141799714, -87.69742872440926)",2011-01-12
01/12/2011,Completed,11/23/2011,11-00057098,Tree Trim,Parkway,5552 S RICHMOND ST,60629.0,1157656.2707137,1867680.86817204,14.0,8.0,63.0,41.79267014650589,-87.6974325859765,"(41.79267014650589, -87.6974325859765)",2011-01-12
01/12/2011,Completed,11/23/2011,11-00058094,Tree Trim,Parkway,5521 S SACRAMENTO AVE,60629.0,1157317.74141639,1867878.41879337,14.0,8.0,63.0,41.7932191175603,-87.69866859052051,"(41.7932191175603, -87.69866859052051)",2011-01-12
01/12/2011,Completed,11/23/2011,11-00058242,Tree Trim,Parkway,5531 S SACRAMENTO AVE,60629.0,1157319.64141639,1867811.41879337,14.0,8.0,63.0,41.79303522176768,-87.69866343713007,"(41.793035221767674, -87.69866343713007)",2011-01-12
01/12/2011,Completed,11/23/2011,11-00058244,Tree Trim,Parkway,5535 S SACRAMENTO AVE,60629.0,1157320.44141639,1867784.61879337,14.0,8.0,63.0,41.79296166263862,-87.69866122910369,"(41.79296166263862, -87.6986612291037)",2011-01-12
01/12/2011,Completed,11/23/2011,11-00058673,Tree Trim,Parkway,5547 S SACRAMENTO AVE,60629.0,1157322.74141639,1867704.21879337,14.0,8.0,63.0,41.79274098727168,-87.69865497173893,"(41.79274098727168, -87.69865497173893)",2011-01-12
01/12/2011,Completed,11/23/2011,11-00058844,Tree Trim,Parkway,5555 S SACRAMENTO AVE,60629.0,1157324.32900417,1867650.53548536,14.0,8.0,63.0,41.79259364064776,-87.69865060349098,"(41.79259364064776, -87.69865060349099)",2011-01-12
01/12/2011,Completed,11/23/2011,11-00059157,Tree Trim,Parkway,5625 S SACRAMENTO AVE,60629.0,1157337.52900417,1867188.33548536,14.0,8.0,63.0,41.79132503201072,-87.69861471339053,"(41.79132503201072, -87.69861471339053)",2011-01-12
01/12/2011,Completed,11/23/2011,11-00059237,Tree Trim,Parkway,5647 S SACRAMENTO AVE,60629.0,1157341.62900417,1867040.93548536,14.0,8.0,63.0,41.79092046274626,-87.69860366983075,"(41.790920462746264, -87.69860366983075)",2011-01-12
01/12/2011,Completed,11/29/2011,11-00055549,Tree Trim,Parkway,3039 W 55TH ST,60632.0,1156930.21987588,1868006.63147321,14.0,8.0,63.0,41.79357879289,-87.70008614184162,"(41.79357879289, -87.70008614184162)",2011-01-12
01/12/2011,Completed,11/29/2011,11-00055563,Tree Trim,Parkway,3041 W 55TH ST,60632.0,1156920.91987588,1868006.33147321,14.0,8.0,63.0,41.79357815762865,-87.70012025258877,"(41.79357815762865, -87.70012025258876)",2011-01-12
01/12/2011,Completed,11/29/2011,11-00055669,Tree Trim,Parkway,3045 W 55TH ST,60632.0,1156902.11987588,1868005.73147321,14.0,8.0,63.0,41.79357689111759,-87.70018920747158,"(41.79357689111759, -87.70018920747158)",2011-01-12
01/12/2011,Completed,11/29/2011,11-00055791,Tree Trim,Parkway,3055 W 55TH ST,60632.0,1156855.21987588,1868004.23147321,14.0,8.0,63.0,41.793573722638335,-87.7003612279739,"(41.793573722638335, -87.7003612279739)",2011-01-12
01/12/2011,Completed,11/29/2011,11-00055870,Tree Trim,Parkway,3107 W 55TH ST,60632.0,1156573.88011612,1867995.31949451,14.0,8.0,63.0,41.793554946678356,-87.70139312742809,"(41.793554946678356, -87.70139312742809)",2011-01-12
01/12/2011,Completed,11/29/2011,11-00056164,Tree Trim,Parkway,3130 W 55TH ST,60632.0,1156327.20001556,1867987.52003232,14.0,9.0,63.0,41.793538516271326,-87.70229790120675,"(41.79353851627133, -87.70229790120673)",2011-01-12
01/12/2011,Completed,11/29/2011,11-00056877,Tree Trim,Parkway,5706 S RICHMOND ST,60629.0,1157685.49698899,1866662.94787775,14.0,8.0,63.0,41.789876238440705,-87.69735302828786,"(41.7898762384407, -87.69735302828788)",2011-01-12
01/12/2011,Completed,11/29/2011,11-00056946,Tree Trim,Parkway,5629 S RICHMOND ST,60629.0,1157670.9707137,1867171.76817204,14.0,8.0,63.0,41.791272807104704,-87.6973924917416,"(41.791272807104704, -87.6973924917416)",2011-01-12
01/12/2011,Completed,11/29/2011,11-00056952,Tree Trim,Parkway,5623 S RICHMOND ST,60629.0,1157669.8707136998,1867211.96817204,14.0,8.0,63.0,41.791383143821285,-87.69739543487283,"(41.79138314382128, -87.69739543487283)",2011-01-12
01/12/2011,Completed,11/29/2011,11-00056988,Tree Trim,Parkway,5620 S RICHMOND ST,60629.0,1157669.2707137,1867232.06817204,14.0,8.0,63.0,41.791438313193694,-87.6973970897827,"(41.791438313193694, -87.69739708978271)",2011-01-12
01/12/2011,Completed,11/29/2011,11-00056989,Tree Trim,Parkway,5618 S RICHMOND ST,60629.0,1157668.8707136998,1867245.46817204,14.0,8.0,63.0,41.79147509277501,-87.6973981930572,"(41.79147509277501, -87.69739819305721)",2011-01-12
01/12/2011,Completed,11/29/2011,11-00057022,Tree Trim,Parkway,5617 S RICHMOND ST,60629.0,1157668.6707137,1867252.16817204,14.0,8.0,63.0,41.79149348256557,-87.69739874469481,"(41.79149348256557, -87.69739874469482)",2011-01-12
01/12/2011,Completed,11/29/2011,11-00057105,Tree Trim,Parkway,5548 S RICHMOND ST,60629.0,1157655.47122941,1867707.7230986,14.0,8.0,63.0,41.792743856368055,-87.697434789211,"(41.792743856368055, -87.69743478921102)",2011-01-12
01/12/2011,Completed,11/29/2011,11-00057116,Tree Trim,Parkway,5542 S RICHMOND ST,60629.0,1157654.27122941,1867747.9230986,14.0,8.0,63.0,41.79285419508611,-87.69743809914154,"(41.79285419508611, -87.69743809914155)",2011-01-12
01/12/2011,Completed,11/29/2011,11-00057220,Tree Trim,Parkway,5519 S RICHMOND ST,60629.0,1157649.77122941,1867902.0230986,14.0,8.0,63.0,41.79327715812249,-87.69745042059886,"(41.79327715812249, -87.69745042059886)",2011-01-12
01/12/2011,Completed,12/20/2011,11-00055054,Tree Trim,Parkway,2921 W 55TH ST,60632.0,1157753.37122941,1868032.7230986,14.0,8.0,63.0,41.79363371348513,-87.69706697933123,"(41.793633713485136, -87.69706697933124)",2011-01-12
01/12/2011,Completed,12/20/2011,11-00055073,Tree Trim,Parkway,2903 W 55TH ST,60632.0,1157946.57638391,1868039.00713313,14.0,8.0,63.0,41.79364703157953,-87.69635833464312,"(41.793647031579525, -87.69635833464312)",2011-01-12
01/12/2011,Completed,12/20/2011,11-00055077,Tree Trim,Parkway,2901 W 55TH ST,60632.0,1157968.07638391,1868039.70713313,14.0,8.0,63.0,41.793648515299566,-87.69627947614988,"(41.793648515299566, -87.69627947614988)",2011-01-12
01/12/2011,Completed,12/20/2011,11-00055192,Tree Trim,Parkway,3035 W 55TH ST,60632.0,1156949.01987588,1868007.23147321,14.0,8.0,63.0,41.793580059339156,-87.7000171869555,"(41.79358005933916, -87.70001718695552)",2011-01-12
01/12/2011,Completed,12/20/2011,11-00055802,Tree Trim,Parkway,3125 W 55TH ST,60632.0,1156380.90001556,1867989.22003232,14.0,8.0,63.0,41.79354209946845,-87.7021009402112,"(41.79354209946845, -87.7021009402112)",2011-01-12
01/12/2011,Completed,12/20/2011,11-00056186,Tree Trim,Parkway,5654 S FRANCISCO AVE,60629.0,1158008.63068669,1867014.49638448,14.0,8.0,63.0,41.79083437085401,-87.69615862845798,"(41.79083437085401, -87.69615862845798)",2011-01-12
01/12/2011,Completed,12/20/2011,11-00056212,Tree Trim,Parkway,2901 W 57TH ST,60629.0,1158006.43068669,1866712.99638448,14.0,8.0,63.0,41.79000705775113,-87.69617488865507,"(41.790007057751126, -87.69617488865507)",2011-01-12
01/12/2011,Completed,12/20/2011,11-00056238,Tree Trim,Parkway,3024 W 59TH ST,60629.0,1157132.64766785,1865359.95262333,14.0,8.0,63.0,41.78631183948981,-87.69941540916219,"(41.78631183948981, -87.69941540916217)",2011-01-12
01/12/2011,Completed,12/20/2011,11-00056252,Tree Trim,Parkway,5502 S FRANCISCO AVE,60629.0,1157979.17638391,1868026.60713313,14.0,8.0,63.0,41.793612341375024,-87.69623912897433,"(41.793612341375024, -87.69623912897433)",2011-01-12
01/12/2011,Completed,12/20/2011,11-00056385,Tree Trim,Parkway,5536 S FRANCISCO AVE,60629.0,1157985.97638391,1867798.50713313,14.0,8.0,63.0,41.7929862653361,-87.69622039249866,"(41.792986265336104, -87.69622039249865)",2011-01-12
01/12/2011,Completed,12/20/2011,11-00056416,Tree Trim,Parkway,5542 S FRANCISCO AVE,60629.0,1157987.17638391,1867758.30713313,14.0,8.0,63.0,41.7928759266,-87.69621708465306,"(41.79287592659999, -87.69621708465306)",2011-01-12
01/12/2011,Completed,12/20/2011,11-00056419,Tree Trim,Parkway,5544 S FRANCISCO AVE,60629.0,1157987.57638391,1867744.90713313,14.0,8.0,63.0,41.792839147020814,-87.69621598203985,"(41.792839147020814, -87.69621598203986)",2011-01-12
01/12/2011,Completed,12/20/2011,11-00056519,Tree Trim,Parkway,5800 S FRANCISCO AVE,60629.0,1158036.08529851,1866050.08357187,14.0,8.0,63.0,41.788187329464286,-87.69608416927456,"(41.78818732946429, -87.69608416927457)",2011-01-12
01/12/2011,Completed,12/20/2011,11-00056554,Tree Trim,Parkway,5824 S FRANCISCO AVE,60629.0,1158040.58529851,1865889.28357187,14.0,8.0,63.0,41.78774598023888,-87.69607203944283,"(41.78774598023888, -87.69607203944283)",2011-01-12
01/12/2011,Completed,12/20/2011,11-00056570,Tree Trim,Parkway,5836 S FRANCISCO AVE,60629.0,1158042.88529851,1865808.88357187,14.0,8.0,63.0,41.78752530459649,-87.69606579124508,"(41.787525304596485, -87.69606579124508)",2011-01-12
01/12/2011,Completed,12/20/2011,11-00057243,Tree Trim,Parkway,5500 S SACRAMENTO AVE,60629.0,1157313.64141639,1868019.11879337,14.0,8.0,63.0,41.79360530093403,-87.69867981607986,"(41.79360530093403, -87.69867981607986)",2011-01-12
01/12/2011,Completed,12/20/2011,11-00057246,Tree Trim,Parkway,5501 S SACRAMENTO AVE,60629.0,1157313.84141639,1868012.41879337,14.0,8.0,63.0,41.79358691115369,-87.69867926406532,"(41.79358691115369, -87.69867926406533)",2011-01-12
01/12/2011,Completed,12/22/2011,11-00058324,Tree Trim,Parkway,2459 S ST LOUIS AVE,60623.0,1153425.38220921,1887438.68837819,22.0,10.0,30.0,41.8469730708257,-87.7124233100532,"(41.846973070825705, -87.71242331005321)",2011-01-12
01/13/2011,Completed - Dup,01/10/2012,11-00062311,Tree Trim,Parkway,5505 N MOBILE AVE,60630.0,1133245.10367354,1936241.58278195,45.0,16.0,11.0,41.98127076437513,-87.78534140622986,"(41.98127076437513, -87.78534140622986)",2011-01-13
01/13/2011,Completed - Dup,02/16/2011,11-00062775,Tree Trim,,4600 N AVERS AVE,60625.0,1149895.73969792,1930291.70922775,39.0,17.0,14.0,41.964635275197075,-87.72426046336528,"(41.964635275197075, -87.7242604633653)",2011-01-13
01/13/2011,Completed - Dup,03/08/2011,11-00065329,Tree Trim,Parkway,5758 S ALBANY AVE,60629.0,1156698.11881086,1866284.77437797,14.0,8.0,63.0,41.78885846273805,-87.70098368617266,"(41.78885846273805, -87.70098368617266)",2011-01-13
01/13/2011,Completed - Dup,03/15/2012,11-00065701,Tree Trim,Parkway,1325 W WAVELAND AVE,60613.0,1166704.41212443,1924687.37746598,44.0,19.0,6.0,41.94891225618685,-87.662620813161,"(41.94891225618685, -87.662620813161)",2011-01-13
01/13/2011,Completed - Dup,03/30/2011,11-00062819,Tree Trim,Parkway,3618 N OCTAVIA AVE,60634.0,1126775.10838249,1923160.31570357,36.0,16.0,17.0,41.94548543651349,-87.80943069719132,"(41.945485436513486, -87.80943069719132)",2011-01-13
01/13/2011,Completed - Dup,09/14/2011,11-00063041,Tree Trim,Parkway,5700 W WILSON AVE,60630.0,1137510.29242182,1930011.81349347,38.0,16.0,15.0,41.964099776955685,-87.76980582014721,"(41.964099776955685, -87.7698058201472)",2011-01-13
01/13/2011,Completed - Dup,09/28/2011,11-00063444,Tree Trim,Parkway,10337 S PRAIRIE AVE,60628.0,1179739.84330702,1836480.67982702,9.0,5.0,49.0,41.70657650137311,-87.6174072820203,"(41.70657650137311, -87.6174072820203)",2011-01-13
01/13/2011,Completed - Dup,11/23/2011,11-00062235,Tree Trim,Parkway,3046 S DRAKE AVE,60623.0,1153183.55822503,1884188.33367473,22.0,10.0,30.0,41.83805849256482,-87.71339690939881,"(41.83805849256482, -87.71339690939882)",2011-01-13
01/13/2011,Completed - Dup,11/25/2011,11-00063545,Tree Trim,Parkway,5644 S ALBANY AVE,60629.0,1156676.39541742,1867040.68048996,14.0,8.0,63.0,41.79093321459103,-87.70104295500502,"(41.79093321459103, -87.70104295500501)",2011-01-13
01/13/2011,Completed,01/05/2012,11-00061319,Tree Trim,Parkway,5809 S SACRAMENTO AVE,60629.0,1157372.72631339,1865969.38203281,14.0,8.0,63.0,41.78797933943771,-87.698518654085,"(41.78797933943771, -87.69851865408502)",2011-01-13
01/13/2011,Completed,01/05/2012,11-00061633,Tree Trim,Parkway,5823 S SACRAMENTO AVE,60629.0,1157375.42631339,1865875.78203281,14.0,8.0,63.0,41.78772243310883,-87.69851128819342,"(41.78772243310883, -87.69851128819342)",2011-01-13
01/13/2011,Completed,01/05/2012,11-00061683,Tree Trim,Parkway,5827 S SACRAMENTO AVE,60629.0,1157376.22631339,1865848.98203281,14.0,8.0,63.0,41.78764887391148,-87.69850908044808,"(41.78764887391148, -87.69850908044808)",2011-01-13
01/13/2011,Completed,01/05/2012,11-00062478,Tree Trim,Parkway,3142 S MILLARD AVE,60623.0,1152536.28082542,1883527.84077638,22.0,10.0,30.0,41.83625881157113,-87.71578951856036,"(41.836258811571135, -87.71578951856034)",2011-01-13
01/13/2011,Completed,01/05/2012,11-00062638,Tree Trim,Parkway,3144 S MILLARD AVE,60623.0,1152536.68082542,1883514.44077638,22.0,10.0,30.0,41.83622203237609,-87.7157884043025,"(41.836222032376085, -87.7157884043025)",2011-01-13
01/13/2011,Completed,01/06/2012,11-00061722,Tree Trim,Parkway,5859 S WHIPPLE ST,60629.0,1157049.54766785,1865625.35262333,14.0,8.0,63.0,41.78704181578246,-87.69971292718544,"(41.78704181578246, -87.69971292718543)",2011-01-13
01/13/2011,Completed,01/06/2012,11-00061727,Tree Trim,Parkway,5854 S WHIPPLE ST,60629.0,1157048.64766785,1865658.85262333,14.0,8.0,63.0,41.78713376274924,-87.69971532191471,"(41.787133762749235, -87.69971532191471)",2011-01-13
01/13/2011,Completed,01/06/2012,11-00063236,Tree Trim,Parkway,5626 S WHIPPLE ST,60629.0,1157005.94509995,1867171.41280823,14.0,8.0,63.0,41.7912853051275,-87.6998310298279,"(41.7912853051275, -87.69983102982789)",2011-01-13
01/13/2011,Completed,01/06/2012,11-00063269,Tree Trim,Parkway,5600 S WHIPPLE ST,60629.0,1157001.14509995,1867345.31280823,14.0,8.0,63.0,41.791762608169826,-87.69984393191366,"(41.79176260816982, -87.69984393191366)",2011-01-13
01/13/2011,Completed,01/06/2012,11-00063279,Tree Trim,Parkway,5559 S WHIPPLE ST,60629.0,1156993.34509995,1867613.11280823,14.0,8.0,63.0,41.79249764656236,-87.69986529766747,"(41.79249764656236, -87.69986529766747)",2011-01-13
01/13/2011,Completed,01/06/2012,11-00063283,Tree Trim,Parkway,5558 S WHIPPLE ST,60629.0,1156993.14509995,1867619.81280823,14.0,8.0,63.0,41.79251603634276,-87.6998658500156,"(41.79251603634276, -87.6998658500156)",2011-01-13
01/13/2011,Completed,01/06/2012,11-00063287,Tree Trim,Parkway,5555 S WHIPPLE ST,60629.0,1156992.54509995,1867639.91280823,14.0,8.0,63.0,41.792571205683615,-87.69986750706147,"(41.79257120568362, -87.69986750706147)",2011-01-13
01/13/2011,Completed,01/06/2012,11-00063301,Tree Trim,Parkway,5531 S WHIPPLE ST,60629.0,1156987.91987588,1867800.63147321,14.0,8.0,63.0,41.7930123336627,-87.69988012481826,"(41.7930123336627, -87.69988012481826)",2011-01-13
01/13/2011,Completed,01/06/2012,11-00063321,Tree Trim,Parkway,5525 S WHIPPLE ST,60629.0,1156986.71987588,1867840.83147321,14.0,8.0,63.0,41.79312267233431,-87.69988343895182,"(41.79312267233431, -87.69988343895182)",2011-01-13
01/13/2011,Completed,01/06/2012,11-00063339,Tree Trim,Parkway,5521 S WHIPPLE ST,60629.0,1156985.91987588,1867867.63147321,14.0,8.0,63.0,41.793196231447524,-87.6998856483792,"(41.793196231447524, -87.69988564837918)",2011-01-13
01/13/2011,Completed,01/13/2011,11-00060151,Tree Trim,Parkway,5638 W LELAND AVE,60630.0,1137899.4019225,1930687.30008944,45.0,16.0,15.0,41.965946342616064,-87.76835878209141,"(41.96594634261606, -87.76835878209141)",2011-01-13
01/13/2011,Completed,01/13/2011,11-00064800,Tree Trim,,5119 S LOTUS AVE,60638.0,1140893.77697033,1870143.46492251,23.0,8.0,56.0,41.79975172508596,-87.758839092692,"(41.79975172508596, -87.758839092692)",2011-01-13
01/13/2011,Completed,01/13/2011,11-00064802,Tree Trim,,5400 S HARDING AVE,60632.0,1150954.04872056,1868505.44478906,23.0,8.0,62.0,41.795066320976076,-87.72198752704195,"(41.79506632097608, -87.72198752704196)",2011-01-13
01/13/2011,Completed,01/13/2011,11-00064887,Tree Trim,,6335 W MONTROSE AVE,60634.0,1133214.14909507,1928575.55888598,38.0,16.0,15.0,41.960234997023576,-87.78563548890725,"(41.960234997023576, -87.78563548890723)",2011-01-13
01/13/2011,Completed,01/13/2011,11-00064945,Tree Trim,,8323 S MICHIGAN AVE,60619.0,1178600.52752361,1849847.39442161,6.0,6.0,44.0,41.74328239257176,-87.62117444532886,"(41.743282392571764, -87.62117444532886)",2011-01-13
01/13/2011,Completed,01/17/2012,11-00060689,Tree Trim,Parkway,1206 S CHRISTIANA AVE,60623.0,1154219.86987549,1894470.59492378,24.0,10.0,29.0,41.866253624656274,-87.70931998077235,"(41.866253624656274, -87.70931998077235)",2011-01-13
01/13/2011,Completed,02/03/2012,11-00065940,Tree Trim,Parkway,3413 S INDIANA AVE,60616.0,1178162.24908728,1882370.40242698,3.0,21.0,35.0,41.832538664746316,-87.62179410552206,"(41.83253866474631, -87.62179410552207)",2011-01-13
01/13/2011,Completed,02/12/2013,11-00062209,Tree Trim,Parkway,3050 S DRAKE AVE,60623.0,1153175.25822503,1884498.03367473,22.0,10.0,30.0,41.83890851240933,-87.71341916420778,"(41.83890851240933, -87.71341916420778)",2011-01-13
01/13/2011,Completed,02/27/2012,11-00065857,Tree Trim,Parkway,2944 N NEVA AVE,60634.0,1127908.56743332,1918757.04448557,36.0,25.0,18.0,41.93338324280611,-87.80536411004053,"(41.93338324280611, -87.80536411004053)",2011-01-13
