,Creation Date,Status,Completion Date,Service Request Number,Type of Service Request,Street Address,ZIP Code,X Coordinate,Y Coordinate,Ward,Police District,Community Area,Latitude,Longitude,Location,date
4132,02/01/2012,Completed - Dup,02/01/2012,12-00139269,Street Light - 1/Out,7101 S EXCHANGE AVE,60649.0,1193449.79210452,1858343.50681107,7.0,3.0,43.0,41.76624629412542,-87.56648932082801,"(41.76624629412542,-87.56648932082801)",2012-02-01
4133,02/01/2012,Completed - Dup,02/01/2012,12-00141934,Street Light - 1/Out,7852 W CAHILL TER,60634.0,1122589.07871761,1923274.83202984,36.0,16.0,17.0,41.945868862497356,-87.8248148732908,"(41.94586886249735,-87.8248148732908)",2012-02-01
4134,02/01/2012,Completed - Dup,02/02/2012,12-00139983,Street Light - 1/Out,1899 S KOMENSKY AVE,60623.0,1149688.8000168998,1890340.06988694,24.0,10.0,29.0,41.85500814120197,-87.72606131711436,"(41.855008141201964,-87.72606131711434)",2012-02-01
4135,02/01/2012,Completed - Dup,02/02/2012,12-00142932,Street Light - 1/Out,8117 S LANGLEY AVE,60619.0,1182306.38697249,1851333.01500613,6.0,6.0,44.0,41.74727413590397,-87.60755018732193,"(41.74727413590397,-87.60755018732192)",2012-02-01
4136,02/01/2012,Completed - Dup,02/02/2012,12-00143549,Street Light - 1/Out,6029 S MOZART ST,60629.0,1158411.84086808,1864538.1328698997,15.0,8.0,66.0,41.78403067413426,-87.69474758289878,"(41.784030674134264,-87.6947475828988)",2012-02-01
4137,02/01/2012,Completed - Dup,02/02/2012,12-00143884,Street Light - 1/Out,3405 W BELLE PLAINE AVE,60618.0,1152932.586685,1927053.49231755,33.0,17.0,16.0,41.955689613051796,-87.7131808892214,"(41.955689613051796,-87.7131808892214)",2012-02-01
4138,02/01/2012,Completed - Dup,02/02/2012,12-00143891,Street Light - 1/Out,4101 N BERNARD ST,60618.0,1152656.96421588,1927046.77761861,33.0,17.0,16.0,41.95567665616755,-87.7141943215254,"(41.955676656167554,-87.71419432152541)",2012-02-01
4139,02/01/2012,Completed - Dup,02/02/2012,12-00143931,Street Light - 1/Out,5809 W EDDY ST,60634.0,1137009.37559087,1923014.64302196,38.0,16.0,15.0,41.94490788054222,-87.7718161370678,"(41.94490788054222,-87.7718161370678)",2012-02-01
4140,02/01/2012,Completed - Dup,02/02/2012,12-00144060,Street Light - 1/Out,5116 W WARWICK AVE,60641.0,1141586.2320941999,1924450.27389649,45.0,16.0,15.0,41.948763878730404,-87.75495760794094,"(41.94876387873041,-87.75495760794094)",2012-02-01
4141,02/01/2012,Completed - Dup,02/02/2012,12-00144106,Street Light - 1/Out,6833 S CALUMET AVE,60637.0,1179657.56597256,1859781.98248116,20.0,3.0,69.0,41.770519924959366,-87.61699833276981,"(41.770519924959366,-87.61699833276981)",2012-02-01
4142,02/01/2012,Completed - Dup,02/02/2012,12-00144243,Street Light - 1/Out,8500 S KOSTNER AVE,60652.0,1148569.6062915002,1847820.86812576,18.0,8.0,70.0,41.73835056254941,-87.73126234866218,"(41.73835056254941,-87.73126234866218)",2012-02-01
4143,02/01/2012,Completed - Dup,02/02/2012,12-00144655,Street Light - 1/Out,7700 S CALUMET AVE,60619.0,1179807.86158651,1854030.48548224,6.0,6.0,69.0,41.75473376567561,-87.61662307223378,"(41.75473376567561,-87.61662307223376)",2012-02-01
4144,02/01/2012,Completed - Dup,02/03/2012,12-00139990,Street Light - 1/Out,3720 W CORTLAND ST,60647.0,1151180.15080858,1912366.09990257,26.0,25.0,22.0,41.91542082833809,-87.72000954524297,"(41.915420828338085,-87.72000954524297)",2012-02-01
4145,02/01/2012,Completed - Dup,02/03/2012,12-00139996,Street Light - 1/Out,6742 N FRANCISCO AVE,60645.0,1155787.19342897,1944590.13391358,50.0,24.0,2.0,42.00375389343768,-87.70221168686454,"(42.003753893437676,-87.70221168686454)",2012-02-01
4146,02/01/2012,Completed - Dup,02/03/2012,12-00142001,Street Light - 1/Out,3732 W IRVING PARK RD,60618.0,1150668.90823122,1926326.13203337,39.0,17.0,16.0,41.953738332658155,-87.72152180917769,"(41.953738332658155,-87.72152180917769)",2012-02-01
4147,02/01/2012,Completed - Dup,02/03/2012,12-00142291,Street Light - 1/Out,7229 S UNIVERSITY AVE,60619.0,1185132.38006788,1857311.09076577,5.0,3.0,69.0,41.763612687083565,-87.5970075931023,"(41.763612687083565,-87.59700759310229)",2012-02-01
4148,02/01/2012,Completed - Dup,02/03/2012,12-00142742,Street Light - 1/Out,7300 N ALBANY AVE,60645.0,1154518.88101607,1948214.96360145,50.0,24.0,2.0,42.01372613003581,-87.7067802050079,"(42.01372613003581,-87.70678020500789)",2012-02-01
4149,02/01/2012,Completed - Dup,02/03/2012,12-00144184,Street Light - 1/Out,2533 N NEVA AVE,60707.0,1127996.26997191,1916044.08069943,36.0,25.0,18.0,41.92593704803567,-87.80510322523722,"(41.92593704803567,-87.80510322523722)",2012-02-01
4150,02/01/2012,Completed - Dup,02/03/2012,12-00144213,Street Light - 1/Out,3000 W ARTHINGTON ST,60612.0,1156503.70321692,1895888.71691042,28.0,11.0,27.0,41.870099237872964,-87.70089743831335,"(41.87009923787296,-87.70089743831335)",2012-02-01
4151,02/01/2012,Completed - Dup,02/03/2012,12-00144404,Street Light - 1/Out,5100 N WINCHESTER AVE,60640.0,1162489.8954674,1934061.84499945,47.0,20.0,4.0,41.97472568916877,-87.67784901668432,"(41.97472568916877,-87.67784901668433)",2012-02-01
4152,02/01/2012,Completed - Dup,02/03/2012,12-00144504,Street Light - 1/Out,2306 N KIMBALL AVE,60647.0,1153324.73812609,1915152.54519523,26.0,14.0,22.0,41.92302471732963,-87.71205632432851,"(41.92302471732963,-87.71205632432851)",2012-02-01
4153,02/01/2012,Completed - Dup,02/03/2012,12-00144567,Street Light - 1/Out,8562 S WOODLAWN AVE,60619.0,1186023.30078573,1848344.15960999,8.0,4.0,45.0,41.738985569998725,-87.5940246281208,"(41.738985569998725,-87.59402462812082)",2012-02-01
4154,02/01/2012,Completed - Dup,02/04/2012,12-00141681,Street Light - 1/Out,10007 S EBERHART AVE,60628.0,1181341.21011709,1838722.33710135,9.0,5.0,49.0,41.712691215637776,-87.6114743615717,"(41.71269121563777,-87.61147436157168)",2012-02-01
4155,02/01/2012,Completed - Dup,02/04/2012,12-00142546,Street Light - 1/Out,10131 S VERNON AVE,60628.0,1181032.40380293,1837887.728822,9.0,5.0,49.0,41.71040804156735,-87.61263088147949,"(41.71040804156735,-87.61263088147949)",2012-02-01
4156,02/01/2012,Completed - Dup,02/06/2012,12-00140002,Street Light - 1/Out,5135 N RAVENSWOOD AVE,60640.0,1163289.88416627,1934256.58010772,47.0,20.0,3.0,41.975243215188385,-87.67490170961705,"(41.97524321518838,-87.67490170961705)",2012-02-01
4157,02/01/2012,Completed - Dup,02/06/2012,12-00140880,Street Light - 1/Out,5628 N MOODY AVE,60646.0,1134241.26996627,1937030.5069884998,45.0,16.0,10.0,41.983418096089345,-87.78165906321802,"(41.98341809608934,-87.78165906321802)",2012-02-01
4158,02/01/2012,Completed - Dup,02/06/2012,12-00141201,Street Light - 1/Out,5057 N NOTTINGHAM AVE,60656.0,1128296.66770595,1933176.54842744,41.0,16.0,10.0,41.97294542875457,-87.80361029544396,"(41.97294542875457,-87.80361029544396)",2012-02-01
4159,02/01/2012,Completed - Dup,02/06/2012,12-00143230,Street Light - 1/Out,161 W BURTON PL,60610.0,1174757.89736556,1910264.18452554,43.0,18.0,8.0,41.90915772581533,-87.6334506066489,"(41.90915772581533,-87.6334506066489)",2012-02-01
4160,02/01/2012,Completed - Dup,02/06/2012,12-00143811,Street Light - 1/Out,3525 W 76TH ST,60652.0,1154210.92998084,1853984.58000794,18.0,8.0,70.0,41.75515465928701,-87.7104300819918,"(41.75515465928701,-87.7104300819918)",2012-02-01
4161,02/01/2012,Completed - Dup,02/06/2012,12-00144396,Street Light - 1/Out,1125 N CENTRAL AVE,60651.0,1138802.73687254,1907029.88992061,37.0,15.0,25.0,41.901011529131104,-87.7656133407392,"(41.901011529131104,-87.76561334073918)",2012-02-01
4162,02/01/2012,Completed - Dup,02/07/2012,12-00139334,Street Light - 1/Out,3724 N JANSSEN AVE,60613.0,1165977.0701222,1924827.52997349,44.0,19.0,6.0,41.949312428631536,-87.66529037124127,"(41.94931242863154,-87.66529037124126)",2012-02-01
4163,02/01/2012,Completed - Dup,02/07/2012,12-00139341,Street Light - 1/Out,3638 N JANSSEN AVE,60613.0,1165992.83908044,1924257.57572973,44.0,19.0,6.0,41.94774811063977,-87.66524873771843,"(41.947748110639765,-87.66524873771843)",2012-02-01
4164,02/01/2012,Completed - Dup,02/07/2012,12-00141261,Street Light - 1/Out,8456 S DAMEN AVE,60620.0,1164494.94267772,1848572.3985961997,18.0,6.0,71.0,41.740092330721396,-87.67289397299221,"(41.7400923307214,-87.6728939729922)",2012-02-01
4165,02/01/2012,Completed - Dup,02/07/2012,12-00141291,Street Light - 1/Out,8500 S DAMEN AVE,60620.0,1164502.34267772,1848284.1985961997,18.0,6.0,71.0,41.7393013107206,-87.67287496401121,"(41.7393013107206,-87.6728749640112)",2012-02-01
4166,02/01/2012,Completed - Dup,02/07/2012,12-00141318,Street Light - 1/Out,8556 S DAMEN AVE,60620.0,1164517.91231847,1847679.98008837,18.0,6.0,71.0,41.73764291598824,-87.67283490950535,"(41.73764291598824,-87.67283490950535)",2012-02-01
4167,02/01/2012,Completed - Dup,02/07/2012,12-00143115,Street Light - 1/Out,5301 W FULLERTON AVE,60639.0,1140642.36038971,1915446.61768616,37.0,25.0,19.0,41.924074367352745,-87.7586490158371,"(41.924074367352745,-87.7586490158371)",2012-02-01
4168,02/01/2012,Completed - Dup,02/07/2012,12-00144120,Street Light - 1/Out,7729 S MORGAN ST,60620.0,1170983.71119987,1853573.50193114,17.0,6.0,71.0,41.75367691624992,-87.64897420945792,"(41.753676916249916,-87.6489742094579)",2012-02-01
4169,02/01/2012,Completed - Dup,02/07/2012,12-00144678,Street Light - 1/Out,8900 S COTTAGE GROVE AVE,60619.0,1183118.81650491,1846138.37678841,6.0,6.0,44.0,41.733000631062154,-87.6047344026058,"(41.73300063106216,-87.6047344026058)",2012-02-01
4170,02/01/2012,Completed - Dup,02/08/2012,12-00141754,Street Light - 1/Out,5239 W 64TH PL,60638.0,1142530.49650693,1861223.34412602,13.0,8.0,64.0,41.77524322995692,-87.7530574679474,"(41.77524322995692,-87.7530574679474)",2012-02-01
4171,02/01/2012,Completed - Dup,02/08/2012,12-00142655,Street Light - 1/Out,4331 N SPRINGFIELD AVE,60618.0,1149613.55419531,1928500.98401811,39.0,17.0,16.0,41.959726896600095,-87.72534470896886,"(41.95972689660009,-87.72534470896886)",2012-02-01
4172,02/01/2012,Completed - Dup,02/08/2012,12-00143424,Street Light - 1/Out,10600 S HOXIE AVE,60617.0,1195206.6693833,1835230.36398906,10.0,4.0,51.0,41.70277869366147,-87.56081027249571,"(41.70277869366147,-87.56081027249571)",2012-02-01
4173,02/01/2012,Completed - Dup,02/08/2012,12-00144234,Street Light - 1/Out,6547 S WINCHESTER AVE,60636.0,1164482.80980603,1861242.18881966,15.0,7.0,67.0,41.77486028789366,-87.67258188761326,"(41.77486028789366,-87.67258188761325)",2012-02-01
4174,02/01/2012,Completed - Dup,02/08/2012,12-00144534,Street Light - 1/Out,5233 W 64TH PL,60638.0,1142563.19650693,1861218.54412602,13.0,8.0,64.0,41.77522945237718,-87.75293771038945,"(41.77522945237719,-87.75293771038943)",2012-02-01
4175,02/01/2012,Completed - Dup,02/08/2012,12-00144623,Street Light - 1/Out,2810 W 66TH ST,60629.0,1158740.49070502,1860752.18768834,15.0,8.0,66.0,41.77363479503493,-87.6936458773258,"(41.77363479503493,-87.69364587732579)",2012-02-01
4176,02/01/2012,Completed - Dup,02/09/2012,12-00142738,Street Light - 1/Out,11446 S BELL AVE,60643.0,1163527.63551447,1828518.49840077,19.0,22.0,75.0,41.685081425187995,-87.67699814943914,"(41.68508142518799,-87.67699814943914)",2012-02-01
4177,02/01/2012,Completed - Dup,02/09/2012,12-00142751,Street Light - 1/Out,11455 S BELL AVE,60643.0,1163534.83551447,1828363.19840077,19.0,22.0,75.0,41.684655103664056,-87.67697612326758,"(41.684655103664056,-87.67697612326758)",2012-02-01
4178,02/01/2012,Completed - Dup,02/09/2012,12-00142890,Street Light - 1/Out,6100 W DICKENS AVE,60639.0,1135403.87999062,1913154.23071971,29.0,25.0,19.0,41.9178785142365,-87.77795216506443,"(41.9178785142365,-87.77795216506442)",2012-02-01
4179,02/01/2012,Completed - Dup,02/09/2012,12-00143971,Street Light - 1/Out,1149 S UNION AVE,60607.0,1171660.02797008,1895263.82901365,2.0,12.0,28.0,41.86806459894568,-87.6452725311937,"(41.86806459894568,-87.64527253119368)",2012-02-01
4180,02/01/2012,Completed - Dup,02/09/2012,12-00144324,Street Light - 1/Out,3444 N NEW ENGLAND AVE,60634.0,1129811.65181112,1922122.30059354,36.0,16.0,17.0,41.94258553084858,-87.798293063181,"(41.942585530848575,-87.798293063181)",2012-02-01
4181,02/01/2012,Completed - Dup,02/09/2012,12-00144368,Street Light - 1/Out,11452 S BELL AVE,60643.0,1163530.33551447,1828460.29840077,19.0,22.0,75.0,41.68492165752717,-87.6769898885491,"(41.68492165752717,-87.6769898885491)",2012-02-01
4182,02/01/2012,Completed - Dup,02/09/2012,12-00144432,Street Light - 1/Out,7900 S DOBSON AVE,60619.0,1184591.93059355,1852838.18318767,8.0,6.0,44.0,41.75135126488749,-87.5991283450228,"(41.75135126488749,-87.59912834502282)",2012-02-01
4183,02/01/2012,Completed - Dup,02/10/2012,12-00139478,Street Light - 1/Out,8014 S BURNHAM AVE,60617.0,1196230.12170728,1852370.61702105,7.0,4.0,46.0,41.749787785119736,-87.55649631788759,"(41.749787785119736,-87.55649631788759)",2012-02-01
4184,02/01/2012,Completed - Dup,02/10/2012,12-00139607,Street Light - 1/Out,6809 N DOWAGIAC AVE,60646.0,1138624.8697813,1944666.45099116,41.0,16.0,12.0,42.00429309925956,-87.76535048036881,"(42.00429309925956,-87.76535048036882)",2012-02-01
4185,02/01/2012,Completed - Dup,02/10/2012,12-00139993,Street Light - 1/Out,5818 N ST LOUIS AVE,60659.0,1151996.39208331,1938435.29288717,39.0,17.0,13.0,41.98694052654581,-87.7163212143328,"(41.98694052654581,-87.7163212143328)",2012-02-01
4186,02/01/2012,Completed - Dup,02/10/2012,12-00143985,Street Light - 1/Out,11553 S ELIZABETH ST,60643.0,1170069.10672281,1828161.23892006,34.0,5.0,53.0,41.683961792635294,-87.65306175586225,"(41.6839617926353,-87.65306175586225)",2012-02-01
4187,02/01/2012,Completed - Dup,02/10/2012,12-00144500,Street Light - 1/Out,313 N HOMAN AVE,60624.0,1153659.58617079,1901933.01637756,28.0,11.0,27.0,41.886742453768676,-87.71117826125567,"(41.88674245376867,-87.71117826125565)",2012-02-01
4188,02/01/2012,Completed - Dup,02/13/2012,12-00139350,Street Light - 1/Out,3016 W MEDILL AVE,60647.0,1155878.97947499,1915452.49790158,35.0,14.0,22.0,41.9237966466056,-87.70266302411217,"(41.923796646605595,-87.70266302411217)",2012-02-01
4189,02/01/2012,Completed - Dup,02/14/2012,12-00144366,Street Light - 1/Out,5429 W BYRON ST,60641.0,1139462.89001171,1925418.89000046,38.0,16.0,15.0,41.9514609077222,-87.76273903739296,"(41.9514609077222,-87.76273903739295)",2012-02-01
4190,02/01/2012,Completed - Dup,02/15/2012,12-00144333,Street Light - 1/Out,1314 N WALLER AVE,60651.0,1138103.40412081,1908177.67577162,29.0,25.0,25.0,41.904173863538226,-87.76815430955475,"(41.904173863538226,-87.76815430955475)",2012-02-01
4191,02/01/2012,Completed - Dup,02/16/2012,12-00144449,Street Light - 1/Out,1315 E 71ST PL,60619.0,1186217.93289125,1857852.62932586,5.0,3.0,43.0,41.76507315007166,-87.59301178213042,"(41.76507315007166,-87.59301178213042)",2012-02-01
4192,02/01/2012,Completed - Dup,02/17/2012,12-00139300,Street Light - 1/Out,10722 S AVENUE F,60617.0,1203504.73080269,1834472.79552238,10.0,4.0,52.0,41.700491585713465,-87.53045146182917,"(41.700491585713465,-87.53045146182917)",2012-02-01
4193,02/01/2012,Completed - Dup,02/17/2012,12-00142052,Street Light - 1/Out,6112 S KILDARE AVE,60629.0,1148752.50122857,1863726.40427009,13.0,8.0,65.0,41.78199456144175,-87.73018366510031,"(41.78199456144175,-87.73018366510031)",2012-02-01
4194,02/01/2012,Completed - Dup,02/17/2012,12-00144073,Street Light - 1/Out,7157 S FRANCISCO AVE,60629.0,1158277.04831954,1857036.79672435,18.0,8.0,66.0,41.763448655997095,-87.69544578059498,"(41.763448655997095,-87.69544578059498)",2012-02-01
4195,02/01/2012,Completed - Dup,02/17/2012,12-00144457,Street Light - 1/Out,7430 S PERRY AVE,60621.0,1176680.74269161,1855723.9943945,6.0,7.0,69.0,41.759451866895105,-87.62803208966558,"(41.75945186689511,-87.62803208966558)",2012-02-01
4196,02/01/2012,Completed - Dup,02/20/2012,12-00140569,Street Light - 1/Out,5906 W CORNELIA AVE,60634.0,1136378.55860764,1922667.77140461,38.0,16.0,15.0,41.94396734512015,-87.77414312252344,"(41.94396734512015,-87.77414312252344)",2012-02-01
4197,02/01/2012,Completed - Dup,02/20/2012,12-00144488,Street Light - 1/Out,6014 N KEDVALE AVE,60646.0,1147592.16958366,1939644.55439702,39.0,17.0,12.0,41.99034473946036,-87.7324889419853,"(41.990344739460355,-87.7324889419853)",2012-02-01
4198,02/01/2012,Completed - Dup,02/21/2012,12-00140506,Street Light - 1/Out,4929 W WARWICK AVE,60641.0,1142818.91311803,1924479.29418611,45.0,16.0,15.0,41.94882059756871,-87.75042571203258,"(41.94882059756871,-87.7504257120326)",2012-02-01
4199,02/01/2012,Completed - Dup,02/21/2012,12-00144033,Street Light - 1/Out,2331 N MOBILE AVE,60639.0,1134026.31379728,1914820.99940428,29.0,25.0,19.0,41.92247669584221,-87.78297419690081,"(41.922476695842214,-87.78297419690082)",2012-02-01
4200,02/01/2012,Completed - Dup,02/23/2012,12-00144686,Street Light - 1/Out,1026 N LAWNDALE AVE,60651.0,1151526.27210708,1906589.93648457,27.0,11.0,23.0,41.89956369065029,-87.7188899314441,"(41.89956369065029,-87.7188899314441)",2012-02-01
4201,02/01/2012,Completed - Dup,02/27/2012,12-00139962,Street Light - 1/Out,5049 N RUTHERFORD AVE,60656.0,1130585.11572335,1933249.72987349,41.0,16.0,10.0,41.973107107921976,-87.79519332962917,"(41.973107107921976,-87.79519332962917)",2012-02-01
4202,02/01/2012,Completed - Dup,02/27/2012,12-00141207,Street Light - 1/Out,5340 W PATTERSON AVE,60641.0,1140110.02722363,1923751.2966046,38.0,16.0,15.0,41.94687302530371,-87.76040112104626,"(41.94687302530371,-87.76040112104626)",2012-02-01
4203,02/01/2012,Completed - Dup,03/03/2012,12-00140391,Street Light - 1/Out,6620 S BELL AVE,60636.0,1162543.24367072,1860687.03128042,15.0,8.0,66.0,41.773377532527434,-87.67970754947257,"(41.773377532527434,-87.67970754947257)",2012-02-01
4204,02/01/2012,Completed - Dup,03/12/2012,12-00139320,Street Light - 1/Out,8800 S WABASH AVE,60619.0,1178249.29147898,1846663.98430635,6.0,6.0,44.0,41.7345546966201,-87.62255772009979,"(41.7345546966201,-87.6225577200998)",2012-02-01
4205,02/01/2012,Completed - Dup,03/12/2012,12-00141736,Street Light - 1/Out,8829 S WABASH AVE,60619.0,1178255.09147898,1846467.18430635,6.0,6.0,44.0,41.73401452154974,-87.62254242590187,"(41.73401452154974,-87.62254242590188)",2012-02-01
4206,02/01/2012,Completed - Dup,03/16/2012,12-00144403,Street Light - 1/Out,7100 W STRONG ST,60656.0,1127970.42647313,1932134.32516894,41.0,16.0,10.0,41.970090987984726,-87.80483362130535,"(41.97009098798473,-87.80483362130535)",2012-02-01
4207,02/01/2012,Completed - Dup,03/19/2012,12-00142349,Street Light - 1/Out,7359 S MAPLEWOOD AVE,60629.0,1160649.71622625,1855763.25031852,18.0,8.0,66.0,41.75990524451977,-87.68678449763075,"(41.75990524451977,-87.68678449763075)",2012-02-01
4208,02/01/2012,Completed,02/01/2012,12-00140078,Street Light - 1/Out,10 N STATE ST,60602.0,1176373.69122814,1900435.10989122,42.0,1.0,32.0,41.88214992375756,-87.62781189594071,"(41.88214992375756,-87.6278118959407)",2012-02-01
4209,02/01/2012,Completed,02/01/2012,12-00140081,Street Light - 1/Out,20 N STATE ST,60602.0,1176371.59122814,1900478.90989122,42.0,1.0,32.0,41.88227016079927,-87.62781828485682,"(41.882270160799266,-87.62781828485682)",2012-02-01
4210,02/01/2012,Completed,02/01/2012,12-00140082,Street Light - 1/Out,11 N STATE ST,60602.0,1176373.49122814,1900439.50989122,42.0,1.0,32.0,41.88216200211739,-87.62781249750805,"(41.88216200211739,-87.62781249750805)",2012-02-01
4211,02/01/2012,Completed,02/01/2012,12-00140086,Street Light - 1/Out,21 N STATE ST,60602.0,1176371.29122814,1900483.20989122,42.0,1.0,32.0,41.88228196700907,-87.62781925664129,"(41.88228196700907,-87.6278192566413)",2012-02-01
4212,02/01/2012,Completed,02/01/2012,12-00140089,Street Light - 1/Out,29 N STATE ST,60602.0,1176369.59122814,1900518.20989122,42.0,1.0,32.0,41.88237804732921,-87.62782444243825,"(41.88237804732921,-87.62782444243825)",2012-02-01
4213,02/01/2012,Completed,02/01/2012,12-00143493,Street Light - 1/Out,6611 S MARSHFIELD AVE,60636.0,1166464.87008682,1860868.74031781,15.0,7.0,67.0,41.77379347775122,-87.66532656432014,"(41.77379347775122,-87.66532656432014)",2012-02-01
4214,02/01/2012,Completed,02/01/2012,12-00143536,Street Light - 1/Out,6415 S MARSHFIELD AVE,60636.0,1166426.74568708,1862168.38148752,15.0,7.0,67.0,41.77736067345091,-87.66542931935112,"(41.77736067345091,-87.66542931935113)",2012-02-01
4215,02/01/2012,Completed,02/01/2012,12-00144673,Street Light - 1/Out,6635 S MARSHFIELD AVE,60636.0,1166471.67008682,1860708.04031781,15.0,7.0,67.0,41.77335235111785,-87.66530621275196,"(41.77335235111785,-87.66530621275196)",2012-02-01
4216,02/01/2012,Completed,02/03/2012,12-00140095,Street Light - 1/Out,1 N STATE ST,60602.0,1176375.59122814,1900395.80989122,42.0,1.0,32.0,41.882042039478925,-87.62780610559203,"(41.88204203947892,-87.62780610559201)",2012-02-01
4217,02/01/2012,Completed,02/03/2012,12-00142193,Street Light - 1/Out,8401 S HERMITAGE AVE,60620.0,1166141.48686989,1848982.16473259,18.0,6.0,71.0,41.74118195515124,-87.6668495992363,"(41.74118195515124,-87.6668495992363)",2012-02-01
4218,02/01/2012,Completed,02/03/2012,12-00143359,Street Light - 1/Out,5615 N SACRAMENTO AVE,60659.0,1155350.14001351,1937159.57160475,40.0,20.0,2.0,41.9833729216423,-87.70402050012328,"(41.9833729216423,-87.70402050012328)",2012-02-01
4219,02/01/2012,Completed,02/03/2012,12-00144248,Street Light - 1/Out,3417 W MADISON ST,60624.0,1153600.01289132,1899807.61162058,28.0,11.0,27.0,41.880911311219954,-87.71145359111868,"(41.88091131121995,-87.71145359111868)",2012-02-01
4220,02/01/2012,Completed,02/06/2012,12-00139975,Street Light - 1/Out,2900 N MEADE AVE,60634.0,1135231.06632624,1918639.09537624,29.0,25.0,19.0,41.93293268388923,-87.77845669847807,"(41.93293268388923,-87.77845669847808)",2012-02-01
4221,02/01/2012,Completed,02/06/2012,12-00142383,Street Light - 1/Out,5749 W WILSON AVE,60630.0,1137181.19242182,1930004.01349347,38.0,16.0,15.0,41.9640843060414,-87.77101602997016,"(41.9640843060414,-87.77101602997014)",2012-02-01
4222,02/01/2012,Completed,02/06/2012,12-00144107,Street Light - 1/Out,5331 N CANFIELD AVE,60656.0,1122654.47482158,1934553.51022247,41.0,16.0,10.0,41.976817826088315,-87.82432823060543,"(41.97681782608831,-87.82432823060543)",2012-02-01
4223,02/01/2012,Completed,02/06/2012,12-00144253,Street Light - 1/Out,151 N LEAMINGTON AVE,60644.0,1142024.05962486,1900523.50726805,28.0,15.0,25.0,41.88309813042352,-87.75394238078144,"(41.88309813042352,-87.75394238078144)",2012-02-01
4224,02/01/2012,Completed,02/06/2012,12-00144348,Street Light - 1/Out,10858 S ALBANY AVE,60655.0,1157595.29103421,1832452.9565182999,19.0,22.0,74.0,41.69600029021622,-87.69860902134907,"(41.69600029021622,-87.69860902134906)",2012-02-01
4225,02/01/2012,Completed,02/07/2012,12-00140005,Street Light - 1/Out,1312 W ARDMORE AVE,60660.0,1166352.66979003,1938968.51300672,48.0,20.0,77.0,41.98810774688045,-87.66350333666011,"(41.98810774688045,-87.66350333666013)",2012-02-01
4226,02/01/2012,Completed,02/07/2012,12-00143121,Street Light - 1/Out,5300 W FULLERTON AVE,60639.0,1140653.86038971,1915446.91768616,31.0,25.0,19.0,41.92407497908631,-87.75860675223781,"(41.924074979086306,-87.75860675223781)",2012-02-01
4227,02/01/2012,Completed,02/07/2012,12-00143348,Street Light - 1/Out,4749 S WESTERN AVE,60609.0,1161172.27989449,1873036.81002805,12.0,9.0,61.0,41.807295445300696,-87.68439149400065,"(41.807295445300696,-87.68439149400064)",2012-02-01
4228,02/01/2012,Completed,02/08/2012,12-00140000,Street Light - 1/Out,5064 N WOLCOTT AVE,60640.0,1162908.72119402,1933550.58630624,47.0,20.0,4.0,41.97331397065293,-87.67632328498723,"(41.97331397065293,-87.67632328498723)",2012-02-01
4229,02/01/2012,Completed,02/08/2012,12-00140776,Street Light - 1/Out,3811 W 80TH ST,60652.0,1152372.09239105,1851270.64556997,18.0,8.0,70.0,41.747743503293,-87.71724022484388,"(41.747743503292995,-87.71724022484389)",2012-02-01
4230,02/01/2012,Completed,02/08/2012,12-00141328,Street Light - 1/Out,5201 S RIDGEWAY AVE,60632.0,1152252.51766618,1869869.20300638,23.0,8.0,62.0,41.79878323534684,-87.71719013354065,"(41.79878323534684,-87.71719013354064)",2012-02-01
4231,02/01/2012,Completed,02/09/2012,12-00141385,Street Light - 1/Out,17 E GOETHE ST,60610.0,1176217.52522026,1909061.04138775,43.0,18.0,8.0,41.905823440871615,-87.62812499295465,"(41.90582344087162,-87.62812499295465)",2012-02-01
4232,02/01/2012,Completed,02/09/2012,12-00143883,Street Light - 1/Out,1441 W FARWELL AVE,60626.0,1165419.86987788,1945727.15209931,49.0,24.0,1.0,42.00667357962036,-87.66674071866396,"(42.00667357962036,-87.66674071866397)",2012-02-01
4233,02/01/2012,Completed,02/09/2012,12-00144222,Street Light - 1/Out,8000 S PRAIRIE AVE,60619.0,1179420.51372117,1852023.55309231,6.0,6.0,44.0,41.749235362605724,-87.61810371738613,"(41.74923536260573,-87.61810371738613)",2012-02-01
4234,02/01/2012,Completed,02/11/2012,12-00144478,Street Light - 1/Out,6135 S MASSASOIT AVE,60638.0,1139121.01649435,1863299.43091918,13.0,8.0,64.0,41.78100283563785,-87.76550619034714,"(41.78100283563785,-87.76550619034714)",2012-02-01
4235,02/01/2012,Completed,02/13/2012,12-00139481,Street Light - 1/Out,8951 S PARNELL AVE,60620.0,1174202.45586823,1845584.02508013,21.0,22.0,71.0,41.73168189823637,-87.63741546286091,"(41.73168189823637,-87.63741546286091)",2012-02-01
4236,02/01/2012,Completed,02/14/2012,12-00139980,Street Light - 1/Out,5800 W SUPERIOR ST,60644.0,1137596.84980662,1904412.81240658,29.0,15.0,25.0,41.89385175519393,-87.7701058360065,"(41.89385175519393,-87.77010583600648)",2012-02-01
4237,02/01/2012,Completed,02/15/2012,12-00144052,Street Light - 1/Out,9360 S BURNSIDE AVE,60619.0,1182341.83008174,1842727.50527141,9.0,6.0,49.0,41.72365881105602,-87.60768617992929,"(41.723658811056026,-87.60768617992929)",2012-02-01
4238,02/01/2012,Completed,02/15/2012,12-00144092,Street Light - 1/Out,9700 S FOREST AVE,60628.0,1179960.05598389,1840720.96672885,6.0,5.0,49.0,41.71820737745869,-87.61647159989397,"(41.71820737745869,-87.61647159989397)",2012-02-01
4239,02/01/2012,Completed,02/16/2012,12-00139476,Street Light - 1/Out,1901 E 73RD ST,60649.0,1189981.59821984,1856940.93919709,5.0,3.0,43.0,41.76248167746697,-87.57924635173917,"(41.76248167746698,-87.57924635173917)",2012-02-01
4240,02/01/2012,Completed,02/16/2012,12-00139978,Street Light - 1/Out,4736 N MENARD AVE,60630.0,1136813.07598996,1931022.4241298,45.0,16.0,15.0,41.966885540907896,-87.7723449893805,"(41.9668855409079,-87.77234498938049)",2012-02-01
4241,02/01/2012,Completed,02/17/2012,12-00141600,Street Light - 1/Out,10333 S BENSLEY AVE,60617.0,1194512.92971831,1836961.29800294,10.0,4.0,51.0,41.70754560079091,-87.56329384968667,"(41.70754560079091,-87.56329384968669)",2012-02-01
4242,02/01/2012,Completed,02/20/2012,12-00144273,Street Light - 1/Out,6245 N KEELER AVE,60646.0,1147239.6530007,1941134.49709539,39.0,17.0,12.0,41.99444001310682,-87.73374721353834,"(41.99444001310682,-87.73374721353834)",2012-02-01
4243,02/01/2012,Completed,02/23/2012,12-00139997,Street Light - 1/Out,2600 W ESTES AVE,60645.0,1157736.13241542,1947014.37922545,50.0,24.0,2.0,42.01036645975444,-87.69497505337665,"(42.01036645975444,-87.69497505337665)",2012-02-01
4244,02/01/2012,Completed,02/23/2012,12-00140009,Street Light - 1/Out,1310 W GRACE ST,60613.0,1166842.4549181003,1925451.42856912,44.0,19.0,6.0,41.95100588034952,-87.66209139795235,"(41.95100588034952,-87.66209139795234)",2012-02-01
4245,02/01/2012,Completed,02/27/2012,12-00140541,Street Light - 1/Out,5340 W PATTERSON AVE,60641.0,1140110.02722363,1923751.2966046,38.0,16.0,15.0,41.94687302530371,-87.76040112104626,"(41.94687302530371,-87.76040112104626)",2012-02-01
4246,02/01/2012,Completed,02/27/2012,12-00142989,Street Light - 1/Out,5345 S TALMAN AVE,60632.0,1159612.12608531,1869118.54331382,14.0,9.0,63.0,41.79657539569148,-87.69022123425927,"(41.79657539569148,-87.69022123425927)",2012-02-01
4247,02/01/2012,Completed,02/27/2012,12-00143245,Street Light - 1/Out,5363 S MAPLEWOOD AVE,60632.0,1160283.90753049,1868913.61352189,14.0,9.0,63.0,41.795999223607936,-87.68776337910545,"(41.795999223607936,-87.68776337910545)",2012-02-01
4248,02/01/2012,Completed,02/29/2012,12-00144270,Street Light - 1/Out,9702 S SANGAMON ST,60643.0,1171692.74108189,1840411.56763195,21.0,22.0,73.0,41.71754325186959,-87.64676064844333,"(41.71754325186959,-87.64676064844335)",2012-02-01
4249,02/01/2012,Completed,03/08/2012,12-00140870,Street Light - 1/Out,10201 S EBERHART AVE,60628.0,1181378.27759824,1837434.31028686,9.0,5.0,49.0,41.709155851560176,-87.61137816051505,"(41.709155851560176,-87.61137816051505)",2012-02-01
4250,02/01/2012,Completed,03/08/2012,12-00141906,Street Light - 1/Out,501 W 18TH ST,60616.0,1173407.57068376,1891488.00673029,25.0,12.0,31.0,41.85766485432372,-87.63896913428744,"(41.85766485432372,-87.63896913428744)",2012-02-01
4251,02/01/2012,Completed,03/13/2012,12-00139985,Street Light - 1/Out,3152 N RIDGEWAY AVE,60618.0,1150941.52989966,1920668.33416887,30.0,25.0,21.0,41.9382075547263,-87.72066828196994,"(41.9382075547263,-87.72066828196994)",2012-02-01
4252,02/01/2012,Completed,03/15/2012,12-00140011,Street Light - 1/Out,978 W 19TH ST,60608.0,1170122.919921,1891100.21187822,25.0,12.0,31.0,41.85667297293878,-87.6510369890902,"(41.85667297293878,-87.6510369890902)",2012-02-01
4253,02/01/2012,Completed,03/16/2012,12-00139328,Street Light - 1/Out,300 E WACKER DR,60601.0,1178307.38047035,1902572.1000208,42.0,1.0,32.0,41.887970091597374,-87.62064631258734,"(41.887970091597374,-87.62064631258733)",2012-02-01
4254,02/01/2012,Completed,03/26/2012,12-00139967,Street Light - 1/Out,5000 N NEENAH AVE,60656.0,1131899.15707431,1932858.4567145,41.0,16.0,10.0,41.97201066378061,-87.7903703366139,"(41.97201066378061,-87.7903703366139)",2012-02-01
4255,02/01/2012,Completed,05/15/2012,12-00140427,Street Light - 1/Out,6559 S BELL AVE,60636.0,1162532.3868987,1861109.01991508,15.0,8.0,66.0,41.77453575391121,-87.67973559165002,"(41.77453575391121,-87.67973559165002)",2012-02-01
4323,02/02/2012,Completed - Dup,02/03/2012,12-00144754,Street Light - 1/Out,7600 S COLES AVE,60649.0,1196127.63123099,1855386.497193,7.0,4.0,43.0,41.75806612145551,-87.55677212654885,"(41.75806612145551,-87.55677212654885)",2012-02-02
4324,02/02/2012,Completed - Dup,02/03/2012,12-00144768,Street Light - 1/Out,1500 S ALBANY AVE,60623.0,1155951.02557456,1892689.41003232,24.0,10.0,29.0,41.86133115552714,-87.7030127369879,"(41.86133115552714,-87.70301273698789)",2012-02-02
4325,02/02/2012,Completed - Dup,02/03/2012,12-00146331,Street Light - 1/Out,6214 W BALMORAL AVE,60630.0,1133673.0306308998,1935521.30977233,45.0,16.0,11.0,41.979286746158216,-87.78378459041195,"(41.97928674615822,-87.78378459041195)",2012-02-02
4326,02/02/2012,Completed - Dup,02/03/2012,12-00147139,Street Light - 1/Out,2201 W 118TH ST,60643.0,1163766.3944791001,1826394.8993659,19.0,22.0,75.0,41.67924889265401,-87.67618340457778,"(41.67924889265401,-87.67618340457778)",2012-02-02
4327,02/02/2012,Completed - Dup,02/03/2012,12-00148059,Street Light - 1/Out,1909 N NEW ENGLAND AVE,60707.0,1130123.65207087,1911934.34328768,36.0,25.0,25.0,41.914623181207425,-87.79738035748522,"(41.91462318120742,-87.79738035748522)",2012-02-02
4328,02/02/2012,Completed - Dup,02/03/2012,12-00149974,Street Light - 1/Out,7930 S ABERDEEN ST,60620.0,1170359.63533354,1852221.57173006,17.0,6.0,71.0,41.74998064028196,-87.6513004981823,"(41.74998064028196,-87.6513004981823)",2012-02-02
4329,02/02/2012,Completed - Dup,02/04/2012,12-00149957,Street Light - 1/Out,6849 S CALUMET AVE,60637.0,1179660.56597256,1859675.08248116,20.0,3.0,69.0,41.770226511727365,-87.61699059974987,"(41.770226511727365,-87.61699059974987)",2012-02-02
4330,02/02/2012,Completed - Dup,02/04/2012,12-00149959,Street Light - 1/Out,6833 S CALUMET AVE,60637.0,1179657.56597256,1859781.98248116,20.0,3.0,69.0,41.770519924959366,-87.61699833276981,"(41.770519924959366,-87.61699833276981)",2012-02-02
4331,02/02/2012,Completed - Dup,02/05/2012,12-00145296,Street Light - 1/Out,3242 W BELLE PLAINE AVE,60618.0,1153931.28011677,1927073.63711131,33.0,17.0,16.0,41.95572500141584,-87.70950891713416,"(41.955725001415836,-87.70950891713416)",2012-02-02
4332,02/02/2012,Completed - Dup,02/05/2012,12-00146461,Street Light - 1/Out,3405 W BELLE PLAINE AVE,60618.0,1152932.586685,1927053.49231755,33.0,17.0,16.0,41.955689613051796,-87.7131808892214,"(41.955689613051796,-87.7131808892214)",2012-02-02
4333,02/02/2012,Completed - Dup,02/05/2012,12-00150060,Street Light - 1/Out,3246 W BELLE PLAINE AVE,60618.0,1153911.88011677,1927073.53711131,33.0,17.0,16.0,41.95572511450447,-87.70958023881956,"(41.95572511450447,-87.70958023881957)",2012-02-02
4334,02/02/2012,Completed - Dup,02/06/2012,12-00145056,Street Light - 1/Out,10548 S EBERHART AVE,60628.0,1181445.75331839,1835123.57811111,9.0,5.0,49.0,41.702813347390254,-87.61120201949447,"(41.70281334739026,-87.61120201949447)",2012-02-02
4335,02/02/2012,Completed - Dup,02/07/2012,12-00145073,Street Light - 1/Out,115 S MASON AVE,60644.0,1136851.44660958,1898913.09252808,29.0,15.0,25.0,41.878773196284044,-87.77297539799532,"(41.87877319628405,-87.77297539799532)",2012-02-02
4336,02/02/2012,Completed - Dup,02/07/2012,12-00145218,Street Light - 1/Out,5531 W EDMUNDS ST,60630.0,1138514.40760799,1932542.83878412,45.0,16.0,11.0,41.97102695494221,-87.76605231683494,"(41.97102695494221,-87.76605231683494)",2012-02-02
4337,02/02/2012,Completed - Dup,02/07/2012,12-00145953,Street Light - 1/Out,1525 E 68TH ST,60637.0,1187753.95012037,1860209.93658902,5.0,3.0,43.0,41.771505388994655,-87.58730696533921,"(41.77150538899466,-87.5873069653392)",2012-02-02
4338,02/02/2012,Completed - Dup,02/07/2012,12-00146592,Street Light - 1/Out,9233 S ESSEX AVE,60617.0,1194444.52169447,1844227.85758099,7.0,4.0,48.0,41.72748741258369,-87.56330635922383,"(41.72748741258369,-87.56330635922383)",2012-02-02
4339,02/02/2012,Completed - Dup,02/07/2012,12-00146651,Street Light - 1/Out,7841 S MORGAN ST,60620.0,1171004.66663227,1852829.83559331,17.0,6.0,71.0,41.75163574115728,-87.6489190946718,"(41.75163574115728,-87.6489190946718)",2012-02-02
4340,02/02/2012,Completed - Dup,02/07/2012,12-00146997,Street Light - 1/Out,12017 S ASHLAND AVE,60643.0,1167837.08197927,1825028.71007984,34.0,5.0,53.0,41.67541366639214,-87.66132194766908,"(41.67541366639214,-87.66132194766908)",2012-02-02
4341,02/02/2012,Completed - Dup,02/07/2012,12-00147172,Street Light - 1/Out,10809 S PEORIA ST,60643.0,1172238.68530103,1833127.72868608,34.0,22.0,75.0,41.6975433405565,-87.64497433542856,"(41.6975433405565,-87.64497433542857)",2012-02-02
4342,02/02/2012,Completed - Dup,02/07/2012,12-00147320,Street Light - 1/Out,1600 W BEVERLY GLEN PKWY,60643.0,1167270.18767391,1838686.62990574,19.0,22.0,72.0,41.7129053912434,-87.66300785775681,"(41.712905391243396,-87.66300785775682)",2012-02-02
4343,02/02/2012,Completed - Dup,02/07/2012,12-00149905,Street Light - 1/Out,8500 S WOODLAWN AVE,60619.0,1185719.96011436,1848752.28771407,8.0,4.0,45.0,41.740112661906565,-87.59512316975677,"(41.74011266190656,-87.59512316975677)",2012-02-02
4344,02/02/2012,Completed - Dup,02/07/2012,12-00149983,Street Light - 1/Out,2222 N GENEVA TER,60614.0,1171899.42679403,1915111.34989851,43.0,18.0,7.0,41.92252211006337,-87.64380807891743,"(41.92252211006337,-87.64380807891742)",2012-02-02
4345,02/02/2012,Completed - Dup,02/07/2012,12-00149994,Street Light - 1/Out,1540 E 68TH ST,60637.0,1187877.09220139,1860212.71630461,5.0,3.0,43.0,41.7715100847201,-87.58685548651529,"(41.771510084720106,-87.5868554865153)",2012-02-02
4346,02/02/2012,Completed - Dup,02/08/2012,12-00149807,Street Light - 1/Out,5518 W JACKSON BLVD,60644.0,1139779.49488284,1898127.20179783,29.0,15.0,25.0,41.8765636463567,-87.76224321229077,"(41.8765636463567,-87.76224321229077)",2012-02-02
4347,02/02/2012,Completed - Dup,02/08/2012,12-00150163,Street Light - 1/Out,5534 W CRYSTAL ST,60651.0,1139104.76563136,1907778.63701008,37.0,25.0,25.0,41.90306069077295,-87.76448571182723,"(41.90306069077295,-87.76448571182723)",2012-02-02
4348,02/02/2012,Completed - Dup,02/09/2012,12-00147334,Street Light - 1/Out,1700 W BEVERLY GLEN PKWY,60643.0,1166712.97237374,1838671.77207471,19.0,22.0,72.0,41.712876504986774,-87.66504898994448,"(41.71287650498677,-87.66504898994448)",2012-02-02
4349,02/02/2012,Completed - Dup,02/09/2012,12-00148503,Street Light - 1/Out,1036 N KEDVALE AVE,60651.0,1148527.54029034,1906589.96636708,37.0,11.0,23.0,41.89962218000132,-87.72990435254192,"(41.899622180001316,-87.72990435254192)",2012-02-02
4350,02/02/2012,Completed - Dup,02/09/2012,12-00150044,Street Light - 1/Out,6434 N SAYRE AVE,60631.0,1128897.82580477,1942551.62448946,41.0,16.0,10.0,41.99866132142621,-87.80118546600798,"(41.998661321426205,-87.80118546600798)",2012-02-02
4351,02/02/2012,Completed - Dup,02/09/2012,12-00150053,Street Light - 1/Out,4100 N KIMBALL AVE,60618.0,1152989.9866850001,1927056.29231755,33.0,17.0,16.0,41.95569615642666,-87.71296979864607,"(41.955696156426654,-87.71296979864606)",2012-02-02
4352,02/02/2012,Completed - Dup,02/10/2012,12-00150183,Street Light - 1/Out,11553 S ELIZABETH ST,60643.0,1170069.10672281,1828161.23892006,34.0,5.0,53.0,41.683961792635294,-87.65306175586225,"(41.6839617926353,-87.65306175586225)",2012-02-02
4353,02/02/2012,Completed - Dup,02/13/2012,12-00149555,Street Light - 1/Out,6620 W PALATINE AVE,60631.0,1131205.02000514,1941418.77002728,41.0,16.0,10.0,41.995513009749054,-87.79272415495008,"(41.995513009749054,-87.7927241549501)",2012-02-02
4354,02/02/2012,Completed - Dup,02/14/2012,12-00144777,Street Light - 1/Out,8417 S PEORIA ST,60620.0,1171771.83492743,1849026.29186922,21.0,6.0,71.0,41.741181533661425,-87.64621908942715,"(41.74118153366142,-87.64621908942716)",2012-02-02
4355,02/02/2012,Completed - Dup,02/14/2012,12-00149349,Street Light - 1/Out,5431 W BYRON ST,60641.0,1139449.29001171,1925418.59000046,38.0,16.0,15.0,41.95146033294432,-87.76278903871855,"(41.951460332944315,-87.76278903871854)",2012-02-02
4356,02/02/2012,Completed - Dup,02/14/2012,12-00149792,Street Light - 1/Out,9729 S AVENUE J,60617.0,1202451.91409228,1841223.41547147,10.0,4.0,52.0,41.719042695138825,-87.53407694424259,"(41.71904269513882,-87.5340769442426)",2012-02-02
4357,02/02/2012,Completed - Dup,02/14/2012,12-00149924,Street Light - 1/Out,2200 N MANGO AVE,60639.0,1137697.25369191,1914042.95012894,37.0,25.0,19.0,41.92027619771243,-87.76950459908579,"(41.92027619771244,-87.76950459908579)",2012-02-02
4358,02/02/2012,Completed - Dup,02/15/2012,12-00145110,Street Light - 1/Out,10250 S BELL AVE,60643.0,1163066.04960426,1836954.40130324,19.0,22.0,72.0,41.70824064995985,-87.67845310428898,"(41.70824064995985,-87.67845310428898)",2012-02-02
4359,02/02/2012,Completed - Dup,02/15/2012,12-00146009,Street Light - 1/Out,1636 N NAGLE AVE,60707.0,1133054.54010071,1910190.66709328,36.0,25.0,25.0,41.909787551716725,-87.78665330981796,"(41.909787551716725,-87.78665330981796)",2012-02-02
4360,02/02/2012,Completed - Dup,02/15/2012,12-00146402,Street Light - 1/Out,10250 S BELL AVE,60643.0,1163066.04960426,1836954.40130324,19.0,22.0,72.0,41.70824064995985,-87.67845310428898,"(41.70824064995985,-87.67845310428898)",2012-02-02
4361,02/02/2012,Completed - Dup,02/15/2012,12-00147245,Street Light - 1/Out,3714 W CORTLAND ST,60647.0,1151410.43627351,1912371.65396791,26.0,25.0,22.0,41.91543154703546,-87.71916334630266,"(41.91543154703546,-87.71916334630266)",2012-02-02
4362,02/02/2012,Completed - Dup,02/15/2012,12-00149931,Street Light - 1/Out,1314 N WALLER AVE,60651.0,1138103.40412081,1908177.67577162,29.0,25.0,25.0,41.904173863538226,-87.76815430955475,"(41.904173863538226,-87.76815430955475)",2012-02-02
4363,02/02/2012,Completed - Dup,02/15/2012,12-00150041,Street Light - 1/Out,7558 S CRANDON AVE,60649.0,1192848.80457304,1855295.7133685001,7.0,4.0,43.0,41.75789759444676,-87.56879140334169,"(41.75789759444676,-87.56879140334169)",2012-02-02
4364,02/02/2012,Completed - Dup,02/15/2012,12-00150172,Street Light - 1/Out,3414 N RIDGEWAY AVE,60618.0,1150788.14959553,1922439.94309339,30.0,17.0,21.0,41.94307199769804,-87.72118549541473,"(41.94307199769805,-87.72118549541474)",2012-02-02
4365,02/02/2012,Completed - Dup,02/16/2012,12-00145298,Street Light - 1/Out,1315 S CHRISTIANA AVE,60623.0,1154242.52839293,1893676.9312929001,24.0,10.0,29.0,41.86407527246065,-87.70925797952799,"(41.86407527246066,-87.70925797952798)",2012-02-02
4366,02/02/2012,Completed - Dup,02/16/2012,12-00146019,Street Light - 1/Out,7917 S CRANDON AVE,60617.0,1192904.42472995,1852924.16867466,7.0,4.0,46.0,41.751388526982154,-87.56866481533329,"(41.751388526982154,-87.56866481533328)",2012-02-02
4367,02/02/2012,Completed - Dup,02/16/2012,12-00146092,Street Light - 1/Out,5706 W EASTWOOD AVE,60630.0,1137459.45256785,1930343.53407866,45.0,16.0,15.0,41.96501096627006,-87.7699847270784,"(41.96501096627006,-87.7699847270784)",2012-02-02
4368,02/02/2012,Completed - Dup,02/16/2012,12-00146128,Street Light - 1/Out,5705 W EASTWOOD AVE,60630.0,1137466.15256785,1930343.73407866,38.0,16.0,15.0,41.96501139420477,-87.7699600876054,"(41.96501139420477,-87.76996008760541)",2012-02-02
4369,02/02/2012,Completed - Dup,02/16/2012,12-00148486,Street Light - 1/Out,5533 W DAKIN ST,60641.0,1138756.70202038,1925703.58009265,38.0,16.0,15.0,41.952254996917375,-87.76532806935771,"(41.952254996917375,-87.76532806935771)",2012-02-02
4370,02/02/2012,Completed - Dup,02/16/2012,12-00150125,Street Light - 1/Out,6555 S ABERDEEN ST,60621.0,1170109.92160733,1861335.30399978,17.0,7.0,68.0,41.77499531487104,-87.65195101523237,"(41.77499531487104,-87.65195101523238)",2012-02-02
4371,02/02/2012,Completed - Dup,02/17/2012,12-00145168,Street Light - 1/Out,10727 S AVENUE F,60617.0,1203504.93080269,1834439.29552238,10.0,4.0,52.0,41.70039965385162,-87.53045187303404,"(41.70039965385162,-87.53045187303405)",2012-02-02
4372,02/02/2012,Completed - Dup,02/17/2012,12-00145559,Street Light - 1/Out,11919 S YALE AVE,60628.0,1176755.6278246,1825900.05520212,9.0,5.0,53.0,41.67760926538633,-87.6286522931937,"(41.67760926538633,-87.6286522931937)",2012-02-02
4373,02/02/2012,Completed - Dup,02/21/2012,12-00146584,Street Light - 1/Out,1478 S STATE ST,60605.0,1176570.82052671,1893243.31751488,2.0,1.0,33.0,41.86241075930522,-87.62730526058725,"(41.86241075930522,-87.62730526058725)",2012-02-02
4374,02/02/2012,Completed - Dup,02/21/2012,12-00150088,Street Light - 1/Out,2350 N MELVINA AVE,60639.0,1134697.10790872,1914586.72591321,29.0,25.0,19.0,41.92182198164795,-87.78051499654372,"(41.92182198164795,-87.78051499654372)",2012-02-02
4375,02/02/2012,Completed - Dup,02/23/2012,12-00146589,Street Light - 1/Out,1168 S PLYMOUTH CT,60605.0,1176218.7650038,1895373.25501494,2.0,1.0,32.0,41.86826338341178,-87.62853340506214,"(41.86826338341178,-87.62853340506214)",2012-02-02
4376,02/02/2012,Completed - Dup,02/27/2012,12-00150126,Street Light - 1/Out,319 W 112TH PL,60628.0,1176116.16277257,1830325.48182197,34.0,5.0,49.0,41.68976764230049,-87.63086085320688,"(41.68976764230049,-87.63086085320688)",2012-02-02
4377,02/02/2012,Completed - Dup,03/01/2012,12-00149978,Street Light - 1/Out,5100 W BYRON ST,60641.0,1141664.91159821,1925441.02280788,45.0,16.0,15.0,41.95148112758971,-87.75464380283032,"(41.95148112758971,-87.75464380283032)",2012-02-02
4378,02/02/2012,Completed - Dup,03/09/2012,12-00149909,Street Light - 1/Out,7217 S TALMAN AVE,60629.0,1159956.6038788,1856689.34201015,18.0,8.0,66.0,41.762460845322416,-87.68929936046358,"(41.762460845322416,-87.68929936046358)",2012-02-02
4379,02/02/2012,Completed - Dup,03/12/2012,12-00145293,Street Light - 1/Out,700 S CENTRAL AVE,60644.0,1139157.38967001,1896392.04966816,29.0,15.0,25.0,41.871813493990174,-87.76456963351325,"(41.87181349399017,-87.76456963351323)",2012-02-02
4380,02/02/2012,Completed - Dup,03/12/2012,12-00148290,Street Light - 1/Out,8829 S WABASH AVE,60619.0,1178255.09147898,1846467.18430635,6.0,6.0,44.0,41.73401452154974,-87.62254242590187,"(41.73401452154974,-87.62254242590188)",2012-02-02
4381,02/02/2012,Completed - Dup,03/24/2012,12-00150081,Street Light - 1/Out,4833 W HUTCHINSON ST,60641.0,1143386.71258242,1927818.24730508,45.0,16.0,15.0,41.95797236099608,-87.74825476585022,"(41.95797236099608,-87.74825476585022)",2012-02-02
4382,02/02/2012,Completed - Dup,03/27/2012,12-00147431,Street Light - 1/Out,1711 N NEW ENGLAND AVE,60707.0,1130162.07652766,1910618.67343366,36.0,25.0,25.0,41.911012153389976,-87.7972693992366,"(41.91101215338998,-87.79726939923661)",2012-02-02
4383,02/02/2012,Completed - Dup,03/28/2012,12-00149936,Street Light - 1/Out,2825 N NORMANDY AVE,60634.0,1131266.27462731,1918045.57243389,36.0,25.0,18.0,41.93137347551832,-87.79304097619783,"(41.93137347551832,-87.79304097619783)",2012-02-02
4384,02/02/2012,Completed - Dup,04/03/2012,12-00149954,Street Light - 1/Out,3750 N PAGE AVE,60634.0,1121745.772386,1923614.02879271,36.0,16.0,17.0,41.946813348702996,-87.82790730107065,"(41.946813348702996,-87.82790730107065)",2012-02-02
4385,02/02/2012,Completed,02/03/2012,12-00144745,Street Light - 1/Out,2433 W BALMORAL AVE,60625.0,1159011.27777958,1935781.95428513,40.0,20.0,4.0,41.979518074902586,-87.69059352543137,"(41.979518074902586,-87.69059352543137)",2012-02-02
4386,02/02/2012,Completed,02/03/2012,12-00145683,Street Light - 1/Out,261 W 24TH ST,60616.0,1174882.03178156,1888391.85201154,25.0,21.0,34.0,41.849135929593096,-87.63364963857923,"(41.84913592959309,-87.63364963857923)",2012-02-02
4387,02/02/2012,Completed,02/03/2012,12-00147030,Street Light - 1/Out,2633 S DRAKE AVE,60623.0,1153126.20076933,1886276.44809337,22.0,10.0,30.0,41.843789672735895,-87.71355209055152,"(41.843789672735895,-87.71355209055152)",2012-02-02
4388,02/02/2012,Completed,02/03/2012,12-00147108,Street Light - 1/Out,1242 N LARAMIE AVE,60651.0,1141469.27897819,1907878.07541295,37.0,25.0,25.0,41.903290207261016,-87.7557978092391,"(41.903290207261016,-87.7557978092391)",2012-02-02
4389,02/02/2012,Completed,02/03/2012,12-00150370,Street Light - 1/Out,6759 W DEVON AVE,60631.0,1130167.30673248,1941991.38679067,41.0,16.0,10.0,41.99710223509036,-87.79652826405943,"(41.99710223509036,-87.79652826405943)",2012-02-02
4390,02/02/2012,Completed,02/06/2012,12-00144890,Street Light - 1/Out,4900 N MULLIGAN AVE,60630.0,1132881.78039495,1932218.50477999,45.0,16.0,11.0,41.97023742746397,-87.78677202224978,"(41.97023742746397,-87.78677202224976)",2012-02-02
4391,02/02/2012,Completed,02/06/2012,12-00147252,Street Light - 1/Out,5528 N NATCHEZ AVE,60656.0,1132259.2800291001,1936483.88779102,41.0,16.0,10.0,41.981952921377356,-87.78896136356873,"(41.98195292137736,-87.78896136356873)",2012-02-02
4392,02/02/2012,Completed,02/06/2012,12-00147693,Street Light - 1/Out,4730 N KENTON AVE,60630.0,1144847.89456832,1931049.16380234,45.0,17.0,16.0,41.96681075405557,-87.7428010292505,"(41.96681075405557,-87.7428010292505)",2012-02-02
4393,02/02/2012,Completed,02/07/2012,12-00146439,Street Light - 1/Out,1531 W HOLLYWOOD AVE,60660.0,1164937.26349426,1937984.79008668,48.0,20.0,77.0,41.985438640768734,-87.66873737617102,"(41.985438640768734,-87.66873737617102)",2012-02-02
4394,02/02/2012,Completed,02/07/2012,12-00146612,Street Light - 1/Out,648 S PLYMOUTH CT,60605.0,1176162.91991772,1897452.39371205,2.0,1.0,32.0,41.87396992730343,-87.62867576177551,"(41.87396992730343,-87.62867576177551)",2012-02-02
4395,02/02/2012,Completed,02/07/2012,12-00148842,Street Light - 1/Out,4000 N WESTERN AVE,60618.0,1159659.64501828,1926492.05129768,47.0,19.0,5.0,41.95401274151831,-87.68846623692853,"(41.95401274151831,-87.68846623692855)",2012-02-02
4396,02/02/2012,Completed,02/07/2012,12-00149069,Street Light - 1/Out,6151 N WINTHROP AVE,60660.0,1167746.00333364,1940937.46577561,48.0,24.0,77.0,41.993480579005954,-87.65832148523613,"(41.993480579005954,-87.65832148523612)",2012-02-02
4397,02/02/2012,Completed,02/07/2012,12-00149592,Street Light - 1/Out,6642 W 64TH ST,60638.0,1133239.96921407,1861351.93847141,23.0,8.0,64.0,41.77576309395214,-87.78711315672312,"(41.77576309395214,-87.78711315672311)",2012-02-02
4398,02/02/2012,Completed,02/07/2012,12-00149913,Street Light - 1/Out,10330 S SACRAMENTO AVE,60655.0,1158089.44697307,1835989.4133916001,19.0,22.0,74.0,41.70569496438056,-87.69670400394898,"(41.705694964380555,-87.69670400394897)",2012-02-02
4399,02/02/2012,Completed,02/07/2012,12-00150127,Street Light - 1/Out,6600 S ABERDEEN ST,60621.0,1170118.02160733,1861040.90399978,17.0,7.0,68.0,41.774187269256075,-87.65192987288073,"(41.77418726925608,-87.65192987288074)",2012-02-02
4400,02/02/2012,Completed,02/10/2012,12-00149611,Street Light - 1/Out,2216 S MARSHALL BLVD,60623.0,1157048.48382603,1889136.09223301,12.0,10.0,30.0,41.851558284813954,-87.6990805165024,"(41.85155828481395,-87.69908051650239)",2012-02-02
4401,02/02/2012,Completed,02/13/2012,12-00148403,Street Light - 1/Out,8433 S MUSKEGON AVE,60617.0,1196621.28390719,1849603.09921232,10.0,4.0,46.0,41.742183804390336,-87.55515467859973,"(41.742183804390336,-87.55515467859973)",2012-02-02
4402,02/02/2012,Completed,02/14/2012,12-00145291,Street Light - 1/Out,4128 N MANGO AVE,60634.0,1137275.06881559,1926867.36639554,38.0,16.0,15.0,41.9554753571841,-87.77074658442898,"(41.955475357184106,-87.77074658442898)",2012-02-02
4403,02/02/2012,Completed,02/14/2012,12-00145292,Street Light - 1/Out,5808 W EDDY ST,60634.0,1137016.07559087,1923014.74302196,38.0,16.0,15.0,41.944908034508316,-87.77179150775439,"(41.944908034508316,-87.77179150775439)",2012-02-02
4404,02/02/2012,Completed,02/15/2012,12-00145107,Street Light - 1/Out,10240 S BELL AVE,60643.0,1163074.54960426,1836686.40130324,19.0,22.0,72.0,41.70750503534049,-87.67842944066506,"(41.707505035340496,-87.67842944066504)",2012-02-02
4405,02/02/2012,Completed,02/15/2012,12-00146035,Street Light - 1/Out,1440 N LINDER AVE,60651.0,1139411.69000557,1909040.53022825,37.0,25.0,25.0,41.90651788413556,-87.76332750134767,"(41.90651788413556,-87.76332750134767)",2012-02-02
4406,02/02/2012,Completed,02/15/2012,12-00149998,Street Light - 1/Out,5116 W WARWICK AVE,60641.0,1141586.2320941999,1924450.27389649,45.0,16.0,15.0,41.948763878730404,-87.75495760794094,"(41.94876387873041,-87.75495760794094)",2012-02-02
4407,02/02/2012,Completed,02/16/2012,12-00147433,Street Light - 1/Out,7401 S HARVARD AVE,60621.0,1175237.18988977,1855875.74257411,17.0,7.0,69.0,41.759900637848524,-87.63331812240715,"(41.75990063784852,-87.63331812240716)",2012-02-02
4408,02/02/2012,Completed,02/16/2012,12-00149916,Street Light - 1/Out,7700 S CALUMET AVE,60619.0,1179807.86158651,1854030.48548224,6.0,6.0,69.0,41.75473376567561,-87.61662307223378,"(41.75473376567561,-87.61662307223376)",2012-02-02
4409,02/02/2012,Completed,02/20/2012,12-00146411,Street Light - 1/Out,5614 N CLARK ST,60660.0,1164913.72179381,1937414.27697208,40.0,20.0,77.0,41.98387363647274,-87.66884023992773,"(41.98387363647274,-87.66884023992773)",2012-02-02
4410,02/02/2012,Completed,02/22/2012,12-00145290,Street Light - 1/Out,7631 W ADDISON ST,60634.0,1124441.91617513,1923062.95332499,36.0,16.0,17.0,41.94525707505104,-87.81800900357521,"(41.94525707505104,-87.8180090035752)",2012-02-02
4411,02/02/2012,Completed,02/22/2012,12-00150003,Street Light - 1/Out,114 E 119TH PL,60628.0,1179092.00971621,1825752.69811072,9.0,5.0,53.0,41.67715214173728,-87.62010489398214,"(41.677152141737274,-87.62010489398214)",2012-02-02
4412,02/02/2012,Completed,02/24/2012,12-00150132,Street Light - 1/Out,8361 S BURLEY AVE,60617.0,1199264.28892865,1850148.35682269,10.0,4.0,46.0,41.74361403668768,-87.54545266799049,"(41.743614036687674,-87.54545266799049)",2012-02-02
4413,02/02/2012,Completed,02/24/2012,12-00150308,Street Light - 1/Out,1 W 99TH ST,60628.0,1178036.89318939,1839293.18072188,9.0,5.0,49.0,41.714333068733104,-87.62355849472242,"(41.7143330687331,-87.62355849472242)",2012-02-02
4414,02/02/2012,Completed,02/28/2012,12-00148508,Street Light - 1/Out,8449 W LELAND AVE,60656.0,1118726.89477165,1930271.21919283,36.0,16.0,76.0,41.965129838165495,-87.83886291389669,"(41.965129838165495,-87.83886291389668)",2012-02-02
4415,02/02/2012,Completed,02/29/2012,12-00145055,Street Light - 1/Out,8100 S LANGLEY AVE,60619.0,1182303.08697249,1851447.41500613,6.0,6.0,44.0,41.747588138334386,-87.60755874352465,"(41.74758813833439,-87.60755874352465)",2012-02-02
4416,02/02/2012,Completed,02/29/2012,12-00148176,Street Light - 1/Out,9422 S SANGAMON ST,60620.0,1171641.98142787,1842268.85436637,21.0,22.0,73.0,41.72264102697316,-87.64689232110867,"(41.72264102697316,-87.64689232110867)",2012-02-02
4417,02/02/2012,Completed,03/01/2012,12-00144896,Street Light - 1/Out,1916 E 79TH ST,60649.0,1190240.38308066,1852968.9132807998,8.0,4.0,43.0,41.75157586708541,-87.57842562968047,"(41.75157586708541,-87.57842562968045)",2012-02-02
4418,02/02/2012,Completed,03/09/2012,12-00150192,Street Light - 1/Out,9100 S ST LAWRENCE AVE,60619.0,1181832.02572355,1844770.21802029,6.0,6.0,44.0,41.72927603739432,-87.60949062621755,"(41.729276037394314,-87.60949062621756)",2012-02-02
4419,02/02/2012,Completed,03/19/2012,12-00149360,Street Light - 1/Out,3816 N CHRISTIANA AVE,60618.0,1153378.47658688,1925175.40280468,35.0,17.0,16.0,41.950527140036385,-87.71159178086195,"(41.95052714003638,-87.71159178086195)",2012-02-02
4420,02/02/2012,Completed,04/01/2012,12-00149985,Street Light - 1/Out,511 W BELDEN AVE,60614.0,1172412.27001059,1915555.7693948003,43.0,18.0,7.0,41.92373028596428,-87.64191058200552,"(41.92373028596428,-87.64191058200551)",2012-02-02
4421,02/02/2012,Completed,04/10/2012,12-00145287,Street Light - 1/Out,3926 N PITTSBURGH AVE,60634.0,1120357.98608226,1925055.22931761,36.0,16.0,17.0,41.95079053032403,-87.8329776036352,"(41.95079053032403,-87.83297760363519)",2012-02-02
4511,02/03/2012,Completed - Dup,02/03/2012,12-00150627,Street Light - 1/Out,6742 N FRANCISCO AVE,60645.0,1155787.19342897,1944590.13391358,50.0,24.0,2.0,42.00375389343768,-87.70221168686454,"(42.003753893437676,-87.70221168686454)",2012-02-03
4512,02/03/2012,Completed - Dup,02/03/2012,12-00150846,Street Light - 1/Out,2306 N KIMBALL AVE,60647.0,1153324.73812609,1915152.54519523,26.0,14.0,22.0,41.92302471732963,-87.71205632432851,"(41.92302471732963,-87.71205632432851)",2012-02-03
4513,02/03/2012,Completed - Dup,02/03/2012,12-00151410,Street Light - 1/Out,100 E JACKSON DR,60604.0,1177339.54271824,1899032.66368812,42.0,1.0,32.0,41.878279690554685,-87.62430787802485,"(41.878279690554685,-87.62430787802485)",2012-02-03
4514,02/03/2012,Completed - Dup,02/04/2012,12-00152998,Street Light - 1/Out,10007 S EBERHART AVE,60628.0,1181341.21011709,1838722.33710135,9.0,5.0,49.0,41.712691215637776,-87.6114743615717,"(41.71269121563777,-87.61147436157168)",2012-02-03
4515,02/03/2012,Completed - Dup,02/05/2012,12-00150571,Street Light - 1/Out,5614 N ODELL AVE,60631.0,1126355.16998312,1936752.19370294,41.0,16.0,10.0,41.98279009390834,-87.81066952194976,"(41.98279009390834,-87.81066952194976)",2012-02-03
4516,02/03/2012,Completed - Dup,02/06/2012,12-00151209,Street Light - 1/Out,7015 W CARMEN AVE,60656.0,1128462.0807953002,1933458.65068339,41.0,16.0,10.0,41.97371673820693,-87.80299560193649,"(41.973716738206925,-87.8029956019365)",2012-02-03
4517,02/03/2012,Completed - Dup,02/06/2012,12-00151669,Street Light - 1/Out,2430 N MONTICELLO AVE,60647.0,1151639.31808986,1915910.53782537,35.0,25.0,22.0,41.925138055423474,-87.71822919393601,"(41.92513805542348,-87.718229193936)",2012-02-03
4518,02/03/2012,Completed - Dup,02/07/2012,12-00152445,Street Light - 1/Out,13230 S AVENUE M,60633.0,1201741.66178038,1817829.36340696,10.0,4.0,55.0,41.65486530869307,-87.53746988542099,"(41.65486530869307,-87.53746988542099)",2012-02-03
4519,02/03/2012,Completed - Dup,02/07/2012,12-00155804,Street Light - 1/Out,9416 S GREEN ST,60620.0,1172304.73817553,1842320.19040238,21.0,22.0,73.0,41.72276737275823,-87.64446322166542,"(41.72276737275823,-87.64446322166542)",2012-02-03
4520,02/03/2012,Completed - Dup,02/07/2012,12-00156369,Street Light - 1/Out,1300 W 111TH PL,60643.0,1169652.4011941003,1830832.54527025,34.0,22.0,75.0,41.6913013175175,-87.65451012809574,"(41.6913013175175,-87.65451012809575)",2012-02-03
4521,02/03/2012,Completed - Dup,02/08/2012,12-00150921,Street Light - 1/Out,5522 W JACKSON BLVD,60644.0,1139746.09488284,1898126.50179783,29.0,15.0,25.0,41.876562335241495,-87.76236586526484,"(41.876562335241495,-87.76236586526485)",2012-02-03
4522,02/03/2012,Completed - Dup,02/08/2012,12-00152424,Street Light - 1/Out,4231 N SPRINGFIELD AVE,60618.0,1149625.31972868,1927898.5970317002,39.0,17.0,16.0,41.95807367353282,-87.72531716703627,"(41.95807367353282,-87.72531716703627)",2012-02-03
4523,02/03/2012,Completed - Dup,02/08/2012,12-00152570,Street Light - 1/Out,3359 W 38TH PL,60632.0,1154601.79547377,1878871.58526582,12.0,9.0,58.0,41.823440458759976,-87.70833463478914,"(41.82344045875998,-87.70833463478914)",2012-02-03
4524,02/03/2012,Completed - Dup,02/08/2012,12-00155040,Street Light - 1/Out,5233 W 64TH PL,60638.0,1142563.19650693,1861218.54412602,13.0,8.0,64.0,41.77522945237718,-87.75293771038945,"(41.77522945237719,-87.75293771038943)",2012-02-03
4525,02/03/2012,Completed - Dup,02/09/2012,12-00152408,Street Light - 1/Out,17 E GOETHE ST,60610.0,1176217.52522026,1909061.04138775,43.0,18.0,8.0,41.905823440871615,-87.62812499295465,"(41.90582344087162,-87.62812499295465)",2012-02-03
4526,02/03/2012,Completed - Dup,02/09/2012,12-00155306,Street Light - 1/Out,5047 W FERDINAND ST,60644.0,1142545.99750582,1902802.17489718,28.0,15.0,25.0,41.88934138527957,-87.75196908488796,"(41.889341385279565,-87.75196908488796)",2012-02-03
4527,02/03/2012,Completed - Dup,02/09/2012,12-00156271,Street Light - 1/Out,200 W CHICAGO AVE,60654.0,1174590.43747521,1905684.94430267,27.0,18.0,8.0,41.89659580881185,-87.63420286764229,"(41.896595808811846,-87.63420286764229)",2012-02-03
4528,02/03/2012,Completed - Dup,02/10/2012,12-00154549,Street Light - 1/Out,8424 S WABASH AVE,60619.0,1178178.72132755,1849163.11319941,6.0,6.0,44.0,41.741414211412746,-87.62274065926461,"(41.74141421141275,-87.62274065926461)",2012-02-03
4529,02/03/2012,Completed - Dup,02/10/2012,12-00155324,Street Light - 1/Out,5046 W KINZIE ST,60644.0,1142569.32988201,1902260.73270912,28.0,15.0,25.0,41.887855169031454,-87.75189687104782,"(41.887855169031454,-87.75189687104783)",2012-02-03
4530,02/03/2012,Completed - Dup,02/14/2012,12-00150477,Street Light - 1/Out,5830 W SUPERIOR ST,60644.0,1137419.24980662,1904409.11240658,29.0,15.0,25.0,41.89384479924792,-87.77075820160525,"(41.893844799247915,-87.77075820160523)",2012-02-03
4531,02/03/2012,Completed - Dup,02/14/2012,12-00153374,Street Light - 1/Out,4112 N MEADE AVE,60634.0,1134950.91527595,1926726.8277941002,38.0,16.0,15.0,41.9551312550166,-87.77929413559265,"(41.955131255016596,-87.77929413559266)",2012-02-03
4532,02/03/2012,Completed - Dup,02/15/2012,12-00152114,Street Light - 1/Out,3748 N PITTSBURGH AVE,60634.0,1120398.2096893,1923877.11259095,36.0,16.0,17.0,41.94755698298185,-87.83285502892645,"(41.94755698298185,-87.83285502892646)",2012-02-03
4533,02/03/2012,Completed - Dup,02/15/2012,12-00154696,Street Light - 1/Out,5116 W WARWICK AVE,60641.0,1141586.2320941999,1924450.27389649,45.0,16.0,15.0,41.948763878730404,-87.75495760794094,"(41.94876387873041,-87.75495760794094)",2012-02-03
4534,02/03/2012,Completed - Dup,02/16/2012,12-00156361,Street Light - 1/Out,7700 S CALUMET AVE,60619.0,1179807.86158651,1854030.48548224,6.0,6.0,69.0,41.75473376567561,-87.61662307223378,"(41.75473376567561,-87.61662307223376)",2012-02-03
4535,02/03/2012,Completed - Dup,02/20/2012,12-00152456,Street Light - 1/Out,13427 S GREEN BAY AVE,60633.0,1200761.47833378,1816538.67779949,10.0,4.0,55.0,41.651348300879725,-87.54109972463205,"(41.65134830087973,-87.54109972463205)",2012-02-03
4536,02/03/2012,Completed - Dup,02/21/2012,12-00150802,Street Light - 1/Out,2800 W DIVERSEY AVE,60647.0,1157229.59461954,1918486.81659225,35.0,14.0,21.0,41.93209567534913,-87.6976176655879,"(41.93209567534913,-87.6976176655879)",2012-02-03
4537,02/03/2012,Completed - Dup,02/23/2012,12-00155980,Street Light - 1/Out,521 W DIVERSEY PKWY,60614.0,1172305.91006613,1918879.75642813,43.0,23.0,7.0,41.93285380094533,-87.64220293817911,"(41.932853800945324,-87.64220293817911)",2012-02-03
4538,02/03/2012,Completed - Dup,03/01/2012,12-00155902,Street Light - 1/Out,5100 W BYRON ST,60641.0,1141664.91159821,1925441.02280788,45.0,16.0,15.0,41.95148112758971,-87.75464380283032,"(41.95148112758971,-87.75464380283032)",2012-02-03
4539,02/03/2012,Completed - Dup,03/08/2012,12-00153206,Street Light - 1/Out,818 W 21ST ST,60608.0,1171277.58528632,1890115.47990149,25.0,12.0,31.0,41.8539455328507,-87.64682767183054,"(41.8539455328507,-87.64682767183054)",2012-02-03
4540,02/03/2012,Completed - Dup,03/12/2012,12-00152513,Street Light - 1/Out,3346 N ODELL AVE,60634.0,1126504.57337856,1921358.61801899,36.0,16.0,17.0,41.94054589300347,-87.81046550226763,"(41.94054589300347,-87.81046550226762)",2012-02-03
4541,02/03/2012,Completed - Dup,03/14/2012,12-00153234,Street Light - 1/Out,1410 W 18TH ST,60608.0,1167211.19077687,1891513.2746145,25.0,12.0,31.0,41.85786944836689,-87.66171269710233,"(41.85786944836689,-87.66171269710235)",2012-02-03
4542,02/03/2012,Completed - Dup,03/22/2012,12-00153900,Street Light - 1/Out,1500 N WELLS ST,60610.0,1174432.12453148,1910261.59527712,27.0,18.0,8.0,41.90915790872622,-87.6346474135091,"(41.90915790872623,-87.6346474135091)",2012-02-03
4543,02/03/2012,Completed - Dup,03/28/2012,12-00153218,Street Light - 1/Out,1326 W 18TH ST,60608.0,1167744.7392254,1891528.77409518,25.0,12.0,31.0,41.857900510971405,-87.65975381200577,"(41.85790051097141,-87.65975381200577)",2012-02-03
4544,02/03/2012,Completed - Dup,03/28/2012,12-00153223,Street Light - 1/Out,1334 W 18TH ST,60608.0,1167703.0392254,1891527.57409518,25.0,12.0,31.0,41.85789811566696,-87.65990691030831,"(41.857898115666956,-87.65990691030831)",2012-02-03
4545,02/03/2012,Completed - Dup,03/28/2012,12-00153229,Street Light - 1/Out,1340 W 18TH ST,60608.0,1167671.7392254,1891526.67409518,25.0,12.0,31.0,41.85789631959261,-87.66002182579432,"(41.857896319592605,-87.66002182579432)",2012-02-03
4546,02/03/2012,Completed - Dup,03/28/2012,12-00156131,Street Light - 1/Out,5555 W CORTEZ ST,60651.0,1139043.15530106,1906451.22002765,37.0,15.0,25.0,41.899419219765065,-87.76474433874361,"(41.899419219765065,-87.76474433874361)",2012-02-03
4547,02/03/2012,Completed - Dup,03/29/2012,12-00155296,Street Light - 1/Out,544 N LAMON AVE,60644.0,1143594.67149455,1903273.87329268,37.0,15.0,25.0,41.890616219874886,-87.74810606124353,"(41.89061621987488,-87.74810606124353)",2012-02-03
4548,02/03/2012,Completed - Dup,03/29/2012,12-00155979,Street Light - 1/Out,814 N RIDGEWAY AVE,60651.0,1151239.21402281,1905174.18987768,27.0,11.0,23.0,41.895684377441455,-87.7199814778272,"(41.89568437744145,-87.7199814778272)",2012-02-03
4549,02/03/2012,Completed - Dup,04/03/2012,12-00152530,Street Light - 1/Out,3400 N ODELL AVE,60634.0,1126493.8643129,1921696.69418571,36.0,16.0,17.0,41.94147379453425,-87.81049728404938,"(41.94147379453425,-87.81049728404938)",2012-02-03
4550,02/03/2012,Completed,02/03/2012,12-00150410,Street Light - 1/Out,2358 W 74TH ST,60636.0,1161877.661881,1855530.36689821,18.0,8.0,66.0,41.75924076434335,-87.6822905099428,"(41.75924076434335,-87.6822905099428)",2012-02-03
4551,02/03/2012,Completed,02/07/2012,12-00152984,Street Light - 1/Out,4219 W GRENSHAW ST,60624.0,1148432.50163274,1894702.86116674,24.0,11.0,29.0,41.86700446533428,-87.73056010515344,"(41.86700446533428,-87.73056010515344)",2012-02-03
4552,02/03/2012,Completed,02/08/2012,12-00150805,Street Light - 1/Out,2320 W WINONA ST,60625.0,1159869.55986758,1934120.33488,47.0,20.0,4.0,41.97494080165524,-87.6874831877142,"(41.97494080165524,-87.68748318771418)",2012-02-03
4553,02/03/2012,Completed,02/10/2012,12-00153757,Street Light - 1/Out,3059 W 36TH PL,60632.0,1156564.18007182,1880264.83070583,12.0,9.0,58.0,41.827224299782756,-87.70109770635733,"(41.827224299782756,-87.70109770635733)",2012-02-03
4554,02/03/2012,Completed,02/10/2012,12-00155835,Street Light - 1/Out,2743 W 23RD PL,60608.0,1158443.45361444,1888283.35378192,12.0,10.0,30.0,41.8491898898855,-87.69398392071095,"(41.8491898898855,-87.69398392071093)",2012-02-03
4555,02/03/2012,Completed,02/10/2012,12-00155839,Street Light - 1/Out,2300 S CALIFORNIA AVE,60608.0,1158055.70012367,1888604.80171295,12.0,10.0,30.0,41.85007989144143,-87.6953982590793,"(41.85007989144143,-87.6953982590793)",2012-02-03
4556,02/03/2012,Completed,02/10/2012,12-00156311,Street Light - 1/Out,4314 S HERMITAGE AVE,60609.0,1165400.02986658,1876088.99477605,12.0,9.0,61.0,41.815582342478784,-87.66879875388643,"(41.815582342478784,-87.66879875388643)",2012-02-03
4557,02/03/2012,Completed,02/11/2012,12-00151864,Street Light - 1/Out,4607 W 59TH ST,60629.0,1146668.46082608,1865053.80751091,13.0,8.0,64.0,41.785677033453666,-87.73779070734804,"(41.78567703345367,-87.73779070734804)",2012-02-03
4558,02/03/2012,Completed,02/13/2012,12-00156081,Street Light - 1/Out,11600 S STATE ST,60628.0,1178338.66772121,1827711.39941193,34.0,5.0,53.0,41.68254419179443,-87.6228032094657,"(41.68254419179442,-87.6228032094657)",2012-02-03
4559,02/03/2012,Completed,02/14/2012,12-00154057,Street Light - 1/Out,5299 N LORING AVE,60630.0,1138401.93312349,1934773.10417608,45.0,16.0,11.0,41.97714903825293,-87.76641163096858,"(41.97714903825294,-87.76641163096858)",2012-02-03
4560,02/03/2012,Completed,02/15/2012,12-00150812,Street Light - 1/Out,9100 S WOODLAWN AVE,60619.0,1185802.03997973,1844892.03998662,8.0,4.0,47.0,41.72951779627217,-87.59494378368971,"(41.72951779627217,-87.59494378368971)",2012-02-03
4561,02/03/2012,Completed,02/20/2012,12-00155645,Street Light - 1/Out,6361 N TRIPP AVE,60646.0,1146898.40848267,1941887.87330939,39.0,17.0,12.0,41.99651387263815,-87.73498311100859,"(41.99651387263815,-87.73498311100859)",2012-02-03
4562,02/03/2012,Completed,02/22/2012,12-00150580,Street Light - 1/Out,9016 S CONSTANCE AVE,60617.0,1190087.87606756,1845556.75180957,8.0,4.0,48.0,41.73123986941997,-87.5792225085321,"(41.731239869419966,-87.57922250853211)",2012-02-03
4563,02/03/2012,Completed,02/22/2012,12-00150801,Street Light - 1/Out,6741 N FRANCISCO AVE,60645.0,1155787.29342897,1944583.43391358,50.0,24.0,2.0,42.00373550634888,-87.70221150066489,"(42.00373550634888,-87.70221150066489)",2012-02-03
4564,02/03/2012,Completed,02/22/2012,12-00155758,Street Light - 1/Out,4841 N KRUGER AVE,60630.0,1143894.97790212,1931918.10282733,39.0,17.0,14.0,41.96921316089023,-87.74628291600723,"(41.96921316089023,-87.74628291600723)",2012-02-03
4565,02/03/2012,Completed,02/25/2012,12-00153253,Street Light - 1/Out,1335 W 19TH ST,60608.0,1167769.51726811,1890867.14162059,25.0,12.0,31.0,41.856084400556725,-87.65968191604351,"(41.856084400556725,-87.65968191604351)",2012-02-03
4566,02/03/2012,Completed,02/29/2012,12-00150413,Street Light - 1/Out,4569 N MEADE AVE,60630.0,1134853.13998369,1929938.30597315,38.0,16.0,15.0,41.96394560412853,-87.77957728814172,"(41.96394560412853,-87.77957728814172)",2012-02-03
4567,02/03/2012,Completed,02/29/2012,12-00153574,Street Light - 1/Out,9641 S CARPENTER ST,60643.0,1171020.57987274,1840773.14177682,21.0,22.0,73.0,41.71855014740621,-87.64921197467581,"(41.71855014740621,-87.64921197467582)",2012-02-03
4568,02/03/2012,Completed,03/08/2012,12-00153204,Street Light - 1/Out,1947 S HALSTED ST,60608.0,1171338.24682656,1890791.02989651,25.0,12.0,31.0,41.85579796528382,-87.64658519115456,"(41.85579796528382,-87.64658519115454)",2012-02-03
4569,02/03/2012,Completed,03/15/2012,12-00156267,Street Light - 1/Out,930 N WELLS ST,60610.0,1174548.21227525,1906847.66010934,27.0,18.0,8.0,41.8997873061415,-87.6343231578827,"(41.8997873061415,-87.63432315788272)",2012-02-03
4570,02/03/2012,Completed,03/15/2012,12-00156268,Street Light - 1/Out,200 W CHESTNUT ST,60610.0,1174569.56119069,1906270.87998502,27.0,18.0,8.0,41.89820411408379,-87.63426200657221,"(41.89820411408379,-87.6342620065722)",2012-02-03
4571,02/03/2012,Completed,04/03/2012,12-00150798,Street Light - 1/Out,7332 W ROSCOE ST,60634.0,1126493.8643129,1921696.69418571,36.0,16.0,17.0,41.94147379453425,-87.81049728404938,"(41.94147379453425,-87.81049728404938)",2012-02-03
4655,02/04/2012,Completed - Dup,02/05/2012,12-00156737,Street Light - 1/Out,2500 N NORDICA AVE,60707.0,1128669.52329949,1915836.45850134,36.0,25.0,18.0,41.925355898860396,-87.80263401860209,"(41.92535589886039,-87.80263401860209)",2012-02-04
4656,02/04/2012,Completed - Dup,02/05/2012,12-00157177,Street Light - 1/Out,1337 N CENTRAL AVE,60651.0,1138754.99920374,1908454.11002793,37.0,25.0,25.0,41.9049206267065,-87.76575407579783,"(41.9049206267065,-87.76575407579783)",2012-02-04
4657,02/04/2012,Completed - Dup,02/07/2012,12-00157023,Street Light - 1/Out,2120 N SEDGWICK ST,60614.0,1173244.6283241,1914388.90510952,43.0,18.0,7.0,41.92050990195602,-87.63888692823606,"(41.920509901956024,-87.63888692823606)",2012-02-04
4658,02/04/2012,Completed - Dup,02/07/2012,12-00157028,Street Light - 1/Out,7800 S DREXEL AVE,60619.0,1183584.49533435,1853480.51110487,6.0,6.0,69.0,41.753137410837695,-87.60280007703001,"(41.753137410837695,-87.60280007703001)",2012-02-04
4659,02/04/2012,Completed - Dup,02/07/2012,12-00157236,Street Light - 1/Out,5100 W AINSLIE ST,60630.0,1141495.2438669,1932102.35318097,45.0,16.0,11.0,41.9697635411269,-87.75510226669753,"(41.96976354112691,-87.75510226669755)",2012-02-04
4660,02/04/2012,Completed - Dup,02/07/2012,12-00157251,Street Light - 1/Out,5100 W AINSLIE ST,60630.0,1141495.2438669,1932102.35318097,45.0,16.0,11.0,41.9697635411269,-87.75510226669753,"(41.96976354112691,-87.75510226669755)",2012-02-04
4661,02/04/2012,Completed - Dup,02/07/2012,12-00157496,Street Light - 1/Out,8121 S PERRY AVE,60620.0,1177020.39961421,1851142.96699528,21.0,6.0,44.0,41.74687334027272,-87.62692511418324,"(41.74687334027272,-87.62692511418324)",2012-02-04
4662,02/04/2012,Completed - Dup,02/07/2012,12-00157498,Street Light - 1/Out,8115 S PERRY AVE,60620.0,1177019.29961421,1851183.36699528,21.0,6.0,44.0,41.746984227528905,-87.62692792952757,"(41.746984227528905,-87.62692792952758)",2012-02-04
4663,02/04/2012,Completed - Dup,02/07/2012,12-00157532,Street Light - 1/Out,3830 N LOWELL AVE,60641.0,1146545.94818735,1925105.26891567,38.0,17.0,16.0,41.95046795126899,-87.736709627814,"(41.95046795126899,-87.73670962781398)",2012-02-04
4664,02/04/2012,Completed - Dup,02/07/2012,12-00157665,Street Light - 1/Out,4029 N MOODY AVE,60634.0,1134636.54982119,1926153.16491664,38.0,16.0,15.0,41.95356263661808,-87.78046342673372,"(41.953562636618074,-87.78046342673372)",2012-02-04
4665,02/04/2012,Completed - Dup,02/07/2012,12-00157670,Street Light - 1/Out,45 W 81ST ST,60620.0,1177283.93681302,1851292.69989166,21.0,6.0,44.0,41.74727828420228,-87.62595494100731,"(41.74727828420228,-87.62595494100731)",2012-02-04
4666,02/04/2012,Completed - Dup,02/08/2012,12-00156489,Street Light - 1/Out,5134 N OAKLEY AVE,60625.0,1160083.32941629,1934126.20202205,47.0,20.0,4.0,41.974952476199654,-87.68669692446986,"(41.974952476199654,-87.68669692446984)",2012-02-04
4667,02/04/2012,Completed - Dup,02/08/2012,12-00157013,Street Light - 1/Out,5518 W JACKSON BLVD,60644.0,1139779.49488284,1898127.20179783,29.0,15.0,25.0,41.8765636463567,-87.76224321229077,"(41.8765636463567,-87.76224321229077)",2012-02-04
4668,02/04/2012,Completed - Dup,02/08/2012,12-00157647,Street Light - 1/Out,5636 S KEDZIE AVE,60629.0,1156009.7714958,1867074.09839798,14.0,8.0,63.0,41.79103834583977,-87.70348643529628,"(41.791038345839766,-87.7034864352963)",2012-02-04
4669,02/04/2012,Completed - Dup,02/09/2012,12-00157379,Street Light - 1/Out,11446 S BELL AVE,60643.0,1163527.63551447,1828518.49840077,19.0,22.0,75.0,41.685081425187995,-87.67699814943914,"(41.68508142518799,-87.67699814943914)",2012-02-04
4670,02/04/2012,Completed - Dup,02/11/2012,12-00157555,Street Light - 1/Out,6044 W WELLINGTON AVE,60634.0,1135473.25992273,1919312.07223126,29.0,25.0,19.0,41.93477510214201,-87.7775506107904,"(41.93477510214201,-87.7775506107904)",2012-02-04
4671,02/04/2012,Completed - Dup,02/14/2012,12-00156887,Street Light - 1/Out,8417 S PEORIA ST,60620.0,1171771.83492743,1849026.29186922,21.0,6.0,71.0,41.741181533661425,-87.64621908942715,"(41.74118153366142,-87.64621908942716)",2012-02-04
4672,02/04/2012,Completed - Dup,02/15/2012,12-00157582,Street Light - 1/Out,1648 N NAGLE AVE,60707.0,1133052.14010071,1910270.36709328,36.0,25.0,25.0,41.91000630056365,-87.78666026052055,"(41.910006300563644,-87.78666026052055)",2012-02-04
4673,02/04/2012,Completed - Dup,02/16/2012,12-00157129,Street Light - 1/Out,628 N MONTICELLO AVE,60624.0,1151939.51726807,1903944.11813123,27.0,11.0,23.0,41.89229517047157,-87.7174418348675,"(41.89229517047157,-87.7174418348675)",2012-02-04
4674,02/04/2012,Completed - Dup,02/17/2012,12-00156486,Street Light - 1/Out,6441 S TALMAN AVE,60629.0,1159816.99581291,1861816.46021163,15.0,8.0,66.0,41.77653327016599,-87.68967041584311,"(41.77653327016599,-87.68967041584311)",2012-02-04
4675,02/04/2012,Completed - Dup,02/23/2012,12-00156429,Street Light - 1/Out,1021 N LAWNDALE AVE,60651.0,1151527.37210708,1906556.33648457,27.0,11.0,23.0,41.89947146732527,-87.71888677502348,"(41.89947146732527,-87.71888677502348)",2012-02-04
4676,02/04/2012,Completed - Dup,02/23/2012,12-00157412,Street Light - 1/Out,1030 N LAWNDALE AVE,60651.0,1151525.37210708,1906616.73648457,27.0,11.0,23.0,41.89963725017442,-87.71889253215102,"(41.89963725017442,-87.71889253215102)",2012-02-04
4677,02/04/2012,Completed - Dup,02/25/2012,12-00157546,Street Light - 1/Out,2317 E 68TH ST,60649.0,1192688.25796601,1860326.1465293,5.0,3.0,43.0,41.77170540223005,-87.56921600370211,"(41.771705402230054,-87.56921600370211)",2012-02-04
4678,02/04/2012,Completed - Dup,02/27/2012,12-00156613,Street Light - 1/Out,317 W 112TH PL,60628.0,1176134.16277257,1830325.98182197,34.0,5.0,49.0,41.68976861155257,-87.63079494031479,"(41.68976861155257,-87.6307949403148)",2012-02-04
4679,02/04/2012,Completed - Dup,03/09/2012,12-00157653,Street Light - 1/Out,2101 S ROCKWELL ST,60608.0,1159353.39248179,1889967.58041701,28.0,10.0,30.0,41.853792948415226,-87.69059807037117,"(41.853792948415226,-87.69059807037117)",2012-02-04
4680,02/04/2012,Completed - Dup,03/14/2012,12-00156990,Street Light - 1/Out,10200 S EBERHART AVE,60628.0,1181378.07759824,1837441.01028686,9.0,5.0,49.0,41.70917424182904,-87.61137868721775,"(41.70917424182904,-87.61137868721775)",2012-02-04
4681,02/04/2012,Completed - Dup,03/14/2012,12-00157536,Street Light - 1/Out,201 S WHIPPLE ST,60612.0,1156079.51240635,1898833.22758157,28.0,11.0,27.0,41.878187840914066,-87.7023753136606,"(41.87818784091407,-87.70237531366061)",2012-02-04
4682,02/04/2012,Completed - Dup,03/24/2012,12-00157564,Street Light - 1/Out,4832 W HUTCHINSON ST,60641.0,1143393.41258242,1927818.44730508,45.0,16.0,15.0,41.9579727842838,-87.74823012899675,"(41.9579727842838,-87.74823012899675)",2012-02-04
4683,02/04/2012,Completed - Dup,03/26/2012,12-00157430,Street Light - 1/Out,618 S KEDVALE AVE,60624.0,1148821.19012189,1896835.53696628,24.0,11.0,26.0,41.872849280805305,-87.72907805264069,"(41.872849280805305,-87.72907805264069)",2012-02-04
4684,02/04/2012,Completed,02/07/2012,12-00157108,Street Light - 1/Out,940 W 116TH PL,60643.0,1172040.87999798,1827593.48998665,34.0,5.0,53.0,41.68236084567855,-87.6458603052278,"(41.68236084567855,-87.6458603052278)",2012-02-04
4685,02/04/2012,Completed,02/10/2012,12-00157541,Street Light - 1/Out,9845 S LEAVITT ST,60643.0,1163436.50811387,1839318.86049229,19.0,22.0,72.0,41.714721379845685,-87.67703045722519,"(41.71472137984568,-87.67703045722519)",2012-02-04
4686,02/04/2012,Completed,02/14/2012,12-00156395,Street Light - 1/Out,10200 S CARPENTER ST,60643.0,1171118.34290253,1837177.21283242,34.0,22.0,73.0,41.70868024867294,-87.64895858874421,"(41.70868024867294,-87.6489585887442)",2012-02-04
4687,02/04/2012,Completed,02/14/2012,12-00157578,Street Light - 1/Out,5700 W WAVELAND AVE,60634.0,1137698.69260428,1924027.49889687,38.0,16.0,15.0,41.94767483984043,-87.76925794440571,"(41.94767483984043,-87.7692579444057)",2012-02-04
4688,02/04/2012,Completed,02/16/2012,12-00157537,Street Light - 1/Out,1935 W 22ND PL,60608.0,1163818.87162573,1889089.75999629,25.0,10.0,31.0,41.85129123257219,-87.67423282722052,"(41.85129123257219,-87.67423282722051)",2012-02-04
4689,02/04/2012,Completed,02/16/2012,12-00157594,Street Light - 1/Out,4913 S JUSTINE ST,60609.0,1166835.52942149,1872115.00551617,20.0,9.0,61.0,41.80464668906545,-87.66364667612386,"(41.804646689065464,-87.66364667612388)",2012-02-04
4690,02/04/2012,Completed,02/16/2012,12-00157625,Street Light - 1/Out,1314 W LELAND AVE,60640.0,1166586.14943145,1931332.69033121,46.0,23.0,3.0,41.967149800797145,-87.66286440640984,"(41.96714980079714,-87.66286440640985)",2012-02-04
4691,02/04/2012,Completed,02/16/2012,12-00157664,Street Light - 1/Out,3736 S WINCHESTER AVE,60609.0,1163965.38371675,1879907.46240423,11.0,9.0,59.0,41.826090970329744,-87.67395381195057,"(41.82609097032974,-87.67395381195057)",2012-02-04
4692,02/04/2012,Completed,02/23/2012,12-00157729,Street Light - 1/Out,9531 S WALLACE ST,60628.0,1173980.09971945,1841673.35831487,21.0,22.0,73.0,41.72095542262146,-87.63834570426407,"(41.72095542262146,-87.63834570426407)",2012-02-04
4798,02/05/2012,Completed - Dup,02/07/2012,12-00157838,Street Light - 1/Out,5100 W AINSLIE ST,60630.0,1141495.2438669,1932102.35318097,45.0,16.0,11.0,41.9697635411269,-87.75510226669753,"(41.96976354112691,-87.75510226669755)",2012-02-05
4799,02/05/2012,Completed - Dup,02/07/2012,12-00158540,Street Light - 1/Out,2214 N GENEVA TER,60614.0,1171902.27096694,1915023.28511514,43.0,18.0,7.0,41.922280393454095,-87.64380023048966,"(41.92228039345409,-87.64380023048966)",2012-02-05
4800,02/05/2012,Completed - Dup,02/07/2012,12-00158541,Street Light - 1/Out,2224 N GENEVA TER,60614.0,1171898.72679403,1915133.34989851,43.0,18.0,7.0,41.92258249452829,-87.6438100009342,"(41.922582494528285,-87.64381000093421)",2012-02-05
4801,02/05/2012,Completed - Dup,02/07/2012,12-00158758,Street Light - 1/Out,5925 N RAVENSWOOD AVE,60660.0,1163318.02780556,1939249.43993059,40.0,20.0,77.0,41.98894320490649,-87.67465702364042,"(41.98894320490649,-87.67465702364042)",2012-02-05
4802,02/05/2012,Completed - Dup,02/07/2012,12-00158761,Street Light - 1/Out,5925 N RAVENSWOOD AVE,60660.0,1163318.02780556,1939249.43993059,40.0,20.0,77.0,41.98894320490649,-87.67465702364042,"(41.98894320490649,-87.67465702364042)",2012-02-05
4803,02/05/2012,Completed - Dup,02/07/2012,12-00158766,Street Light - 1/Out,5925 N RAVENSWOOD AVE,60660.0,1163318.02780556,1939249.43993059,40.0,20.0,77.0,41.98894320490649,-87.67465702364042,"(41.98894320490649,-87.67465702364042)",2012-02-05
4804,02/05/2012,Completed - Dup,02/07/2012,12-00158816,Street Light - 1/Out,5100 W AINSLIE ST,60630.0,1141495.2438669,1932102.35318097,45.0,16.0,11.0,41.9697635411269,-87.75510226669753,"(41.96976354112691,-87.75510226669755)",2012-02-05
4805,02/05/2012,Completed - Dup,02/07/2012,12-00158862,Street Light - 1/Out,650 W BUCKINGHAM PL,60657.0,1171650.06352475,1922490.93006801,44.0,23.0,6.0,41.942777486231925,-87.64450646092259,"(41.94277748623192,-87.64450646092259)",2012-02-05
4806,02/05/2012,Completed - Dup,02/08/2012,12-00158593,Street Light - 1/Out,3805 W 80TH ST,60652.0,1152412.39239105,1851271.74556997,18.0,8.0,70.0,41.747745729950594,-87.71709252253098,"(41.747745729950594,-87.71709252253099)",2012-02-05
4807,02/05/2012,Completed - Dup,02/09/2012,12-00158570,Street Light - 1/Out,5921 S MELVINA AVE,60638.0,1136071.91431721,1864700.51040306,23.0,8.0,64.0,41.78490236230818,-87.77665180773728,"(41.78490236230818,-87.77665180773728)",2012-02-05
4808,02/05/2012,Completed - Dup,02/09/2012,12-00158681,Street Light - 1/Out,6141 W 59TH ST,60638.0,1136356.93763088,1864784.12693133,23.0,8.0,64.0,41.785126752562974,-87.77560477911531,"(41.78512675256298,-87.77560477911531)",2012-02-05
4809,02/05/2012,Completed - Dup,02/09/2012,12-00158705,Street Light - 1/Out,3132 E 131ST ST,60633.0,1199091.9729094,1818704.56280134,10.0,4.0,55.0,41.65733367879061,-87.54713575392532,"(41.657333678790614,-87.54713575392533)",2012-02-05
4810,02/05/2012,Completed - Dup,02/10/2012,12-00158656,Street Light - 1/Out,4314 S HERMITAGE AVE,60609.0,1165400.02986658,1876088.99477605,12.0,9.0,61.0,41.815582342478784,-87.66879875388643,"(41.815582342478784,-87.66879875388643)",2012-02-05
4811,02/05/2012,Completed - Dup,02/10/2012,12-00158660,Street Light - 1/Out,5814 N ST LOUIS AVE,60659.0,1151997.19208331,1938408.59288717,39.0,17.0,13.0,41.98686724445788,-87.71631897938823,"(41.986867244457876,-87.71631897938823)",2012-02-05
4812,02/05/2012,Completed - Dup,02/14/2012,12-00158713,Street Light - 1/Out,8417 S PEORIA ST,60620.0,1171771.83492743,1849026.29186922,21.0,6.0,71.0,41.741181533661425,-87.64621908942715,"(41.74118153366142,-87.64621908942716)",2012-02-05
4813,02/05/2012,Completed - Dup,02/16/2012,12-00157978,Street Light - 1/Out,5954 W HIGGINS AVE,60630.0,1135415.14759021,1933226.0680023998,45.0,16.0,11.0,41.97295754691226,-87.7774324906527,"(41.972957546912255,-87.77743249065269)",2012-02-05
4814,02/05/2012,Completed - Dup,02/16/2012,12-00157982,Street Light - 1/Out,5954 W HIGGINS AVE,60630.0,1135415.14759021,1933226.0680023998,45.0,16.0,11.0,41.97295754691226,-87.7774324906527,"(41.972957546912255,-87.77743249065269)",2012-02-05
4815,02/05/2012,Completed - Dup,03/01/2012,12-00158878,Street Light - 1/Out,2329 N MERRIMAC AVE,60639.0,1134360.99902277,1914753.25679798,29.0,25.0,19.0,41.92228490122184,-87.78174603850094,"(41.922284901221836,-87.78174603850094)",2012-02-05
4816,02/05/2012,Completed - Dup,03/14/2012,12-00158634,Street Light - 1/Out,10201 S EBERHART AVE,60628.0,1181378.27759824,1837434.31028686,9.0,5.0,49.0,41.709155851560176,-87.61137816051505,"(41.709155851560176,-87.61137816051505)",2012-02-05
4817,02/05/2012,Completed - Dup,03/22/2012,12-00158237,Street Light - 1/Out,6212 W MELROSE ST,60634.0,1134413.97621311,1920953.89408945,36.0,16.0,17.0,41.9392992214041,-87.78140471816954,"(41.939299221404106,-87.78140471816953)",2012-02-05
4818,02/05/2012,Completed - Dup,03/29/2012,12-00157753,Street Light - 1/Out,1300 N LAVERGNE AVE,60651.0,1142796.68588708,1908188.37041449,37.0,25.0,25.0,41.90411706518334,-87.75091416390633,"(41.90411706518334,-87.75091416390633)",2012-02-05
4819,02/05/2012,Completed - Dup,04/01/2012,12-00158543,Street Light - 1/Out,512 W BELDEN AVE,60614.0,1172400.17001059,1915555.4693948003,43.0,18.0,7.0,41.92372973046593,-87.64195505053475,"(41.92372973046593,-87.64195505053475)",2012-02-05
4820,02/05/2012,Completed,02/13/2012,12-00158733,Street Light - 1/Out,10146 S NORMAL AVE,60628.0,1174758.64482509,1837521.06011491,9.0,22.0,73.0,41.70954364869827,-87.63561731849276,"(41.70954364869827,-87.63561731849275)",2012-02-05
4821,02/05/2012,Completed,02/16/2012,12-00157791,Street Light - 1/Out,4701 N SHERIDAN RD,60640.0,1168779.22942972,1931405.19778157,46.0,23.0,3.0,41.96730138756159,-87.65479865560509,"(41.96730138756159,-87.65479865560509)",2012-02-05
4822,02/05/2012,Completed,02/16/2012,12-00157831,Street Light - 1/Out,4843 S BISHOP ST,60609.0,1167484.02456637,1872628.2525683998,20.0,9.0,61.0,41.80604120650219,-87.66125356576548,"(41.80604120650219,-87.66125356576549)",2012-02-05
4823,02/05/2012,Completed,02/16/2012,12-00158818,Street Light - 1/Out,4800 W ARGYLE ST,60630.0,1143449.46920275,1932813.36250432,45.0,16.0,12.0,41.97167818913928,-87.74789857404802,"(41.971678189139276,-87.74789857404801)",2012-02-05
4824,02/05/2012,Completed,02/27/2012,12-00157981,Street Light - 1/Out,4739 N MILWAUKEE AVE,60630.0,1140281.06151403,1930918.04536577,45.0,16.0,15.0,41.96653609912035,-87.7595960711537,"(41.96653609912035,-87.75959607115371)",2012-02-05
4825,02/05/2012,Completed,03/01/2012,12-00158873,Street Light - 1/Out,2300 N MERRIMAC AVE,60639.0,1134367.79902277,1914534.55679798,29.0,25.0,19.0,41.92168464251935,-87.78172622180084,"(41.921684642519345,-87.78172622180084)",2012-02-05
4826,02/05/2012,Completed,03/14/2012,12-00158871,Street Light - 1/Out,3652 N NORA AVE,60634.0,1128763.72760488,1923474.67880272,36.0,16.0,17.0,41.946314498815006,-87.80211394735784,"(41.94631449881501,-87.80211394735784)",2012-02-05
4827,02/05/2012,Completed,03/28/2012,12-00157979,Street Light - 1/Out,4890 N AUSTIN AVE,60630.0,1135191.15209723,1932171.26788847,45.0,16.0,11.0,41.97006706289599,-87.7782813133467,"(41.970067062895986,-87.77828131334668)",2012-02-05
4914,02/06/2012,Completed - Dup,02/06/2012,12-00159796,Street Light - 1/Out,9751 S CHARLES ST,60643.0,1167307.45869474,1840319.53441253,19.0,22.0,72.0,41.71738554062641,-87.66282478716309,"(41.71738554062641,-87.66282478716309)",2012-02-06
4915,02/06/2012,Completed - Dup,02/06/2012,12-00162143,Street Light - 1/Out,2611 W JACKSON BLVD,60612.0,1158994.26342322,1898599.91168405,28.0,11.0,27.0,41.87748830103085,-87.69167939411966,"(41.87748830103085,-87.69167939411966)",2012-02-06
4916,02/06/2012,Completed - Dup,02/06/2012,12-00162829,Street Light - 1/Out,9751 S CHARLES ST,60643.0,1167307.45869474,1840319.53441253,19.0,22.0,72.0,41.71738554062641,-87.66282478716309,"(41.71738554062641,-87.66282478716309)",2012-02-06
4917,02/06/2012,Completed - Dup,02/07/2012,12-00160364,Street Light - 1/Out,4219 W GRENSHAW ST,60624.0,1148432.50163274,1894702.86116674,24.0,11.0,29.0,41.86700446533428,-87.73056010515344,"(41.86700446533428,-87.73056010515344)",2012-02-06
4918,02/06/2012,Completed - Dup,02/07/2012,12-00161686,Street Light - 1/Out,2859 W POLK ST,60612.0,1157430.72019798,1896240.76899967,2.0,11.0,27.0,41.87104651202381,-87.69748448853346,"(41.87104651202381,-87.69748448853346)",2012-02-06
4919,02/06/2012,Completed - Dup,02/07/2012,12-00162007,Street Light - 1/Out,7939 S UNION AVE,60620.0,1173011.74701552,1852235.53957817,17.0,6.0,71.0,41.74996086931933,-87.6415816156323,"(41.749960869319324,-87.64158161563229)",2012-02-06
4920,02/06/2012,Completed - Dup,02/08/2012,12-00159885,Street Light - 1/Out,3413 W 38TH PL,60632.0,1154243.89547377,1878862.28526582,12.0,9.0,58.0,41.82342207515252,-87.70964789614284,"(41.82342207515252,-87.70964789614285)",2012-02-06
4921,02/06/2012,Completed - Dup,02/08/2012,12-00160107,Street Light - 1/Out,5518 W JACKSON BLVD,60644.0,1139779.49488284,1898127.20179783,29.0,15.0,25.0,41.8765636463567,-87.76224321229077,"(41.8765636463567,-87.76224321229077)",2012-02-06
4922,02/06/2012,Completed - Dup,02/08/2012,12-00163457,Street Light - 1/Out,5767 N LINCOLN AVE,60659.0,1156292.2519965,1938237.33236709,40.0,20.0,2.0,41.98631130204628,-87.70052629384556,"(41.98631130204628,-87.70052629384556)",2012-02-06
4923,02/06/2012,Completed - Dup,02/08/2012,12-00165185,Street Light - 1/Out,5835 W 64TH PL,60638.0,1138627.90642045,1861187.91419959,13.0,8.0,64.0,41.7752173739016,-87.76736501902225,"(41.77521737390159,-87.76736501902225)",2012-02-06
4924,02/06/2012,Completed - Dup,02/09/2012,12-00160462,Street Light - 1/Out,3357 N PULASKI RD,60641.0,1149134.54961078,1922060.40001284,30.0,17.0,21.0,41.94206274423721,-87.72727320132731,"(41.94206274423721,-87.72727320132731)",2012-02-06
4925,02/06/2012,Completed - Dup,02/09/2012,12-00161106,Street Light - 1/Out,1441 W FARWELL AVE,60626.0,1165419.86987788,1945727.15209931,49.0,24.0,1.0,42.00667357962036,-87.66674071866396,"(42.00667357962036,-87.66674071866397)",2012-02-06
4926,02/06/2012,Completed - Dup,02/09/2012,12-00163623,Street Light - 1/Out,5401 S SACRAMENTO AVE,60632.0,1157295.08262643,1868671.89168154,14.0,9.0,63.0,41.79539697590608,-87.6987302001462,"(41.79539697590608,-87.6987302001462)",2012-02-06
4927,02/06/2012,Completed - Dup,02/09/2012,12-00164106,Street Light - 1/Out,10546 S EBERHART AVE,60628.0,1181445.35331839,1835136.97811111,9.0,5.0,49.0,41.70285012796833,-87.61120307274727,"(41.702850127968325,-87.61120307274727)",2012-02-06
4928,02/06/2012,Completed - Dup,02/09/2012,12-00164336,Street Light - 1/Out,10549 S EBERHART AVE,60628.0,1181445.95331839,1835116.87811111,9.0,5.0,49.0,41.70279495710114,-87.61120149286842,"(41.70279495710114,-87.61120149286842)",2012-02-06
4929,02/06/2012,Completed - Dup,02/09/2012,12-00165221,Street Light - 1/Out,2013 W CONCORD PL,60647.0,1162670.07008557,1911045.95997427,32.0,14.0,24.0,41.91156503921135,-87.67783368870101,"(41.91156503921135,-87.67783368870101)",2012-02-06
4930,02/06/2012,Completed - Dup,02/09/2012,12-00165225,Street Light - 1/Out,6131 W 59TH ST,60638.0,1136401.53763088,1864785.62693133,23.0,8.0,64.0,41.78513007483445,-87.7754412166562,"(41.785130074834456,-87.7754412166562)",2012-02-06
4931,02/06/2012,Completed - Dup,02/10/2012,12-00159932,Street Light - 1/Out,12614 S WALLACE ST,60628.0,1174609.24071464,1821189.02832395,9.0,5.0,53.0,41.664729344477244,-87.63664814962776,"(41.66472934447724,-87.63664814962776)",2012-02-06
4932,02/06/2012,Completed - Dup,02/10/2012,12-00162020,Street Light - 1/Out,8349 S LUELLA AVE,60617.0,1192631.16642255,1850052.13707132,8.0,4.0,46.0,41.74351408755307,-87.56975955165106,"(41.74351408755307,-87.56975955165106)",2012-02-06
4933,02/06/2012,Completed - Dup,02/10/2012,12-00162802,Street Light - 1/Out,8499 S LUELLA AVE,60617.0,1192651.51999313,1849055.52051551,8.0,4.0,46.0,41.74077878866632,-87.56971737969404,"(41.74077878866632,-87.56971737969405)",2012-02-06
4934,02/06/2012,Completed - Dup,02/10/2012,12-00165170,Street Light - 1/Out,6809 N DOWAGIAC AVE,60646.0,1138624.8697813,1944666.45099116,41.0,16.0,12.0,42.00429309925956,-87.76535048036881,"(42.00429309925956,-87.76535048036882)",2012-02-06
4935,02/06/2012,Completed - Dup,02/11/2012,12-00163536,Street Light - 1/Out,9331 S JUSTINE ST,60620.0,1167640.30851473,1842843.01496751,21.0,22.0,73.0,41.72430323789839,-87.66153357200811,"(41.72430323789839,-87.66153357200811)",2012-02-06
4936,02/06/2012,Completed - Dup,02/11/2012,12-00163546,Street Light - 1/Out,9345 S JUSTINE ST,60620.0,1167642.60851473,1842749.11496751,21.0,22.0,73.0,41.724045512812665,-87.66152783137586,"(41.724045512812665,-87.66152783137586)",2012-02-06
4937,02/06/2012,Completed - Dup,02/11/2012,12-00164605,Street Light - 1/Out,9331 S JUSTINE ST,60620.0,1167640.30851473,1842843.01496751,21.0,22.0,73.0,41.72430323789839,-87.66153357200811,"(41.72430323789839,-87.66153357200811)",2012-02-06
4938,02/06/2012,Completed - Dup,02/11/2012,12-00164808,Street Light - 1/Out,9334 S JUSTINE ST,60620.0,1167640.80851473,1842822.91496751,21.0,22.0,73.0,41.72424806974556,-87.66153231509323,"(41.724248069745556,-87.66153231509323)",2012-02-06
4939,02/06/2012,Completed - Dup,02/11/2012,12-00164893,Street Light - 1/Out,336 W WELLINGTON AVE,60657.0,1173495.54621105,1920256.97767305,44.0,23.0,6.0,41.93660654853533,-87.63779011679605,"(41.93660654853533,-87.63779011679605)",2012-02-06
4940,02/06/2012,Completed - Dup,02/13/2012,12-00159889,Street Light - 1/Out,10146 S NORMAL AVE,60628.0,1174758.64482509,1837521.06011491,9.0,22.0,73.0,41.70954364869827,-87.63561731849276,"(41.70954364869827,-87.63561731849275)",2012-02-06
4941,02/06/2012,Completed - Dup,02/14/2012,12-00159706,Street Light - 1/Out,5249 N LA CROSSE AVE,60630.0,1143053.44212396,1934605.94309475,45.0,16.0,12.0,41.97660458683262,-87.74930989990555,"(41.976604586832615,-87.74930989990555)",2012-02-06
4942,02/06/2012,Completed - Dup,02/14/2012,12-00161288,Street Light - 1/Out,9029 S WESTERN AVE,60643.0,1161948.85131686,1844706.64997279,19.0,22.0,72.0,41.72953734704026,-87.68232970972701,"(41.72953734704026,-87.68232970972701)",2012-02-06
4943,02/06/2012,Completed - Dup,02/14/2012,12-00164958,Street Light - 1/Out,8213 S RICHMOND ST,60652.0,1158140.67407082,1850016.01988068,18.0,8.0,70.0,41.744185321326334,-87.69613620737047,"(41.744185321326334,-87.69613620737047)",2012-02-06
4944,02/06/2012,Completed - Dup,02/15/2012,12-00161292,Street Light - 1/Out,5116 W WARWICK AVE,60641.0,1141586.2320941999,1924450.27389649,45.0,16.0,15.0,41.948763878730404,-87.75495760794094,"(41.94876387873041,-87.75495760794094)",2012-02-06
4945,02/06/2012,Completed - Dup,02/15/2012,12-00164329,Street Light - 1/Out,7527 S LUELLA AVE,60649.0,1192512.39581099,1855495.00427084,7.0,4.0,43.0,41.758452662195396,-87.57001779938737,"(41.7584526621954,-87.57001779938737)",2012-02-06
4946,02/06/2012,Completed - Dup,02/15/2012,12-00164631,Street Light - 1/Out,3647 W CORTLAND ST,60647.0,1151661.59741526,1912377.33151768,26.0,25.0,22.0,41.915442187533685,-87.71824044810283,"(41.91544218753369,-87.71824044810285)",2012-02-06
4947,02/06/2012,Completed - Dup,02/16/2012,12-00158920,Street Light - 1/Out,4701 N SHERIDAN RD,60640.0,1168779.22942972,1931405.19778157,46.0,23.0,3.0,41.96730138756159,-87.65479865560509,"(41.96730138756159,-87.65479865560509)",2012-02-06
4948,02/06/2012,Completed - Dup,02/16/2012,12-00160045,Street Light - 1/Out,7917 S CRANDON AVE,60617.0,1192904.42472995,1852924.16867466,7.0,4.0,46.0,41.751388526982154,-87.56866481533329,"(41.751388526982154,-87.56866481533328)",2012-02-06
4949,02/06/2012,Completed - Dup,02/16/2012,12-00160886,Street Light - 1/Out,2100 S KEELER AVE,60623.0,1148706.45499987,1889758.08570262,24.0,10.0,29.0,41.85343011168485,-87.72968200980823,"(41.85343011168485,-87.72968200980824)",2012-02-06
4950,02/06/2012,Completed - Dup,02/16/2012,12-00164618,Street Light - 1/Out,7700 S CALUMET AVE,60619.0,1179807.86158651,1854030.48548224,6.0,6.0,69.0,41.75473376567561,-87.61662307223378,"(41.75473376567561,-87.61662307223376)",2012-02-06
4951,02/06/2012,Completed - Dup,02/17/2012,12-00160492,Street Light - 1/Out,6112 S KILDARE AVE,60629.0,1148752.50122857,1863726.40427009,13.0,8.0,65.0,41.78199456144175,-87.73018366510031,"(41.78199456144175,-87.73018366510031)",2012-02-06
4952,02/06/2012,Completed - Dup,02/17/2012,12-00164795,Street Light - 1/Out,6112 S KILDARE AVE,60629.0,1148752.50122857,1863726.40427009,13.0,8.0,65.0,41.78199456144175,-87.73018366510031,"(41.78199456144175,-87.73018366510031)",2012-02-06
4953,02/06/2012,Completed - Dup,02/19/2012,12-00163927,Street Light - 1/Out,7407 W MYRTLE AVE,60631.0,1125917.78371231,1940674.20000707,41.0,16.0,10.0,41.993559785109845,-87.8121903942925,"(41.99355978510984,-87.8121903942925)",2012-02-06
4954,02/06/2012,Completed - Dup,02/20/2012,12-00165003,Street Light - 1/Out,6014 N KEDVALE AVE,60646.0,1147592.16958366,1939644.55439702,39.0,17.0,12.0,41.99034473946036,-87.7324889419853,"(41.990344739460355,-87.7324889419853)",2012-02-06
4955,02/06/2012,Completed - Dup,02/23/2012,12-00158933,Street Light - 1/Out,1026 N LAWNDALE AVE,60651.0,1151526.27210708,1906589.93648457,27.0,11.0,23.0,41.89956369065029,-87.7188899314441,"(41.89956369065029,-87.7188899314441)",2012-02-06
4956,02/06/2012,Completed - Dup,02/23/2012,12-00164654,Street Light - 1/Out,6943 S WOLCOTT AVE,60636.0,1164886.1549958999,1858628.43129921,17.0,7.0,67.0,41.767679272548506,-87.6711770484808,"(41.76767927254851,-87.67117704848079)",2012-02-06
4957,02/06/2012,Completed - Dup,02/24/2012,12-00159792,Street Light - 1/Out,8515 S WABASH AVE,60619.0,1178195.86436635,1848558.30761965,6.0,6.0,44.0,41.739754163135686,-87.62269614746496,"(41.73975416313569,-87.62269614746496)",2012-02-06
4958,02/06/2012,Completed - Dup,02/24/2012,12-00163112,Street Light - 1/Out,9831 S GENOA AVE,60643.0,1170384.37017712,1839576.60567704,21.0,22.0,73.0,41.71528052294633,-87.65157688870266,"(41.71528052294633,-87.65157688870265)",2012-02-06
4959,02/06/2012,Completed - Dup,02/28/2012,12-00161760,Street Light - 1/Out,1810 N MASON AVE,60639.0,1136465.15271037,1911402.75607408,29.0,25.0,25.0,41.913053335621726,-87.77409489489733,"(41.913053335621726,-87.77409489489733)",2012-02-06
4960,02/06/2012,Completed - Dup,02/28/2012,12-00164632,Street Light - 1/Out,5723 S MARSHFIELD AVE,60636.0,1166319.60711464,1866755.51329551,15.0,7.0,67.0,41.78995062119336,-87.66569151538303,"(41.78995062119336,-87.66569151538303)",2012-02-06
4961,02/06/2012,Completed - Dup,02/28/2012,12-00164637,Street Light - 1/Out,5700 S MARSHFIELD AVE,60636.0,1166315.40711464,1866909.71329551,15.0,7.0,67.0,41.790373854347074,-87.66570252490688,"(41.79037385434707,-87.66570252490688)",2012-02-06
4962,02/06/2012,Completed - Dup,03/06/2012,12-00160381,Street Light - 1/Out,4020 W 19TH ST,60623.0,1149812.6000168999,1890341.76988694,24.0,10.0,29.0,41.85501040267375,-87.72560686807961,"(41.85501040267375,-87.72560686807961)",2012-02-06
4963,02/06/2012,Completed - Dup,03/08/2012,12-00160698,Street Light - 1/Out,4543 N KEOKUK AVE,60630.0,1146775.39988678,1929995.64997759,45.0,17.0,16.0,41.96388315873097,-87.73574081336419,"(41.963883158730965,-87.73574081336419)",2012-02-06
4964,02/06/2012,Completed - Dup,03/12/2012,12-00160283,Street Light - 1/Out,8829 S WABASH AVE,60619.0,1178255.09147898,1846467.18430635,6.0,6.0,44.0,41.73401452154974,-87.62254242590187,"(41.73401452154974,-87.62254242590188)",2012-02-06
4965,02/06/2012,Completed - Dup,03/12/2012,12-00160732,Street Light - 1/Out,3350 N ODELL AVE,60634.0,1126513.87337856,1921065.11801899,36.0,16.0,17.0,41.93974033737765,-87.81043790078267,"(41.93974033737765,-87.81043790078269)",2012-02-06
4966,02/06/2012,Completed - Dup,03/14/2012,12-00164727,Street Light - 1/Out,9751 S PRAIRIE AVE,60628.0,1179638.48138477,1840369.2223976,6.0,5.0,49.0,41.717249487207596,-87.61766010843222,"(41.71724948720759,-87.61766010843222)",2012-02-06
4967,02/06/2012,Completed - Dup,03/16/2012,12-00159259,Street Light - 1/Out,341 E WACKER DR,60601.0,1178792.89139216,1902466.70223424,42.0,1.0,32.0,41.887669796030686,-87.61886660178062,"(41.887669796030686,-87.61886660178062)",2012-02-06
4968,02/06/2012,Completed - Dup,03/20/2012,12-00161734,Street Light - 1/Out,1599 W TAYLOR ST,60607.0,1165885.35101043,1895654.75691032,2.0,12.0,28.0,41.869262394323115,-87.66646123484341,"(41.869262394323115,-87.66646123484341)",2012-02-06
4969,02/06/2012,Completed - Dup,03/21/2012,12-00164846,Street Light - 1/Out,7157 S ROCKWELL ST,60629.0,1160278.95149775,1857095.2820198003,18.0,8.0,66.0,41.76356817578482,-87.68810674130805,"(41.76356817578482,-87.68810674130805)",2012-02-06
4970,02/06/2012,Completed - Dup,03/22/2012,12-00159550,Street Light - 1/Out,8311 S CARPENTER ST,60620.0,1170763.50411614,1849706.00609249,21.0,6.0,71.0,41.74306879593856,-87.64989376478948,"(41.74306879593856,-87.64989376478948)",2012-02-06
4971,02/06/2012,Completed - Dup,03/24/2012,12-00165181,Street Light - 1/Out,4832 W HUTCHINSON ST,60641.0,1143393.41258242,1927818.44730508,45.0,16.0,15.0,41.9579727842838,-87.74823012899675,"(41.9579727842838,-87.74823012899675)",2012-02-06
4972,02/06/2012,Completed - Dup,03/26/2012,12-00159275,Street Light - 1/Out,6421 S EGGLESTON AVE,60621.0,1174381.97032257,1862343.23493223,20.0,7.0,68.0,41.77766723976871,-87.63626038282383,"(41.77766723976871,-87.63626038282383)",2012-02-06
4973,02/06/2012,Completed - Dup,03/26/2012,12-00164906,Street Light - 1/Out,5547 W GRACE ST,60641.0,1138692.53208589,1924715.88003156,38.0,16.0,15.0,41.94954581906117,-87.76558801493181,"(41.949545819061164,-87.76558801493182)",2012-02-06
4974,02/06/2012,Completed - Dup,04/10/2012,12-00163680,Street Light - 1/Out,1334 N BELL AVE,60622.0,1161162.78000526,1908835.1594932,1.0,14.0,24.0,41.905529912925076,-87.68343253116261,"(41.90552991292508,-87.68343253116261)",2012-02-06
4975,02/06/2012,Completed,02/06/2012,12-00161709,Street Light - 1/Out,2323 S ARCHER AVE,60616.0,1173302.61757563,1888888.17202205,25.0,9.0,34.0,41.85053303715679,-87.63943148927584,"(41.85053303715679,-87.63943148927584)",2012-02-06
4976,02/06/2012,Completed,02/06/2012,12-00162101,Street Light - 1/Out,2609 W JACKSON BLVD,60612.0,1159007.26342322,1898600.21168405,28.0,11.0,27.0,41.87748885755345,-87.69163165329377,"(41.87748885755345,-87.69163165329377)",2012-02-06
4977,02/06/2012,Completed,02/06/2012,12-00162119,Street Light - 1/Out,3600 N MAJOR AVE,60634.0,1137721.11326722,1923362.8014308999,38.0,16.0,15.0,41.94585043821817,-87.76919161144525,"(41.94585043821817,-87.76919161144525)",2012-02-06
4978,02/06/2012,Completed,02/07/2012,12-00160758,Street Light - 1/Out,3847 W 110TH ST,60655.0,1152665.7729216001,1831369.29437489,19.0,22.0,74.0,41.693124778770475,-87.71668641951382,"(41.69312477877048,-87.71668641951382)",2012-02-06
4979,02/06/2012,Completed,02/09/2012,12-00159781,Street Light - 1/Out,9157 S BLACKSTONE AVE,60619.0,1187714.00422938,1844552.42159418,8.0,4.0,48.0,41.72854062595287,-87.58795060983884,"(41.72854062595287,-87.58795060983884)",2012-02-06
