,Creation Date,Status,Completion Date,Service Request Number,Type of Service Request,Street Address,ZIP Code,X Coordinate,Y Coordinate,Ward,Police District,Community Area,Latitude,Longitude,Location,date
111337,06/01/2015,Completed - Dup,06/01/2015,15-02383767,Alley Light Out,1831 N NEW ENGLAND AVE,60707.0,1130138.72820246,1911417.3991163003,29.0,25.0,25.0,41.91320436102687,-87.79733683770566,"(41.91320436102687, -87.79733683770566)",2015-06-01
111338,06/01/2015,Completed - Dup,06/01/2015,15-02384078,Alley Light Out,3018 S PRINCETON AVE,60616.0,1174778.49677733,1884849.75817727,11.0,9.0,34.0,41.83941846126144,-87.63413545480745,"(41.83941846126144, -87.63413545480746)",2015-06-01
111339,06/01/2015,Completed - Dup,06/01/2015,15-02386391,Alley Light Out,8510 S ST LAWRENCE AVE,60619.0,1181723.55668484,1848695.70890269,6.0,6.0,44.0,41.740050543324024,-87.60976707900225,"(41.74005054332402, -87.60976707900225)",2015-06-01
111340,06/01/2015,Completed - Dup,06/01/2015,15-02389008,Alley Light Out,6956 N OAKLEY AVE,60645.0,1159621.70201081,1946069.89797509,50.0,24.0,2.0,42.00773598314797,-87.68806354191607,"(42.00773598314797, -87.68806354191607)",2015-06-01
111341,06/01/2015,Completed - Dup,06/01/2015,15-02394134,Alley Light Out,5232 W VAN BUREN ST,60644.0,1141563.32050995,1897510.3261903,29.0,15.0,25.0,41.874838103437035,-87.75570872962194,"(41.874838103437035, -87.75570872962196)",2015-06-01
111342,06/01/2015,Completed - Dup,06/01/2015,15-02397907,Alley Light Out,2341 W ADDISON ST,60618.0,1160022.4063101,1923847.14448053,47.0,19.0,5.0,41.94674746764761,-87.68720598216245,"(41.94674746764761, -87.68720598216245)",2015-06-01
111343,06/01/2015,Completed - Dup,06/01/2015,15-02398732,Alley Light Out,3714 W CORTLAND ST,60647.0,1151410.43627351,1912371.65396791,1.0,25.0,22.0,41.91543154703546,-87.71916334630266,"(41.91543154703546, -87.71916334630266)",2015-06-01
111344,06/01/2015,Completed - Dup,06/01/2015,15-02402582,Alley Light Out,1748 N NAGLE AVE,60707.0,1133032.70490897,1910930.00921204,29.0,25.0,25.0,41.911816781487495,-87.78671621553701,"(41.91181678148749, -87.78671621553701)",2015-06-01
111345,06/01/2015,Completed - Dup,06/01/2015,15-02402651,Alley Light Out,6420 W 64TH ST,60638.0,1134719.06866583,1861393.08789809,23.0,8.0,64.0,41.77585010760957,-87.7816898237288,"(41.775850107609564, -87.78168982372878)",2015-06-01
111346,06/01/2015,Completed,06/01/2015,15-02387438,Alley Light Out,2140 N TRIPP AVE,60639.0,1147701.21152636,1913884.91229495,35.0,25.0,20.0,41.919656154847075,-87.7327518734346,"(41.919656154847075, -87.7327518734346)",2015-06-01
111347,06/01/2015,Completed,06/01/2015,15-02399041,Alley Light Out,8959 S HARPER AVE,60619.0,1188012.498672,1845876.35491741,8.0,4.0,48.0,41.73216653871383,-87.5868151135428,"(41.73216653871383, -87.5868151135428)",2015-06-01
111361,06/02/2015,Completed - Dup,06/02/2015,15-02417267,Alley Light Out,1914 N NORMANDY AVE,60707.0,1131446.12179838,1911995.98322469,29.0,25.0,25.0,41.91476954856849,-87.7925202643056,"(41.91476954856849, -87.7925202643056)",2015-06-02
111362,06/02/2015,Completed - Dup,06/02/2015,15-02420960,Alley Light Out,2037 W MONTROSE AVE,60618.0,1161802.75010428,1929214.09508999,47.0,19.0,5.0,41.96143764461141,-87.68051169467365,"(41.96143764461141, -87.68051169467365)",2015-06-02
111363,06/02/2015,Completed - Dup,06/02/2015,15-02421459,Alley Light Out,5723 N CLARK ST,60660.0,1164765.16349426,1938211.89008668,48.0,20.0,77.0,41.986065472838845,-87.66936387051108,"(41.98606547283884, -87.66936387051108)",2015-06-02
111364,06/02/2015,Completed - Dup,06/02/2015,15-02421937,Alley Light Out,1821 S CHRISTIANA AVE,60623.0,1154323.23021839,1890822.70550993,24.0,10.0,29.0,41.85624134662736,-87.70903791247123,"(41.856241346627364, -87.70903791247123)",2015-06-02
111365,06/02/2015,Completed - Dup,06/02/2015,15-02422410,Alley Light Out,3306 W PIERCE AVE,60651.0,1154033.48969671,1910105.47517852,26.0,14.0,23.0,41.90916100496019,-87.70958698926457,"(41.90916100496019, -87.70958698926457)",2015-06-02
111366,06/02/2015,Completed - Dup,06/02/2015,15-02422588,Alley Light Out,1324 W 18TH PL,60608.0,1167832.66622137,1891199.90992327,25.0,12.0,31.0,41.85699618592914,-87.65944054209636,"(41.85699618592914, -87.65944054209636)",2015-06-02
111367,06/02/2015,Completed - Dup,06/02/2015,15-02422922,Alley Light Out,3524 W 77TH PL,60652.0,1154247.5501776,1852988.10998015,18.0,8.0,70.0,41.7524194546282,-87.71032232158855,"(41.7524194546282, -87.71032232158855)",2015-06-02
111368,06/02/2015,Completed - Dup,06/02/2015,15-02425892,Alley Light Out,4541 S CALUMET AVE,60653.0,1179194.19452011,1874980.10782257,3.0,2.0,38.0,41.81223559245104,-87.6182334652431,"(41.81223559245104, -87.6182334652431)",2015-06-02
111369,06/02/2015,Completed - Dup,06/02/2015,15-02428732,Alley Light Out,3618 S MARSHFIELD AVE,60609.0,1165941.38580201,1880738.56157419,12.0,9.0,59.0,41.82832974873645,-87.66668062905016,"(41.828329748736444, -87.66668062905015)",2015-06-02
111370,06/02/2015,Completed - Dup,06/02/2015,15-02431632,Alley Light Out,7411 W IRVING PARK RD,60634.0,1125889.4443153,1925763.01478314,38.0,16.0,17.0,41.952642361606344,-87.8126280254126,"(41.95264236160634, -87.8126280254126)",2015-06-02
111371,06/02/2015,Completed,06/02/2015,15-02423591,Alley Light Out,3746 W 111TH ST,60655.0,1153352.14991685,1830730.55323137,19.0,22.0,74.0,41.6913584367304,-87.7141902306292,"(41.691358436730404, -87.7141902306292)",2015-06-02
111372,06/02/2015,Completed,06/02/2015,15-02424268,Alley Light Out,5450 W WARWICK AVE,60641.0,1139688.97548031,1924456.01992242,38.0,16.0,15.0,41.948814566862886,-87.76193153866976,"(41.948814566862886, -87.76193153866977)",2015-06-02
111373,06/02/2015,Completed,06/02/2015,15-02434304,Alley Light Out,9950 S WINSTON AVE,60643.0,1168636.77478435,1839105.48139611,34.0,22.0,73.0,41.71402548036229,-87.65799092963759,"(41.71402548036229, -87.65799092963758)",2015-06-02
111374,06/02/2015,Completed - Dup,06/02/2015,15-02407971,Alley Light Out,5001 S PAULINA ST,60609.0,1165855.58322182,1871543.33379996,20.0,9.0,61.0,41.80309885144303,-87.66725693298676,"(41.803098851443025, -87.66725693298675)",2015-06-02
111375,06/02/2015,Completed - Dup,06/02/2015,15-02408064,Alley Light Out,8531 S ABERDEEN ST,60620.0,1170474.54930811,1848235.68991851,21.0,6.0,71.0,41.73904033890899,-87.65099522250406,"(41.73904033890899, -87.65099522250406)",2015-06-02
111376,06/02/2015,Completed - Dup,06/02/2015,15-02408071,Alley Light Out,8531 S ABERDEEN ST,60620.0,1170474.54930811,1848235.68991851,21.0,6.0,71.0,41.73904033890899,-87.65099522250406,"(41.73904033890899, -87.65099522250406)",2015-06-02
111377,06/02/2015,Completed - Dup,06/02/2015,15-02411573,Alley Light Out,7222 S WENTWORTH AVE,60621.0,1176211.45249524,1857089.01306617,6.0,7.0,69.0,41.763208181141366,-87.6297110965522,"(41.76320818114137, -87.62971109655221)",2015-06-02
111378,06/02/2015,Completed - Dup,06/02/2015,15-02412684,Alley Light Out,5231 W VAN BUREN ST,60644.0,1141570.62050995,1897510.5261903,29.0,15.0,25.0,41.87483851745025,-87.75568192178255,"(41.87483851745025, -87.75568192178255)",2015-06-02
111379,06/02/2015,Completed - Dup,06/02/2015,15-02416480,Alley Light Out,7838 S KIMBARK AVE,60619.0,1186238.89796787,1853283.66759948,8.0,4.0,45.0,41.752534992490794,-87.59307904363575,"(41.752534992490794, -87.59307904363575)",2015-06-02
111382,06/01/2015,Completed - Dup,06/02/2015,15-02383512,Alley Light Out,6214 S NARRAGANSETT AVE,60638.0,1134811.52439572,1862632.03380642,13.0,8.0,64.0,41.77924837936396,-87.78132172641695,"(41.779248379363956, -87.78132172641696)",2015-06-01
111383,06/01/2015,Completed,06/02/2015,15-02389451,Alley Light Out,800 N AVERS AVE,60651.0,1150578.28372777,1905066.3594038999,37.0,11.0,23.0,41.895401419496174,-87.72241176318701,"(41.895401419496174, -87.722411763187)",2015-06-01
111445,06/02/2015,Completed - Dup,06/03/2015,15-02423571,Alley Light Out,8509 S RHODES AVE,60619.0,1181281.35786619,1848687.87270218,6.0,6.0,44.0,41.7400392310768,-87.61138746408051,"(41.7400392310768, -87.6113874640805)",2015-06-02
111446,06/02/2015,Completed - Dup,06/03/2015,15-02433879,Alley Light Out,7228 S WENTWORTH AVE,60621.0,1176213.05249524,1857049.01306617,6.0,7.0,69.0,41.76309838064528,-87.62970643151783,"(41.763098380645275, -87.62970643151783)",2015-06-02
111447,06/02/2015,Completed - Dup,06/03/2015,15-02434470,Alley Light Out,11703 S RACINE AVE,60643.0,1170432.34941728,1827179.75130032,34.0,5.0,53.0,41.681260549191116,-87.651760462425,"(41.681260549191116, -87.651760462425)",2015-06-02
111448,06/02/2015,Completed,06/03/2015,15-02422653,Alley Light Out,7637 S SANGAMON ST,60620.0,1171298.48559839,1854191.88991857,17.0,6.0,71.0,41.75536697608247,-87.6478026170784,"(41.75536697608247, -87.6478026170784)",2015-06-02
111449,06/02/2015,Completed,06/03/2015,15-02423243,Alley Light Out,4400 W CARROLL AVE,60624.0,1146989.59082365,1901934.90811419,28.0,11.0,26.0,41.886877733990744,-87.7356723938039,"(41.88687773399074, -87.7356723938039)",2015-06-02
111450,06/02/2015,Completed,06/03/2015,15-02423255,Alley Light Out,1257 W COTTAGE PL,60607.0,1167787.43421396,1898924.8201108996,28.0,12.0,28.0,41.87819494432435,-87.65938395939737,"(41.87819494432434, -87.65938395939737)",2015-06-02
111451,06/02/2015,Completed,06/03/2015,15-02424664,Alley Light Out,6457 W 60TH ST,60638.0,1134299.10001291,1864050.50088979,13.0,8.0,64.0,41.783149928875154,-87.7831670990086,"(41.78314992887516, -87.7831670990086)",2015-06-02
111452,06/03/2015,Completed - Dup,06/03/2015,15-02439958,Alley Light Out,1643 N MEADE AVE,60639.0,1135497.10001367,1910291.15153117,29.0,25.0,25.0,41.91002022350166,-87.7776778147327,"(41.91002022350166, -87.77767781473271)",2015-06-03
111453,06/03/2015,Completed - Dup,06/03/2015,15-02442463,Alley Light Out,3018 N NATOMA AVE,60634.0,1131560.74090063,1919335.67531873,36.0,25.0,18.0,41.93490857248284,-87.79192890573444,"(41.93490857248284, -87.79192890573444)",2015-06-03
111454,06/03/2015,Completed - Dup,06/03/2015,15-02445731,Alley Light Out,7179 N MANKATO AVE,60646.0,1135259.89999762,1947240.23999143,41.0,16.0,12.0,42.011416358668775,-87.77766899713184,"(42.01141635866877, -87.77766899713184)",2015-06-03
111455,06/03/2015,Completed - Dup,06/03/2015,15-02450029,Alley Light Out,11703 S RACINE AVE,60643.0,1170432.34941728,1827179.75130032,34.0,5.0,53.0,41.681260549191116,-87.651760462425,"(41.681260549191116, -87.651760462425)",2015-06-03
111456,06/03/2015,Completed - Dup,06/03/2015,15-02450403,Alley Light Out,6480 N OXFORD AVE,60631.0,1124129.57579471,1942545.31678753,41.0,16.0,9.0,41.99872398896235,-87.81872692318692,"(41.99872398896235, -87.8187269231869)",2015-06-03
111457,06/03/2015,Completed - Dup,06/03/2015,15-02450535,Alley Light Out,5217 S ROCKWELL ST,60632.0,1159921.59560195,1869980.18291584,14.0,9.0,63.0,41.798933489158635,-87.68906269232393,"(41.79893348915863, -87.68906269232393)",2015-06-03
111458,06/03/2015,Completed - Dup,06/03/2015,15-02456626,Alley Light Out,4400 W CARROLL AVE,60624.0,1146989.59082365,1901934.90811419,28.0,11.0,26.0,41.886877733990744,-87.7356723938039,"(41.88687773399074, -87.7356723938039)",2015-06-03
111470,06/02/2015,Completed - Dup,06/04/2015,15-02424780,Alley Light Out,3725 W 70TH ST,60629.0,1152741.57791134,1857931.10149437,13.0,8.0,65.0,41.7660136267421,-87.715711083492,"(41.7660136267421, -87.715711083492)",2015-06-02
111471,06/02/2015,Completed,06/04/2015,15-02413784,Alley Light Out,1320 W 18TH PL,60608.0,1167859.56622137,1891200.60992327,25.0,12.0,31.0,41.85699752739542,-87.65934178435938,"(41.85699752739542, -87.65934178435938)",2015-06-02
111472,06/02/2015,Completed,06/04/2015,15-02423235,Alley Light Out,3523 W SCHOOL ST,60618.0,1152333.58362786,1921720.19007878,35.0,17.0,21.0,41.941066514976406,-87.71552429458508,"(41.94106651497641, -87.71552429458508)",2015-06-02
111473,06/03/2015,Completed - Dup,06/04/2015,15-02459432,Alley Light Out,10232 S CALUMET AVE,60628.0,1180386.37192277,1837197.56733369,9.0,5.0,49.0,41.708528961340726,-87.6150178349596,"(41.70852896134073, -87.61501783495959)",2015-06-03
111474,06/03/2015,Completed - Dup,06/04/2015,15-02459654,Alley Light Out,8746 S JUSTINE ST,60620.0,1167530.57630026,1846726.76961417,21.0,22.0,71.0,41.73496318907489,-87.66182453526704,"(41.73496318907489, -87.66182453526704)",2015-06-03
111475,06/03/2015,Completed - Dup,06/04/2015,15-02460497,Alley Light Out,8745 S LUELLA AVE,60617.0,1192686.9002048,1847428.68517144,8.0,4.0,48.0,41.73631374547612,-87.56964064561346,"(41.73631374547612, -87.56964064561346)",2015-06-03
111476,06/03/2015,Completed,06/04/2015,15-02443297,Alley Light Out,720 S CARPENTER ST,60607.0,1169463.03886644,1896965.17670209,25.0,12.0,28.0,41.87278126662903,-87.65328856561192,"(41.872781266629026, -87.65328856561192)",2015-06-03
111477,06/03/2015,Completed,06/04/2015,15-02449784,Alley Light Out,1316 W 18TH PL,60608.0,1167886.46622137,1891201.40992327,25.0,12.0,31.0,41.856999143185426,-87.65924302373766,"(41.856999143185426, -87.65924302373766)",2015-06-03
111478,06/04/2015,Completed - Dup,06/04/2015,15-02463515,Alley Light Out,3446 W 53RD ST,60632.0,1154202.71989471,1869260.57356833,14.0,8.0,63.0,41.7970744872482,-87.71005442620633,"(41.7970744872482, -87.71005442620631)",2015-06-04
111479,06/04/2015,Completed - Dup,06/04/2015,15-02463750,Alley Light Out,1128 N MASSASOIT AVE,60651.0,1137813.41159937,1906940.08262439,29.0,15.0,25.0,41.900782995114696,-87.76924943680768,"(41.900782995114696, -87.76924943680768)",2015-06-04
111480,06/04/2015,Completed - Dup,06/04/2015,15-02464825,Alley Light Out,3751 N ST LOUIS AVE,60618.0,1152389.34686652,1924719.88138947,35.0,17.0,16.0,41.94929678880808,-87.71523984030735,"(41.94929678880808, -87.71523984030736)",2015-06-04
111481,06/04/2015,Completed - Dup,06/04/2015,15-02467360,Alley Light Out,610 N LARAMIE AVE,60644.0,1141586.88322814,1903570.12988354,37.0,15.0,25.0,41.89146652435422,-87.75547240006016,"(41.89146652435422, -87.75547240006016)",2015-06-04
111482,06/04/2015,Completed - Dup,06/04/2015,15-02469346,Alley Light Out,1130 N MASSASOIT AVE,60651.0,1137813.01159937,1906953.48262439,29.0,15.0,25.0,41.90081977357534,-87.76925058242719,"(41.90081977357534, -87.76925058242718)",2015-06-04
111483,06/04/2015,Completed - Dup,06/04/2015,15-02469920,Alley Light Out,4226 W CRYSTAL ST,60651.0,1147975.92379012,1907995.36041123,37.0,25.0,23.0,41.90348935648533,-87.73189426815745,"(41.90348935648533, -87.73189426815746)",2015-06-04
111484,06/04/2015,Completed - Dup,06/04/2015,15-02471181,Alley Light Out,9511 S EMERALD AVE,60628.0,1172983.03211209,1841781.74859861,21.0,22.0,73.0,41.72127489093938,-87.64199455091105,"(41.721274890939384, -87.64199455091104)",2015-06-04
111485,06/04/2015,Completed - Dup,06/04/2015,15-02473416,Alley Light Out,10813 S EGGLESTON AVE,60628.0,1175207.31670372,1833201.85081488,34.0,22.0,49.0,41.69768112145568,-87.634102654953,"(41.69768112145568, -87.634102654953)",2015-06-04
111486,06/04/2015,Completed - Dup,06/04/2015,15-02474773,Alley Light Out,3018 S PRINCETON AVE,60616.0,1174778.49677733,1884849.75817727,11.0,9.0,34.0,41.83941846126144,-87.63413545480745,"(41.83941846126144, -87.63413545480746)",2015-06-04
111487,06/04/2015,Completed - Dup,06/04/2015,15-02474961,Alley Light Out,7813 S ADA ST,60620.0,1168796.8132342,1852956.6509834,17.0,6.0,71.0,41.75203165010867,-87.6570061858527,"(41.75203165010867, -87.6570061858527)",2015-06-04
111488,06/04/2015,Completed - Dup,06/04/2015,15-02479690,Alley Light Out,3849 W FILLMORE ST,60624.0,1150905.00810936,1895096.16569752,24.0,11.0,29.0,41.86803573902482,-87.72147284582384,"(41.86803573902482, -87.72147284582385)",2015-06-04
111489,06/04/2015,Completed,06/04/2015,15-02473413,Alley Light Out,6066 N NASSAU AVE,60631.0,1132344.0282307,1939685.0175294997,41.0,16.0,10.0,41.99073563299522,-87.7885747941018,"(41.99073563299522, -87.78857479410182)",2015-06-04
111490,06/04/2015,Completed,06/04/2015,15-02477527,Alley Light Out,8929 S YATES BLVD,60617.0,1193719.32682077,1846233.08639412,7.0,4.0,48.0,41.73300771422355,-87.56589731775627,"(41.73300771422355, -87.56589731775627)",2015-06-04
111491,06/05/2015,Completed - Dup,06/05/2015,15-02483745,Alley Light Out,1748 E 71ST PL,60649.0,1189188.48227302,1857919.3000694,7.0,3.0,43.0,41.765185425552566,-87.58212187567062,"(41.76518542555256, -87.58212187567062)",2015-06-05
111492,06/05/2015,Completed - Dup,06/05/2015,15-02490422,Alley Light Out,6546 W 60TH PL,60638.0,1133798.62581715,1863702.62990788,13.0,8.0,64.0,41.78220407868912,-87.78501017708584,"(41.78220407868912, -87.78501017708585)",2015-06-05
111493,06/05/2015,Completed - Dup,06/05/2015,15-02491978,Alley Light Out,5622 S HOMAN AVE,60629.0,1154670.58576686,1867130.83628425,14.0,8.0,63.0,41.79122086083775,-87.70839546407042,"(41.79122086083775, -87.70839546407042)",2015-06-05
111494,06/05/2015,Completed - Dup,06/05/2015,15-02492055,Alley Light Out,2536 W 83RD ST,60652.0,1160756.41017666,1849513.32547927,18.0,8.0,70.0,41.74275229760674,-87.6865656502798,"(41.74275229760674, -87.68656565027982)",2015-06-05
111495,06/05/2015,Completed - Dup,06/05/2015,15-02492474,Alley Light Out,2648 S KEELER AVE,60623.0,1148812.47839477,1886064.94701338,22.0,10.0,30.0,41.84329361947058,-87.72938819282234,"(41.84329361947058, -87.72938819282234)",2015-06-05
111496,06/05/2015,Completed - Dup,06/05/2015,15-02493471,Alley Light Out,5232 W VAN BUREN ST,60644.0,1141563.32050995,1897510.3261903,29.0,15.0,25.0,41.874838103437035,-87.75570872962194,"(41.874838103437035, -87.75570872962196)",2015-06-05
111497,06/05/2015,Completed - Dup,06/05/2015,15-02493620,Alley Light Out,8101 S KENWOOD AVE,60619.0,1186616.02799998,1851546.13076757,8.0,4.0,45.0,41.74775810908074,-87.59175191856531,"(41.74775810908074, -87.59175191856532)",2015-06-05
111498,06/05/2015,Completed - Dup,06/05/2015,15-02494313,Alley Light Out,1829 N KEELER AVE,60639.0,1148098.82551532,1911842.76301284,35.0,25.0,20.0,41.914044649852045,-87.73134363453467,"(41.914044649852045, -87.73134363453465)",2015-06-05
111499,06/05/2015,Completed - Dup,06/05/2015,15-02494509,Alley Light Out,12927 S MUSKEGON AVE,60633.0,1197092.2911162,1819845.41228789,10.0,4.0,55.0,41.660514121706136,-87.55441505652232,"(41.660514121706136, -87.55441505652232)",2015-06-05
111500,06/05/2015,Completed - Dup,06/05/2015,15-02494550,Alley Light Out,7636 W MYRTLE AVE,60631.0,1124457.14720802,1940557.00988013,41.0,16.0,10.0,41.993262469790736,-87.81756591605074,"(41.993262469790736, -87.81756591605073)",2015-06-05
111501,06/05/2015,Completed - Dup,06/05/2015,15-02498781,Alley Light Out,5936 N OZANAM AVE,60631.0,1123341.93001474,1938532.29710435,41.0,16.0,10.0,41.98772480692844,-87.82171270017072,"(41.98772480692844, -87.82171270017072)",2015-06-05
111502,06/05/2015,Completed,06/05/2015,15-02485641,Alley Light Out,4509 N WHIPPLE ST,60625.0,1155235.50093099,1929804.19542087,33.0,17.0,14.0,41.963191671337,-87.70464064741644,"(41.963191671337, -87.70464064741644)",2015-06-05
111503,06/05/2015,Completed,06/05/2015,15-02489032,Alley Light Out,2048 W MADISON ST,60612.0,1162658.28222225,1900017.17236644,27.0,12.0,28.0,41.881301431336816,-87.67818638028456,"(41.881301431336816, -87.67818638028456)",2015-06-05
111504,06/05/2015,Completed,06/05/2015,15-02489037,Alley Light Out,2046 W WARREN BLVD,60612.0,1162761.90287546,1900350.91060246,27.0,12.0,28.0,41.88221506616927,-87.67779653012245,"(41.882215066169266, -87.67779653012246)",2015-06-05
111505,06/05/2015,Completed,06/05/2015,15-02489043,Alley Light Out,2035 W WARREN BLVD,60612.0,1162835.70287546,1900352.91060246,27.0,12.0,28.0,41.882219007110145,-87.67752548054294,"(41.882219007110145, -87.67752548054293)",2015-06-05
111506,06/05/2015,Completed,06/05/2015,15-02489053,Alley Light Out,2346 W WASHINGTON BLVD,60612.0,1160754.2299683997,1900626.64408323,27.0,12.0,28.0,41.88301354916127,-87.68516106215411,"(41.88301354916127, -87.6851610621541)",2015-06-05
111507,06/05/2015,Completed,06/05/2015,15-02489058,Alley Light Out,2347 W WARREN BLVD,60612.0,1160757.75666798,1900294.32171001,27.0,12.0,28.0,41.88210155400176,-87.68515732867716,"(41.88210155400176, -87.68515732867715)",2015-06-05
111508,06/05/2015,Completed,06/05/2015,15-02489067,Alley Light Out,40 N ASHLAND AVE,60607.0,1165744.99653316,1900454.8993892,27.0,12.0,28.0,41.882437369132106,-87.66683966742272,"(41.882437369132106, -87.66683966742272)",2015-06-05
111509,06/05/2015,Completed,06/05/2015,15-02489071,Alley Light Out,52 N ASHLAND AVE,60607.0,1165742.69653316,1900518.6993891997,27.0,12.0,28.0,41.88261249036397,-87.66684629361168,"(41.88261249036397, -87.66684629361167)",2015-06-05
111510,06/05/2015,Completed,06/05/2015,15-02491451,Alley Light Out,7836 S KIMBARK AVE,60619.0,1186238.49796787,1853297.06759948,8.0,4.0,45.0,41.75257177284095,-87.5930800869511,"(41.752571772840945, -87.59308008695109)",2015-06-05
111511,06/05/2015,Completed,06/05/2015,15-02496943,Alley Light Out,4944 N MERRIMAC AVE,60630.0,1133543.87110031,1932543.57549247,45.0,16.0,11.0,41.97111783632401,-87.78432977448121,"(41.97111783632401, -87.7843297744812)",2015-06-05
111513,06/04/2015,Completed - Dup,06/05/2015,15-02472795,Alley Light Out,4949 S LAMON AVE,60638.0,1144528.1596334,1871365.73037992,22.0,8.0,56.0,41.80303838671246,-87.7454799333985,"(41.80303838671246, -87.7454799333985)",2015-06-04
111514,06/04/2015,Completed - Dup,06/05/2015,15-02480832,Alley Light Out,6748 S CORNELL AVE,60649.0,1188364.72992616,1860562.29496802,5.0,3.0,43.0,41.77245772942776,-87.58505684999403,"(41.772457729427764, -87.58505684999403)",2015-06-04
111515,06/04/2015,Completed - Dup,06/05/2015,15-02481137,Alley Light Out,8026 S EUCLID AVE,60617.0,1190593.31289874,1852140.88568261,8.0,4.0,46.0,41.749295181257175,-87.57715899837149,"(41.74929518125717, -87.57715899837149)",2015-06-04
111516,06/04/2015,Completed - Dup,06/05/2015,15-02481140,Alley Light Out,455 W 26TH ST,60616.0,1173527.99699375,1887031.09987982,11.0,9.0,60.0,41.84543208377487,-87.63865944574142,"(41.84543208377487, -87.63865944574142)",2015-06-04
111517,06/04/2015,Completed - Dup,06/05/2015,15-02481142,Alley Light Out,5151 S SPAULDING AVE,60632.0,1155250.63931884,1870278.58347354,14.0,8.0,63.0,41.79984713483589,-87.70618430620213,"(41.7998471348359, -87.70618430620213)",2015-06-04
111518,06/04/2015,Completed - Dup,06/05/2015,15-02481903,Alley Light Out,5619 S TRUMBULL AVE,60629.0,1154336.33180727,1867141.66760272,14.0,8.0,63.0,41.79125724449845,-87.70962082606268,"(41.791257244498446, -87.70962082606268)",2015-06-04
111519,06/04/2015,Completed - Dup,06/05/2015,15-02482629,Alley Light Out,5256 W CHICAGO AVE,60651.0,1141084.35871059,1904824.01920356,37.0,15.0,25.0,41.89491661993046,-87.75728704635063,"(41.89491661993046, -87.75728704635064)",2015-06-04
111520,06/04/2015,Completed,06/05/2015,15-02462092,Alley Light Out,6566 W BARRY AVE,60634.0,1132042.5304168998,1919892.60568988,36.0,25.0,19.0,41.93642849115996,-87.79014531531506,"(41.93642849115996, -87.79014531531506)",2015-06-04
111521,06/04/2015,Completed,06/05/2015,15-02473490,Alley Light Out,5131 S MARSHFIELD AVE,60609.0,1166209.15242812,1870684.76279659,16.0,9.0,61.0,41.800735306274056,-87.66598467608412,"(41.800735306274056, -87.66598467608412)",2015-06-04
111522,06/03/2015,Completed - Dup,06/05/2015,15-02451394,Alley Light Out,9747 S PARNELL AVE,60628.0,1174351.22337005,1840250.9096798,21.0,22.0,73.0,41.71704379491715,-87.63702850111595,"(41.71704379491715, -87.63702850111596)",2015-06-03
111523,06/03/2015,Completed - Dup,06/05/2015,15-02453404,Alley Light Out,10856 S WALLACE ST,60628.0,1174235.67391187,1832890.12802866,34.0,22.0,49.0,41.69684729849345,-87.63766949640018,"(41.696847298493445, -87.63766949640018)",2015-06-03
111524,06/03/2015,Completed - Dup,06/05/2015,15-02459937,Alley Light Out,1826 S SPAULDING AVE,60623.0,1154651.78270651,1890920.27550397,24.0,10.0,29.0,41.856502528167645,-87.70782934045096,"(41.856502528167645, -87.70782934045096)",2015-06-03
111525,06/03/2015,Completed - Dup,06/05/2015,15-02460680,Alley Light Out,2642 W HOMER ST,60647.0,1158442.7958201,1912854.33032031,1.0,14.0,22.0,41.91661495067898,-87.69331380039812,"(41.916614950678984, -87.69331380039812)",2015-06-03
111526,06/03/2015,Completed,06/05/2015,15-02459030,Alley Light Out,7046 N IONIA AVE,60646.0,1135855.95618935,1946475.41848337,41.0,16.0,12.0,42.00930699485275,-87.77549415399689,"(42.00930699485275, -87.77549415399689)",2015-06-03
111527,06/03/2015,Completed,06/05/2015,15-02459493,Alley Light Out,5230 N MOODY AVE,60630.0,1134074.55002494,1934403.2261721,45.0,16.0,11.0,41.97621154389111,-87.78233439530638,"(41.97621154389111, -87.78233439530638)",2015-06-03
111528,06/02/2015,Completed - Dup,06/05/2015,15-02427853,Alley Light Out,8014 S WASHTENAW AVE,60652.0,1159770.07251782,1851386.71270109,18.0,8.0,70.0,41.74791345271789,-87.69012833196939,"(41.74791345271789, -87.69012833196939)",2015-06-02
111529,06/02/2015,Completed - Dup,06/05/2015,15-02427993,Alley Light Out,8220 S FAIRFIELD AVE,60652.0,1159472.31877226,1850007.95409848,18.0,8.0,70.0,41.74413602476072,-87.69125710335676,"(41.744136024760714, -87.69125710335676)",2015-06-02
111530,06/02/2015,Completed - Dup,06/05/2015,15-02428040,Alley Light Out,8014 S WASHTENAW AVE,60652.0,1159770.07251782,1851386.71270109,18.0,8.0,70.0,41.74791345271789,-87.69012833196939,"(41.74791345271789, -87.69012833196939)",2015-06-02
111531,06/02/2015,Completed,06/05/2015,15-02417960,Alley Light Out,2047 N LA CROSSE AVE,60639.0,1143709.92906725,1913174.48147031,36.0,25.0,19.0,41.91778242545742,-87.74743443537795,"(41.91778242545742, -87.74743443537797)",2015-06-02
111532,06/02/2015,Completed,06/05/2015,15-02423546,Alley Light Out,5615 W WILSON AVE,60630.0,1138074.47677831,1930025.35987741,38.0,16.0,15.0,41.96412674869335,-87.7677311219205,"(41.96412674869335, -87.76773112192052)",2015-06-02
111533,06/02/2015,Completed,06/05/2015,15-02423896,Alley Light Out,8220 S FAIRFIELD AVE,60652.0,1159472.31877226,1850007.95409848,18.0,8.0,70.0,41.74413602476072,-87.69125710335676,"(41.744136024760714, -87.69125710335676)",2015-06-02
111534,06/02/2015,Completed,06/05/2015,15-02423968,Alley Light Out,8014 S WASHTENAW AVE,60652.0,1159770.07251782,1851386.71270109,18.0,8.0,70.0,41.74791345271789,-87.69012833196939,"(41.74791345271789, -87.69012833196939)",2015-06-02
111537,06/01/2015,Completed - Dup,06/05/2015,15-02397488,Alley Light Out,6030 N KILBOURN AVE,60646.0,1145410.56751435,1939639.70578616,39.0,17.0,12.0,41.99037315461079,-87.74051354010727,"(41.9903731546108, -87.74051354010726)",2015-06-01
111538,06/01/2015,Completed,06/05/2015,15-02397524,Alley Light Out,1025 W LILL AVE,60614.0,1169024.18182963,1917117.58009312,43.0,19.0,7.0,41.92809026358468,-87.65431418503314,"(41.92809026358468, -87.65431418503314)",2015-06-01
111560,06/06/2015,Completed - Dup,06/06/2015,15-02522249,Alley Light Out,8135 S STEWART AVE,60620.0,1175039.21698759,1850999.1650231003,21.0,6.0,44.0,41.746523133104795,-87.63418892695633,"(41.746523133104795, -87.63418892695633)",2015-06-06
111561,06/06/2015,Completed - Dup,06/06/2015,15-02523415,Alley Light Out,7810 S ADA ST,60620.0,1168796.3132342,1852976.7509834,17.0,6.0,71.0,41.752086818020466,-87.65700743912052,"(41.75208681802047, -87.65700743912052)",2015-06-06
111562,06/06/2015,Completed - Dup,06/06/2015,15-02528571,Alley Light Out,8740 S JUSTINE ST,60620.0,1167529.37630026,1846766.96961417,21.0,22.0,71.0,41.73507352945745,-87.66182778249403,"(41.73507352945745, -87.66182778249403)",2015-06-06
111563,06/06/2015,Completed,06/06/2015,15-02517540,Alley Light Out,3602 S MARSHFIELD AVE,60609.0,1165938.38580201,1880845.96157419,12.0,9.0,59.0,41.82862452943609,-87.66668857807375,"(41.82862452943609, -87.66668857807375)",2015-06-06
111564,06/06/2015,Completed,06/06/2015,15-02517542,Alley Light Out,3601 S HERMITAGE AVE,60609.0,1165272.72079671,1880837.49602478,12.0,9.0,59.0,41.82861544774296,-87.66913109468516,"(41.828615447742955, -87.66913109468516)",2015-06-06
111565,06/06/2015,Completed,06/06/2015,15-02517546,Alley Light Out,3617 S HERMITAGE AVE,60609.0,1165275.52079671,1880729.89602478,12.0,9.0,59.0,41.828320122552704,-87.66912387390938,"(41.8283201225527, -87.66912387390937)",2015-06-06
111566,06/06/2015,Completed,06/06/2015,15-02521528,Alley Light Out,3125 W IRVING PARK RD,60618.0,1154720.21181916,1926424.98767347,33.0,17.0,16.0,41.953929269233534,-87.70662605618321,"(41.95392926923354, -87.7066260561832)",2015-06-06
111567,06/06/2015,Completed,06/06/2015,15-02522272,Alley Light Out,501 N LARAMIE AVE,60644.0,1141613.86209788,1902765.87998918,37.0,15.0,25.0,41.88925906669292,-87.7553932120281,"(41.889259066692915, -87.7553932120281)",2015-06-06
111568,06/06/2015,Completed,06/06/2015,15-02522348,Alley Light Out,621 N LARAMIE AVE,60644.0,1141584.58322814,1903639.12988354,37.0,15.0,25.0,41.891655911172585,-87.75547914041563,"(41.891655911172585, -87.75547914041562)",2015-06-06
111569,06/06/2015,Completed,06/06/2015,15-02522478,Alley Light Out,629 N LARAMIE AVE,60644.0,1141582.88322814,1903689.32988354,37.0,15.0,25.0,41.8917936974336,-87.75548414222551,"(41.89179369743359, -87.75548414222551)",2015-06-06
111570,06/06/2015,Completed,06/06/2015,15-02522532,Alley Light Out,639 N LARAMIE AVE,60644.0,1141580.78322814,1903752.12988354,37.0,15.0,25.0,41.89196606699909,-87.75549030146152,"(41.89196606699909, -87.75549030146153)",2015-06-06
111571,06/06/2015,Completed,06/06/2015,15-02522538,Alley Light Out,651 N LARAMIE AVE,60644.0,1141578.20878262,1903827.45100446,37.0,15.0,25.0,41.892172804788,-87.75549789350102,"(41.892172804788004, -87.75549789350102)",2015-06-06
111572,06/06/2015,Completed,06/06/2015,15-02522568,Alley Light Out,610 N LARAMIE AVE,60644.0,1141586.88322814,1903570.12988354,37.0,15.0,25.0,41.89146652435422,-87.75547240006016,"(41.89146652435422, -87.75547240006016)",2015-06-06
111573,06/06/2015,Completed,06/06/2015,15-02522670,Alley Light Out,4739 W RACE AVE,60644.0,1144669.46002085,1903238.74997075,28.0,11.0,25.0,41.89049965408112,-87.74415975774963,"(41.89049965408112, -87.74415975774963)",2015-06-06
111574,06/06/2015,Completed,06/06/2015,15-02522748,Alley Light Out,1831 N KARLOV AVE,60639.0,1148761.32691362,1911870.97501609,35.0,25.0,20.0,41.914109280389475,-87.72890896762445,"(41.91410928038948, -87.72890896762446)",2015-06-06
111575,06/06/2015,Completed,06/06/2015,15-02522754,Alley Light Out,1841 N KARLOV AVE,60639.0,1148759.32691362,1911935.37501609,35.0,25.0,20.0,41.914286038879226,-87.72891464799488,"(41.914286038879226, -87.72891464799487)",2015-06-06
111576,06/06/2015,Completed,06/06/2015,15-02522759,Alley Light Out,1807 N KARLOV AVE,60639.0,1148766.02691362,1911716.37501609,35.0,25.0,20.0,41.91368495216165,-87.72889570325941,"(41.91368495216165, -87.72889570325941)",2015-06-06
111577,06/06/2015,Completed,06/06/2015,15-02523235,Alley Light Out,7807 S ADA ST,60620.0,1168795.8132342,1852996.8509834,17.0,6.0,71.0,41.752141985931736,-87.65700869238987,"(41.752141985931736, -87.65700869238988)",2015-06-06
111578,06/06/2015,Completed,06/06/2015,15-02523403,Alley Light Out,815 N SPRINGFIELD AVE,60651.0,1150241.69769079,1905160.61988889,37.0,11.0,23.0,41.895666649945,-87.72364551146076,"(41.895666649945, -87.72364551146076)",2015-06-06
111579,06/06/2015,Completed,06/06/2015,15-02523409,Alley Light Out,6444 S PARNELL AVE,60621.0,1173726.1504688999,1862170.09458002,20.0,7.0,68.0,41.77720668592185,-87.63866974464455,"(41.777206685921854, -87.63866974464455)",2015-06-06
111580,06/06/2015,Completed,06/06/2015,15-02523410,Alley Light Out,825 N SPRINGFIELD AVE,60651.0,1150239.69769079,1905227.91988889,37.0,11.0,23.0,41.895851367052394,-87.72365110058945,"(41.89585136705239, -87.72365110058945)",2015-06-06
111581,06/06/2015,Completed,06/06/2015,15-02523418,Alley Light Out,857 N SPRINGFIELD AVE,60651.0,1150233.38002033,1905443.00996906,37.0,11.0,23.0,41.89644171946279,-87.72366869063627,"(41.896441719462786, -87.72366869063627)",2015-06-06
111582,06/06/2015,Completed,06/06/2015,15-02523426,Alley Light Out,3642 W CHICAGO AVE,60651.0,1151865.48082798,1905092.42840215,27.0,11.0,23.0,41.895447707227184,-87.71768348081358,"(41.89544770722719, -87.71768348081358)",2015-06-06
111583,06/06/2015,Completed,06/06/2015,15-02523489,Alley Light Out,4001 W ARMITAGE AVE,60639.0,1149381.57121784,1912989.11862876,35.0,25.0,20.0,41.91716555509247,-87.72660121541975,"(41.91716555509247, -87.72660121541975)",2015-06-06
111584,06/06/2015,Completed,06/06/2015,15-02523598,Alley Light Out,1975 N RIDGEWAY AVE,60647.0,1151059.96003409,1912953.47001734,26.0,25.0,22.0,41.917034983226316,-87.72043569628073,"(41.91703498322631, -87.72043569628072)",2015-06-06
111585,06/06/2015,Completed,06/06/2015,15-02523661,Alley Light Out,441 N PULASKI RD,60624.0,1149647.63927513,1902629.69882036,37.0,11.0,23.0,41.888733098955896,-87.72589317801906,"(41.888733098955896, -87.72589317801906)",2015-06-06
111586,06/06/2015,Completed,06/06/2015,15-02523668,Alley Light Out,3853 W FILLMORE ST,60624.0,1150876.30151751,1895095.47818195,24.0,11.0,29.0,41.86803441382626,-87.72157825196129,"(41.86803441382626, -87.7215782519613)",2015-06-06
111587,06/06/2015,Completed,06/06/2015,15-02526585,Alley Light Out,3658 W MCLEAN AVE,60647.0,1151656.33796795,1913375.31509137,26.0,25.0,22.0,41.91818084755824,-87.71823347409874,"(41.91818084755824, -87.71823347409874)",2015-06-06
111588,06/06/2015,Completed,06/06/2015,15-02526593,Alley Light Out,3652 W MCLEAN AVE,60647.0,1151696.73796795,1913376.31509137,26.0,25.0,22.0,41.91818279641704,-87.71808501458449,"(41.91818279641705, -87.71808501458449)",2015-06-06
111589,06/06/2015,Completed,06/06/2015,15-02526602,Alley Light Out,3642 W MCLEAN AVE,60647.0,1151764.05122421,1913377.96988257,26.0,25.0,22.0,41.91818601189644,-87.7178376561238,"(41.91818601189644, -87.71783765612382)",2015-06-06
111590,06/06/2015,Completed,06/06/2015,15-02526606,Alley Light Out,2210 N CENTRAL PARK AVE,60647.0,1152012.95507206,1914499.80481134,35.0,25.0,22.0,41.92125951970736,-87.71689353390133,"(41.921259519707355, -87.71689353390133)",2015-06-06
111591,06/06/2015,Completed,06/06/2015,15-02526700,Alley Light Out,4114 W CORNELIA AVE,60641.0,1148460.81747403,1923043.69592216,30.0,17.0,16.0,41.9447740342317,-87.72972403143656,"(41.9447740342317, -87.72972403143656)",2015-06-06
111592,06/06/2015,Completed,06/06/2015,15-02526817,Alley Light Out,3045 N MAJOR AVE,60634.0,1137843.81816589,1919673.34137711,31.0,25.0,19.0,41.93572396189025,-87.76882988848286,"(41.93572396189024, -87.76882988848286)",2015-06-06
111593,06/06/2015,Completed,06/06/2015,15-02526841,Alley Light Out,3035 N MAJOR AVE,60634.0,1137846.01816589,1919606.24137711,31.0,25.0,19.0,41.93553979264389,-87.76882342697813,"(41.935539792643894, -87.76882342697812)",2015-06-06
111594,06/06/2015,Completed,06/06/2015,15-02526846,Alley Light Out,2849 N MENARD AVE,60634.0,1137225.08927835,1918352.62968541,30.0,25.0,19.0,41.93211094399224,-87.77113562558554,"(41.93211094399224, -87.77113562558553)",2015-06-06
111595,06/05/2015,Completed - Dup,06/06/2015,15-02493940,Alley Light Out,3013 W WALNUT ST,60612.0,1156256.67850837,1901481.11610509,27.0,12.0,27.0,41.88545033039133,-87.70165323570788,"(41.88545033039133, -87.70165323570788)",2015-06-05
111596,06/05/2015,Completed,06/06/2015,15-02491257,Alley Light Out,6446 N SACRAMENTO AVE,60645.0,1155167.8488748998,1942606.20777692,50.0,24.0,2.0,41.99832242150132,-87.70454385494209,"(41.99832242150132, -87.7045438549421)",2015-06-05
111597,06/05/2015,Completed,06/06/2015,15-02491434,Alley Light Out,3020 W DEVON AVE,60659.0,1154964.64773405,1942290.71579641,50.0,24.0,2.0,41.99746078977144,-87.70529988034995,"(41.99746078977144, -87.70529988034997)",2015-06-05
111598,06/04/2015,Completed - Dup,06/06/2015,15-02467766,Alley Light Out,4446 N RICHMOND ST,60625.0,1155912.73511028,1929402.58338205,33.0,17.0,14.0,41.96207596168461,-87.70216156295113,"(41.96207596168461, -87.70216156295112)",2015-06-04
111599,06/04/2015,Completed - Dup,06/06/2015,15-02468681,Alley Light Out,3305 W BELLE PLAINE AVE,60618.0,1153621.90879765,1927071.33840196,33.0,17.0,16.0,41.955724867701456,-87.71064630118263,"(41.955724867701456, -87.71064630118263)",2015-06-04
111600,06/04/2015,Completed - Dup,06/06/2015,15-02482040,Alley Light Out,1827 N KEELER AVE,60639.0,1148099.22551532,1911829.86301284,35.0,25.0,20.0,41.91400924328641,-87.73134249763625,"(41.91400924328641, -87.73134249763625)",2015-06-04
111601,06/04/2015,Completed,06/06/2015,15-02465139,Alley Light Out,2914 W TOUHY AVE,60645.0,1155642.98880514,1947595.52480934,50.0,24.0,2.0,42.01200371587607,-87.70266076223612,"(42.01200371587607, -87.70266076223612)",2015-06-04
111602,06/04/2015,Completed,06/06/2015,15-02467995,Alley Light Out,7748 S KILPATRICK AVE,60652.0,1146417.8100327,1852770.9900220002,18.0,8.0,70.0,41.75197564033756,-87.73902090959909,"(41.751975640337555, -87.73902090959909)",2015-06-04
111603,06/04/2015,Completed,06/06/2015,15-02471161,Alley Light Out,9500 S EMERALD AVE,60628.0,1172981.03211209,1841855.34859861,21.0,22.0,73.0,41.72147690384482,-87.6419997116367,"(41.721476903844824, -87.64199971163671)",2015-06-04
111604,06/03/2015,Completed - Dup,06/06/2015,15-02447153,Alley Light Out,3700 W THOMAS ST,60651.0,1151510.07537495,1907080.33321978,27.0,11.0,23.0,41.90090970569685,-87.71893652256449,"(41.90090970569684, -87.71893652256448)",2015-06-03
111605,06/03/2015,Completed,06/06/2015,15-02456323,Alley Light Out,4923 S HERMITAGE AVE,60609.0,1165510.47290787,1872024.42441171,20.0,9.0,61.0,41.80442635241909,-87.6685089674653,"(41.80442635241909, -87.66850896746529)",2015-06-03
111606,06/02/2015,Completed,06/06/2015,15-02413307,Alley Light Out,1315 N MAPLEWOOD AVE,60622.0,1159165.79582803,1908658.15851057,26.0,14.0,24.0,41.90508549087277,-87.6907730070664,"(41.905085490872764, -87.69077300706641)",2015-06-02
111608,06/01/2015,Completed - Dup,06/06/2015,15-02389485,Alley Light Out,3013 W WALNUT ST,60612.0,1156256.67850837,1901481.11610509,27.0,12.0,27.0,41.88545033039133,-87.70165323570788,"(41.88545033039133, -87.70165323570788)",2015-06-01
111609,06/01/2015,Completed - Dup,06/06/2015,15-02390955,Alley Light Out,6608 W SCHOOL ST,60634.0,1131694.69762317,1921101.32989039,36.0,16.0,17.0,41.93975140995735,-87.79139558185976,"(41.93975140995735, -87.79139558185977)",2015-06-01
111610,06/01/2015,Completed - Dup,06/06/2015,15-02404354,Alley Light Out,1809 S LAFLIN ST,60608.0,1166655.67658623,1891397.48522656,25.0,12.0,31.0,41.85756361801633,-87.66375507883222,"(41.85756361801633, -87.66375507883222)",2015-06-01
111611,06/01/2015,Completed - Dup,06/06/2015,15-02405192,Alley Light Out,3855 W FILLMORE ST,60624.0,1150861.90151751,1895095.17818195,24.0,11.0,29.0,41.86803387218032,-87.72163112534494,"(41.86803387218032, -87.72163112534494)",2015-06-01
111612,06/01/2015,Completed - Dup,06/06/2015,15-02405739,Alley Light Out,6409 S HONORE ST,60636.0,1165113.58670437,1862175.06381228,15.0,7.0,67.0,41.77740689715423,-87.67024317698827,"(41.77740689715423, -87.67024317698827)",2015-06-01
111613,06/01/2015,Completed,06/06/2015,15-02389731,Alley Light Out,1825 S CHRISTIANA AVE,60623.0,1154323.63021839,1890806.80550993,24.0,10.0,29.0,41.85619770723324,-87.70903686859297,"(41.856197707233235, -87.70903686859297)",2015-06-01
111614,06/01/2015,Completed,06/06/2015,15-02405917,Alley Light Out,1536 N KOLIN AVE,60651.0,1147099.70248913,1909762.30439179,26.0,25.0,23.0,41.90835484625822,-87.73506758709307,"(41.90835484625822, -87.73506758709307)",2015-06-01
111897,06/07/2015,Completed - Dup,06/07/2015,15-02543058,Alley Light Out,6429 S HARVARD AVE,60621.0,1175170.54008154,1862343.06706955,20.0,7.0,68.0,41.77764920190536,-87.63336949480059,"(41.777649201905355, -87.6333694948006)",2015-06-07
112038,06/08/2015,Completed,06/08/2015,15-02565861,Alley Light Out,5425 N CLARK ST,60640.0,1165060.69573043,1936199.11988927,48.0,20.0,77.0,41.980536076813436,-87.66833439311684,"(41.98053607681344, -87.66833439311685)",2015-06-08
112039,06/07/2015,Completed - Dup,06/08/2015,15-02537269,Alley Light Out,1914 N NORMANDY AVE,60707.0,1131446.12179838,1911995.98322469,29.0,25.0,25.0,41.91476954856849,-87.7925202643056,"(41.91476954856849, -87.7925202643056)",2015-06-07
112040,06/08/2015,Completed - Dup,06/08/2015,15-02572260,Alley Light Out,5256 W CHICAGO AVE,60651.0,1141084.35871059,1904824.01920356,37.0,15.0,25.0,41.89491661993046,-87.75728704635063,"(41.89491661993046, -87.75728704635064)",2015-06-08
112041,06/08/2015,Completed,06/08/2015,15-02558012,Alley Light Out,5044 S KENNETH AVE,60632.0,1147547.65989368,1870803.97453041,14.0,8.0,57.0,41.80143963904687,-87.73442022328048,"(41.80143963904687, -87.73442022328048)",2015-06-08
112042,06/08/2015,Completed,06/08/2015,15-02565850,Alley Light Out,5419 N CLARK ST,60640.0,1165064.79573043,1936138.61988927,48.0,20.0,77.0,41.98036997550224,-87.6683210422311,"(41.980369975502235, -87.6683210422311)",2015-06-08
112043,06/06/2015,Completed,06/08/2015,15-02518005,Alley Light Out,3015 W WELLINGTON AVE,60618.0,1155686.26740706,1919792.03717975,33.0,14.0,21.0,41.935708558345425,-87.7032539491602,"(41.935708558345425, -87.7032539491602)",2015-06-06
112044,06/05/2015,Completed,06/08/2015,15-02483675,Alley Light Out,5413 N CLARK ST,60640.0,1165068.78647242,1936078.088995,48.0,20.0,77.0,41.980203791737935,-87.66830809410024,"(41.98020379173794, -87.66830809410025)",2015-06-05
112045,06/04/2015,Completed,06/08/2015,15-02473355,Alley Light Out,4226 W CRYSTAL ST,60651.0,1147975.92379012,1907995.36041123,37.0,25.0,23.0,41.90348935648533,-87.73189426815745,"(41.90348935648533, -87.73189426815746)",2015-06-04
112046,06/04/2015,Completed,06/08/2015,15-02479498,Alley Light Out,1345 W CARMEN AVE,60640.0,1166412.98701548,1934033.05683054,47.0,20.0,3.0,41.974563415894366,-87.6634234616678,"(41.974563415894366, -87.66342346166779)",2015-06-04
112047,06/03/2015,Completed - Dup,06/08/2015,15-02460171,Alley Light Out,1050 W BERWYN AVE,60640.0,1168210.32738001,1935371.12182087,48.0,20.0,77.0,41.978196345171796,-87.65677526996076,"(41.978196345171796, -87.65677526996076)",2015-06-03
112107,06/09/2015,Completed - Dup,06/09/2015,15-02586260,Alley Light Out,45 N MAYFIELD AVE,60644.0,1137161.05010053,1899740.60811098,29.0,15.0,25.0,41.88103845722597,-87.77181869575986,"(41.88103845722597, -87.77181869575986)",2015-06-09
112108,06/09/2015,Completed - Dup,06/09/2015,15-02586416,Alley Light Out,4855 W BLOOMINGDALE AVE,60639.0,1143528.75012294,1911524.93730451,37.0,25.0,25.0,41.91325929703453,-87.7481414548539,"(41.913259297034536, -87.7481414548539)",2015-06-09
112109,06/09/2015,Completed - Dup,06/09/2015,15-02586611,Alley Light Out,4533 W JACKSON BLVD,60624.0,1146077.23012245,1898298.1977243,28.0,11.0,26.0,41.876915563164225,-87.73911533297,"(41.876915563164225, -87.73911533297002)",2015-06-09
112110,06/09/2015,Completed - Dup,06/09/2015,15-02589647,Alley Light Out,1125 N MENARD AVE,60651.0,1137483.37966601,1906911.19482231,29.0,15.0,25.0,41.90070967185084,-87.77046238150369,"(41.90070967185084, -87.77046238150368)",2015-06-09
112111,06/09/2015,Completed - Dup,06/09/2015,15-02590398,Alley Light Out,5011 W OAKDALE AVE,60641.0,1142457.96890757,1919149.25513279,31.0,25.0,19.0,41.934201193837005,-87.75188539169086,"(41.93420119383701, -87.75188539169086)",2015-06-09
112112,06/09/2015,Completed - Dup,06/09/2015,15-02592177,Alley Light Out,5743 W RACE AVE,60644.0,1137982.00002864,1903041.22998652,29.0,15.0,25.0,41.89008101279424,-87.76872443174784,"(41.89008101279424, -87.76872443174783)",2015-06-09
112113,06/09/2015,Completed - Dup,06/09/2015,15-02592393,Alley Light Out,5747 W RACE AVE,60644.0,1137957.80002864,1903040.72998652,29.0,15.0,25.0,41.890080077657046,-87.7688133185923,"(41.890080077657046, -87.7688133185923)",2015-06-09
112114,06/09/2015,Completed - Dup,06/09/2015,15-02592895,Alley Light Out,10844 S ARTESIAN AVE,60655.0,1161971.81580957,1832647.85602174,19.0,22.0,75.0,41.69644550816307,-87.68257944923485,"(41.69644550816307, -87.68257944923485)",2015-06-09
112115,06/09/2015,Completed - Dup,06/09/2015,15-02594012,Alley Light Out,6239 S MORGAN ST,60621.0,1170714.87133412,1863446.58677824,16.0,7.0,68.0,41.78077575198432,-87.64967182577128,"(41.78077575198432, -87.64967182577128)",2015-06-09
112116,06/09/2015,Completed - Dup,06/09/2015,15-02595772,Alley Light Out,10628 S CALUMET AVE,60628.0,1180461.5085772,1834565.22869781,9.0,5.0,49.0,41.701303752281525,-87.61482310988623,"(41.70130375228152, -87.61482310988622)",2015-06-09
112117,06/09/2015,Completed,06/09/2015,15-02594305,Alley Light Out,6441 N NEWLAND AVE,60631.0,1129181.72049867,1942463.59678767,41.0,16.0,10.0,41.99841491926923,-87.8001431001072,"(41.99841491926923, -87.80014310010722)",2015-06-09
112118,06/06/2015,Completed - Dup,06/09/2015,15-02513187,Alley Light Out,7822 S KIMBARK AVE,60619.0,1186236.09796787,1853390.76759948,8.0,4.0,45.0,41.752828951431496,-87.59308592751681,"(41.7528289514315, -87.59308592751682)",2015-06-06
112119,06/08/2015,Completed - Dup,06/09/2015,15-02566690,Alley Light Out,6259 N CALDWELL AVE,60646.0,1139585.2185685,1941307.00767782,39.0,16.0,12.0,41.99505700925168,-87.76189977615967,"(41.99505700925168, -87.76189977615967)",2015-06-08
112120,06/08/2015,Completed,06/09/2015,15-02560854,Alley Light Out,1442 N DEARBORN ST,60610.0,1175664.82599942,1910038.11993117,2.0,18.0,8.0,41.90851703963575,-87.63012580692848,"(41.90851703963574, -87.63012580692849)",2015-06-08
112121,06/08/2015,Completed,06/09/2015,15-02567911,Alley Light Out,3417 W NORTH AVE,60647.0,1153242.01158771,1910422.18957124,26.0,14.0,23.0,41.910045854759176,-87.71248611518917,"(41.91004585475918, -87.71248611518917)",2015-06-08
112122,06/08/2015,Completed,06/09/2015,15-02571209,Alley Light Out,1711 N KEYSTONE AVE,60639.0,1149118.36058692,1911068.27370559,26.0,25.0,23.0,41.911899678654024,-87.7276181019464,"(41.91189967865402, -87.7276181019464)",2015-06-08
112123,06/05/2015,Completed - Dup,06/09/2015,15-02506273,Alley Light Out,621 E 89TH ST,60619.0,1181936.47376625,1846104.16168235,6.0,6.0,44.0,41.73293412470024,-87.6090668913367,"(41.732934124700236, -87.60906689133668)",2015-06-05
112124,06/05/2015,Completed,06/09/2015,15-02491592,Alley Light Out,7631 N BOSWORTH AVE,60626.0,1164634.69000777,1950548.97896794,49.0,24.0,1.0,42.019921495882826,-87.66949192937149,"(42.01992149588283, -87.6694919293715)",2015-06-05
112125,06/05/2015,Completed,06/09/2015,15-02493644,Alley Light Out,7751 S KNOX AVE,60652.0,1146751.86621719,1852771.05411159,18.0,8.0,70.0,41.751969477503465,-87.73779672287584,"(41.751969477503465, -87.73779672287584)",2015-06-05
112126,06/05/2015,Completed,06/09/2015,15-02500822,Alley Light Out,4551 W JACKSON BLVD,60624.0,1145863.82598831,1898293.94590002,28.0,11.0,25.0,41.876907947288,-87.73989900501795,"(41.876907947288, -87.73989900501796)",2015-06-05
112127,06/03/2015,Completed,06/09/2015,15-02448810,Alley Light Out,2230 W WINONA ST,60625.0,1160545.76530909,1934138.91988704,40.0,20.0,4.0,41.974977783462045,-87.68499604302247,"(41.974977783462045, -87.68499604302247)",2015-06-03
112128,06/04/2015,Completed - Dup,06/09/2015,15-02466665,Alley Light Out,10100 S WENTWORTH AVE,60628.0,1176723.97348716,1837976.92351174,9.0,5.0,49.0,41.71075067680477,-87.62840638332638,"(41.710750676804764, -87.62840638332638)",2015-06-04
112129,06/04/2015,Completed,06/09/2015,15-02461385,Alley Light Out,5048 W QUINCY ST,60644.0,1142751.58311976,1898529.56796633,28.0,15.0,25.0,41.877613004566285,-87.75132049541651,"(41.877613004566285, -87.7513204954165)",2015-06-04
112130,06/02/2015,Completed,06/09/2015,15-02426897,Alley Light Out,1310 W LUNT AVE,60626.0,1166150.84408701,1946636.76931528,49.0,24.0,1.0,42.0091539355697,-87.6640252004522,"(42.0091539355697, -87.66402520045219)",2015-06-02
112131,06/01/2015,Completed,06/09/2015,15-02389544,Alley Light Out,6300 N CAMPBELL AVE,60659.0,1158511.85573399,1941739.2888825,50.0,24.0,2.0,41.995875520642414,-87.69226620473785,"(41.995875520642414, -87.69226620473786)",2015-06-01
112159,06/10/2015,Completed - Dup,06/10/2015,15-02603383,Alley Light Out,10324 S AVENUE L,60617.0,1201829.47902831,1837111.04761434,10.0,4.0,52.0,41.70777386400739,-87.53649605484026,"(41.70777386400739, -87.53649605484026)",2015-06-10
112160,06/10/2015,Completed - Dup,06/10/2015,15-02611294,Alley Light Out,5515 S WOLCOTT AVE,60636.0,1164631.4800125,1867983.84801911,15.0,7.0,67.0,41.793357132163685,-87.67184675417592,"(41.793357132163685, -87.6718467541759)",2015-06-10
112161,06/10/2015,Completed - Dup,06/10/2015,15-02612895,Alley Light Out,5222 N MAGNOLIA AVE,60640.0,1167024.16013057,1934819.52717161,48.0,20.0,77.0,41.97670837786364,-87.66115330998619,"(41.97670837786364, -87.66115330998618)",2015-06-10
112162,06/10/2015,Completed - Dup,06/10/2015,15-02613157,Alley Light Out,5451 N WAYNE AVE,60640.0,1166324.75759093,1936325.6056341,48.0,20.0,77.0,41.98085613420875,-87.66368200207535,"(41.98085613420875, -87.66368200207535)",2015-06-10
112163,06/10/2015,Completed - Dup,06/10/2015,15-02614102,Alley Light Out,1125 N MENARD AVE,60651.0,1137483.37966601,1906911.19482231,29.0,15.0,25.0,41.90070967185084,-87.77046238150369,"(41.90070967185084, -87.77046238150368)",2015-06-10
112164,06/10/2015,Completed - Dup,06/10/2015,15-02615434,Alley Light Out,7836 S KIMBARK AVE,60619.0,1186238.49796787,1853297.06759948,8.0,4.0,45.0,41.75257177284095,-87.5930800869511,"(41.752571772840945, -87.59308008695109)",2015-06-10
112165,06/10/2015,Completed - Dup,06/10/2015,15-02619057,Alley Light Out,6514 S KILPATRICK AVE,60629.0,1146167.15940615,1860999.61238365,13.0,8.0,64.0,41.77456116197017,-87.73973135541998,"(41.774561161970176, -87.73973135541999)",2015-06-10
112166,06/10/2015,Completed - Dup,06/10/2015,15-02619919,Alley Light Out,2011 W CERMAK RD,60608.0,1163304.24927219,1889406.69151704,25.0,10.0,31.0,41.85217174743811,-87.67611270555453,"(41.85217174743812, -87.67611270555452)",2015-06-10
112167,06/10/2015,Completed - Dup,06/10/2015,15-02620413,Alley Light Out,6549 W 60TH ST,60638.0,1133766.49021598,1864035.58709029,13.0,8.0,64.0,41.78311833763056,-87.78512021490369,"(41.78311833763056, -87.78512021490367)",2015-06-10
112168,06/09/2015,Completed - Dup,06/10/2015,15-02594036,Alley Light Out,2246 S MARSHALL BLVD,60623.0,1157054.18382603,1888935.09223301,12.0,10.0,30.0,41.851006602940394,-87.69906504502104,"(41.85100660294039, -87.69906504502103)",2015-06-09
112169,06/09/2015,Completed - Dup,06/10/2015,15-02601289,Alley Light Out,621 E 89TH ST,60619.0,1181936.47376625,1846104.16168235,6.0,6.0,44.0,41.73293412470024,-87.6090668913367,"(41.732934124700236, -87.60906689133668)",2015-06-09
112170,06/09/2015,Completed,06/10/2015,15-02587329,Alley Light Out,4341 S CALUMET AVE,60653.0,1179156.94312878,1876300.80737181,3.0,2.0,38.0,41.81586055268304,-87.61832979497582,"(41.815860552683034, -87.61832979497582)",2015-06-09
112171,06/09/2015,Completed,06/10/2015,15-02600163,Alley Light Out,5336 N WINTHROP AVE,60640.0,1167907.17677796,1935603.93028949,48.0,20.0,77.0,41.978841742785285,-87.65788335276966,"(41.97884174278528, -87.65788335276966)",2015-06-09
112172,06/07/2015,Completed,06/10/2015,15-02530599,Alley Light Out,2482 W ESTES AVE,60645.0,1158436.51149576,1947038.21930543,50.0,24.0,2.0,42.010417517623495,-87.69239744255108,"(42.01041751762349, -87.69239744255108)",2015-06-07
112173,06/07/2015,Completed,06/10/2015,15-02540270,Alley Light Out,2204 W ESTES AVE,60645.0,1160134.39718945,1947301.59298229,50.0,24.0,2.0,42.011105169929436,-87.68614296738981,"(42.011105169929436, -87.68614296738981)",2015-06-07
112174,06/07/2015,Completed,06/10/2015,15-02540524,Alley Light Out,4930 S KILPATRICK AVE,60632.0,1145858.40440705,1871525.51127222,14.0,8.0,56.0,41.8034517807139,-87.74059719434051,"(41.8034517807139, -87.74059719434052)",2015-06-07
112175,06/07/2015,Completed,06/10/2015,15-02542941,Alley Light Out,532 N HERMITAGE AVE,60622.0,1164733.87987953,1903712.08179202,1.0,12.0,24.0,41.89139682164586,-87.67046010159314,"(41.89139682164587, -87.67046010159312)",2015-06-07
112176,06/05/2015,Completed - Dup,06/10/2015,15-02492905,Alley Light Out,4744 S FORRESTVILLE AVE,60615.0,1180726.74009764,1873680.50621194,3.0,2.0,38.0,41.80863424720743,-87.6126521397954,"(41.80863424720743, -87.61265213979539)",2015-06-05
112177,06/05/2015,Completed,06/10/2015,15-02502223,Alley Light Out,6956 N OAKLEY AVE,60645.0,1159621.70201081,1946069.89797509,50.0,24.0,2.0,42.00773598314797,-87.68806354191607,"(42.00773598314797, -87.68806354191607)",2015-06-05
112178,06/04/2015,Completed - Dup,06/10/2015,15-02461593,Alley Light Out,4852 W ST PAUL AVE,60639.0,1143654.31117452,1911194.92791093,37.0,25.0,25.0,41.91235136432853,-87.74768844385058,"(41.912351364328536, -87.74768844385058)",2015-06-04
112179,06/04/2015,Completed,06/10/2015,15-02461438,Alley Light Out,4650 S KEELER AVE,60632.0,1149128.98230237,1873803.7099702,14.0,8.0,57.0,41.80964097625576,-87.72854343766821,"(41.80964097625576, -87.72854343766821)",2015-06-04
112180,06/03/2015,Completed - Dup,06/10/2015,15-02446951,Alley Light Out,2246 S MARSHALL BLVD,60623.0,1157054.18382603,1888935.09223301,12.0,10.0,30.0,41.851006602940394,-87.69906504502104,"(41.85100660294039, -87.69906504502103)",2015-06-03
112181,06/03/2015,Completed - Dup,06/10/2015,15-02447368,Alley Light Out,2246 S MARSHALL BLVD,60623.0,1157054.18382603,1888935.09223301,12.0,10.0,30.0,41.851006602940394,-87.69906504502104,"(41.85100660294039, -87.69906504502103)",2015-06-03
112182,06/02/2015,Completed,06/10/2015,15-02424834,Alley Light Out,6960 N BELL AVE,60645.0,1160182.45299807,1946129.29638419,50.0,24.0,2.0,42.007887357864405,-87.68599876649193,"(42.007887357864405, -87.68599876649193)",2015-06-02
112183,06/01/2015,Completed - Dup,06/10/2015,15-02404876,Alley Light Out,2246 S MARSHALL BLVD,60623.0,1157054.18382603,1888935.09223301,12.0,10.0,30.0,41.851006602940394,-87.69906504502104,"(41.85100660294039, -87.69906504502103)",2015-06-01
112184,06/01/2015,Completed,06/10/2015,15-02395483,Alley Light Out,2416 W MORSE AVE,60645.0,1158960.68001618,1945735.17992145,50.0,24.0,2.0,42.00683115197443,-87.69050483187897,"(42.00683115197443, -87.69050483187897)",2015-06-01
112191,06/11/2015,Completed - Dup,06/11/2015,15-02630618,Alley Light Out,7701 S RIDGELAND AVE,60649.0,1189205.82529496,1854262.19799577,8.0,4.0,43.0,41.75514960375948,-87.58217535537044,"(41.75514960375948, -87.58217535537045)",2015-06-11
112192,06/11/2015,Completed - Dup,06/11/2015,15-02630871,Alley Light Out,5429 S KARLOV AVE,60632.0,1149957.01681646,1868288.68612777,23.0,8.0,62.0,41.79449090113479,-87.72564931449024,"(41.794490901134786, -87.72564931449025)",2015-06-11
112193,06/11/2015,Completed - Dup,06/11/2015,15-02630914,Alley Light Out,5626 N CALIFORNIA AVE,60659.0,1156667.4194177,1937251.49318965,40.0,20.0,2.0,41.983598498218896,-87.69917327889681,"(41.9835984982189, -87.69917327889681)",2015-06-11
112194,06/11/2015,Completed - Dup,06/11/2015,15-02633202,Alley Light Out,8631 S STATE ST,60619.0,1177797.95563072,1847663.6870051003,6.0,6.0,44.0,41.73730822147027,-87.6241810267297,"(41.73730822147027, -87.6241810267297)",2015-06-11
112195,06/11/2015,Completed - Dup,06/11/2015,15-02633205,Alley Light Out,5006 W ERIE ST,60644.0,1142869.17368732,1903854.98757906,37.0,15.0,25.0,41.892224413553684,-87.75075598334341,"(41.89222441355368, -87.7507559833434)",2015-06-11
112196,06/11/2015,Completed - Dup,06/11/2015,15-02636527,Alley Light Out,5620 S HOMAN AVE,60629.0,1154670.18576686,1867144.23628425,14.0,8.0,63.0,41.79125764035783,-87.70839657363146,"(41.79125764035783, -87.70839657363145)",2015-06-11
112197,06/11/2015,Completed - Dup,06/11/2015,15-02638778,Alley Light Out,915 N CICERO AVE,60651.0,1144189.90070875,1905708.04441787,37.0,11.0,25.0,41.897284703560736,-87.74585885693398,"(41.897284703560736, -87.74585885693398)",2015-06-11
112198,06/11/2015,Completed - Dup,06/11/2015,15-02640419,Alley Light Out,7401 S PRAIRIE AVE,60619.0,1179320.3411106002,1856002.56587689,6.0,3.0,69.0,41.76015650326421,-87.618349612999,"(41.760156503264206, -87.618349612999)",2015-06-11
112199,06/11/2015,Completed - Dup,06/11/2015,15-02641824,Alley Light Out,347 W 102ND ST,60628.0,1175666.08871343,1837289.80986901,9.0,5.0,49.0,41.70888884011839,-87.6323010430871,"(41.70888884011839, -87.6323010430871)",2015-06-11
112200,06/11/2015,Completed - Dup,06/11/2015,15-02643584,Alley Light Out,5944 N MAPLEWOOD AVE,60659.0,1158252.70879946,1939391.93858493,40.0,20.0,2.0,41.989439616649186,-87.69328402328381,"(41.989439616649186, -87.69328402328381)",2015-06-11
112201,06/11/2015,Completed - Dup,06/11/2015,15-02647764,Alley Light Out,9629 S PARNELL AVE,60628.0,1174329.11649997,1841033.21322241,21.0,22.0,73.0,41.71919103630929,-87.63708629750748,"(41.71919103630929, -87.63708629750748)",2015-06-11
112202,06/11/2015,Completed - Dup,06/11/2015,15-02647773,Alley Light Out,10548 S PARNELL AVE,60628.0,1174498.49219459,1834941.41878834,34.0,22.0,49.0,41.702470516908434,-87.63664645763815,"(41.70247051690843, -87.63664645763814)",2015-06-11
112203,06/10/2015,Completed - Dup,06/11/2015,15-02614212,Alley Light Out,3634 N CHRISTIANA AVE,60618.0,1153404.58000626,1924120.85992699,35.0,17.0,16.0,41.9476328800432,-87.71152394955412,"(41.9476328800432, -87.71152394955412)",2015-06-10
112204,06/10/2015,Completed - Dup,06/11/2015,15-02626402,Alley Light Out,5006 W ERIE ST,60644.0,1142869.17368732,1903854.98757906,37.0,15.0,25.0,41.892224413553684,-87.75075598334341,"(41.89222441355368, -87.7507559833434)",2015-06-10
112205,06/10/2015,Completed,06/11/2015,15-02606264,Alley Light Out,3846 N BERNARD ST,60618.0,1152710.25487875,1925359.21422577,35.0,17.0,16.0,41.951044807326795,-87.71404324251472,"(41.9510448073268, -87.71404324251472)",2015-06-10
112206,06/10/2015,Completed,06/11/2015,15-02615454,Alley Light Out,1537 N KOSTNER AVE,60651.0,1146771.38352415,1909785.31012919,26.0,25.0,23.0,41.908424253829324,-87.73627309058777,"(41.90842425382933, -87.73627309058776)",2015-06-10
112207,06/10/2015,Completed,06/11/2015,15-02618046,Alley Light Out,1240 W 31ST PL,60608.0,1168562.63858594,1883916.26561084,11.0,9.0,60.0,41.836993457195895,-87.65697170855623,"(41.836993457195895, -87.65697170855624)",2015-06-10
112208,06/10/2015,Completed,06/11/2015,15-02622274,Alley Light Out,12124 S JUSTINE ST,60643.0,1168193.04512438,1824321.72768945,34.0,5.0,53.0,41.67346595771314,-87.66003926833855,"(41.67346595771314, -87.66003926833855)",2015-06-10
112209,06/10/2015,Completed,06/11/2015,15-02622977,Alley Light Out,9747 S PARNELL AVE,60628.0,1174351.22337005,1840250.9096798,21.0,22.0,73.0,41.71704379491715,-87.63702850111595,"(41.71704379491715, -87.63702850111596)",2015-06-10
112210,06/09/2015,Completed - Dup,06/11/2015,15-02595026,Alley Light Out,8028 S EUCLID AVE,60617.0,1190593.61289874,1852127.48568261,8.0,4.0,46.0,41.74925840322887,-87.57715833060604,"(41.749258403228865, -87.57715833060604)",2015-06-09
112211,06/09/2015,Completed,06/11/2015,15-02599789,Alley Light Out,6336 N FAIRFIELD AVE,60659.0,1156846.94066687,1941932.41086683,50.0,24.0,2.0,41.996439494460134,-87.6983853908053,"(41.99643949446013, -87.6983853908053)",2015-06-09
112212,06/09/2015,Completed,06/11/2015,15-02601759,Alley Light Out,5856 N JERSEY AVE,60659.0,1153648.41992411,1938728.70627645,39.0,17.0,13.0,41.98771284858164,-87.71023714735418,"(41.98771284858164, -87.71023714735419)",2015-06-09
112213,06/08/2015,Completed - Dup,06/11/2015,15-02564497,Alley Light Out,7752 S LAFLIN ST,60620.0,1167460.51292359,1853321.70558525,17.0,6.0,71.0,41.753062131631786,-87.66189269383058,"(41.75306213163179, -87.6618926938306)",2015-06-08
112214,06/08/2015,Completed,06/11/2015,15-02566774,Alley Light Out,2734 N LINCOLN AVE,60614.0,1168266.50187901,1918310.54358472,43.0,19.0,7.0,41.93138024691253,-87.65706378867534,"(41.93138024691253, -87.65706378867534)",2015-06-08
112215,06/08/2015,Completed,06/11/2015,15-02569454,Alley Light Out,3114 N LINCOLN AVE,60657.0,1165672.47509125,1920757.80082484,32.0,19.0,6.0,41.938151401500136,-87.66652638711321,"(41.93815140150014, -87.66652638711321)",2015-06-08
112216,06/05/2015,Completed - Dup,06/11/2015,15-02490857,Alley Light Out,8028 S EUCLID AVE,60617.0,1190593.61289874,1852127.48568261,8.0,4.0,46.0,41.74925840322887,-87.57715833060604,"(41.749258403228865, -87.57715833060604)",2015-06-05
112217,06/05/2015,Completed - Dup,06/11/2015,15-02506103,Alley Light Out,8028 S EUCLID AVE,60617.0,1190593.61289874,1852127.48568261,8.0,4.0,46.0,41.74925840322887,-87.57715833060604,"(41.749258403228865, -87.57715833060604)",2015-06-05
112218,06/05/2015,Completed,06/11/2015,15-02505986,Alley Light Out,541 W 45TH PL,60609.0,1173445.52003296,1874746.26057516,11.0,9.0,61.0,41.81172322533556,-87.63932632982952,"(41.811723225335555, -87.63932632982952)",2015-06-05
112219,06/04/2015,Completed - Dup,06/11/2015,15-02481728,Alley Light Out,8028 S EUCLID AVE,60617.0,1190593.61289874,1852127.48568261,8.0,4.0,46.0,41.74925840322887,-87.57715833060604,"(41.749258403228865, -87.57715833060604)",2015-06-04
112220,06/02/2015,Completed,06/11/2015,15-02415811,Alley Light Out,3634 N CHRISTIANA AVE,60618.0,1153404.58000626,1924120.85992699,35.0,17.0,16.0,41.9476328800432,-87.71152394955412,"(41.9476328800432, -87.71152394955412)",2015-06-02
112245,06/12/2015,Completed - Dup,06/12/2015,15-02656219,Alley Light Out,621 E 89TH ST,60619.0,1181936.47376625,1846104.16168235,6.0,6.0,44.0,41.73293412470024,-87.6090668913367,"(41.732934124700236, -87.60906689133668)",2015-06-12
112246,06/12/2015,Completed - Dup,06/12/2015,15-02656562,Alley Light Out,5006 W ERIE ST,60644.0,1142869.17368732,1903854.98757906,37.0,15.0,25.0,41.892224413553684,-87.75075598334341,"(41.89222441355368, -87.7507559833434)",2015-06-12
112247,06/12/2015,Completed - Dup,06/12/2015,15-02658686,Alley Light Out,3018 N NATOMA AVE,60634.0,1131560.74090063,1919335.67531873,36.0,25.0,18.0,41.93490857248284,-87.79192890573444,"(41.93490857248284, -87.79192890573444)",2015-06-12
112248,06/12/2015,Completed - Dup,06/12/2015,15-02662302,Alley Light Out,4934 S LECLAIRE AVE,60638.0,1143193.25353238,1871433.25598971,22.0,8.0,56.0,41.80324863701314,-87.75037405340024,"(41.80324863701314, -87.75037405340024)",2015-06-12
112249,06/12/2015,Completed - Dup,06/12/2015,15-02662679,Alley Light Out,712 W 19TH PL,60616.0,1171731.6099987,1890872.57999067,11.0,12.0,31.0,41.8560131027509,-87.64513896727614,"(41.8560131027509, -87.64513896727613)",2015-06-12
112250,06/12/2015,Completed - Dup,06/12/2015,15-02662712,Alley Light Out,4527 S RICHMOND ST,60632.0,1157458.47680588,1874489.88197041,15.0,9.0,58.0,41.81135900693297,-87.6979733164147,"(41.81135900693297, -87.6979733164147)",2015-06-12
112251,06/12/2015,Completed - Dup,06/12/2015,15-02663779,Alley Light Out,3615 N PLAINFIELD AVE,60634.0,1120100.85899514,1922980.52218005,38.0,16.0,17.0,41.94510138195742,-87.83396724516597,"(41.94510138195742, -87.83396724516595)",2015-06-12
112252,06/12/2015,Completed - Dup,06/12/2015,15-02665262,Alley Light Out,6546 W 60TH PL,60638.0,1133798.62581715,1863702.62990788,13.0,8.0,64.0,41.78220407868912,-87.78501017708584,"(41.78220407868912, -87.78501017708585)",2015-06-12
112253,06/12/2015,Completed - Dup,06/12/2015,15-02665337,Alley Light Out,6514 S KILPATRICK AVE,60629.0,1146167.15940615,1860999.61238365,13.0,8.0,64.0,41.77456116197017,-87.73973135541998,"(41.774561161970176, -87.73973135541999)",2015-06-12
112254,06/12/2015,Completed - Dup,06/12/2015,15-02667308,Alley Light Out,5338 S NORDICA AVE,60638.0,1130277.84679391,1868387.04238903,23.0,8.0,56.0,41.79511987925525,-87.79781166148615,"(41.79511987925525, -87.79781166148616)",2015-06-12
112256,06/12/2015,Completed - Dup,06/12/2015,15-02668131,Alley Light Out,3301 S EMERALD AVE,60616.0,1171838.81346762,1882996.7193916999,11.0,9.0,60.0,41.83439872087339,-87.64497718503088,"(41.83439872087338, -87.64497718503087)",2015-06-12
112257,06/12/2015,Completed,06/12/2015,15-02665343,Alley Light Out,4512 S LAVERGNE AVE,60638.0,1143782.94908451,1874257.8743211003,22.0,8.0,56.0,41.81098883868351,-87.74814078867429,"(41.81098883868351, -87.74814078867429)",2015-06-12
112258,06/12/2015,Completed,06/12/2015,15-02667952,Alley Light Out,8300 S CLYDE AVE,60617.0,1191628.75771331,1850353.53271916,7.0,4.0,46.0,41.744365493792685,-87.57342262646955,"(41.744365493792685, -87.57342262646955)",2015-06-12
112259,06/12/2015,Completed,06/12/2015,15-02668006,Alley Light Out,9100 S CLYDE AVE,60617.0,1191761.16506795,1845044.61877365,7.0,4.0,48.0,41.729794134349476,-87.57310930924511,"(41.72979413434948, -87.57310930924511)",2015-06-12
112260,06/12/2015,Completed,06/12/2015,15-02668370,Alley Light Out,5121 N MARMORA AVE,60630.0,1135860.87520794,1933709.32891411,45.0,16.0,11.0,41.974275710334375,-87.77578186300569,"(41.974275710334375, -87.7757818630057)",2015-06-12
112261,06/12/2015,Completed,06/12/2015,15-02668620,Alley Light Out,5224 N MAGNOLIA AVE,60640.0,1167023.76013057,1934832.92717161,48.0,20.0,77.0,41.976745156481925,-87.66115439427669,"(41.976745156481925, -87.66115439427668)",2015-06-12
112262,06/12/2015,Completed,06/12/2015,15-02669520,Alley Light Out,1626 N NORMANDY AVE,60707.0,1131502.67311765,1910088.42601406,29.0,25.0,25.0,41.90953398891632,-87.79235670081933,"(41.90953398891632, -87.79235670081931)",2015-06-12
112263,06/11/2015,Completed - Dup,06/12/2015,15-02639730,Alley Light Out,7327 S EBERHART AVE,60619.0,1180844.91902749,1856543.13639042,6.0,3.0,69.0,41.76160497787459,-87.61274546532331,"(41.76160497787459, -87.61274546532331)",2015-06-11
112264,06/11/2015,Completed - Dup,06/12/2015,15-02639904,Alley Light Out,7327 S EBERHART AVE,60619.0,1180844.91902749,1856543.13639042,6.0,3.0,69.0,41.76160497787459,-87.61274546532331,"(41.76160497787459, -87.61274546532331)",2015-06-11
112265,06/11/2015,Completed - Dup,06/12/2015,15-02643336,Alley Light Out,9145 S CLYDE AVE,60617.0,1191769.76506795,1844742.71877365,7.0,4.0,48.0,41.728965483328466,-87.57308757352448,"(41.72896548332847, -87.57308757352448)",2015-06-11
112266,06/11/2015,Completed - Dup,06/12/2015,15-02654688,Alley Light Out,4534 S WOODLAWN AVE,60653.0,1185010.01003327,1875183.26998443,4.0,2.0,39.0,41.81265830284201,-87.59689501331553,"(41.81265830284201, -87.59689501331553)",2015-06-11
112267,06/11/2015,Completed - Dup,06/12/2015,15-02655425,Alley Light Out,9045 S UNION AVE,60620.0,1173227.17186662,1844836.00412725,21.0,22.0,71.0,41.729650809823305,-87.64101034397703,"(41.729650809823305, -87.64101034397703)",2015-06-11
112268,06/11/2015,Completed,06/12/2015,15-02630876,Alley Light Out,5626 N CALIFORNIA AVE,,1156667.4194177,1937251.49318965,40.0,20.0,2.0,41.983598498218896,-87.69917327889681,"(41.9835984982189, -87.69917327889681)",2015-06-11
112269,06/11/2015,Completed,06/12/2015,15-02632659,Alley Light Out,2056 N NEWLAND AVE,60707.0,1129755.68560719,1912907.9375329,29.0,25.0,25.0,41.917301151257995,-87.79870994543556,"(41.91730115125799, -87.79870994543556)",2015-06-11
112270,06/11/2015,Completed,06/12/2015,15-02638168,Alley Light Out,2511 W DIVISION ST,60622.0,1159405.78573105,1907895.85471365,26.0,12.0,24.0,41.9029887311667,-87.68991245087133,"(41.9029887311667, -87.68991245087133)",2015-06-11
112271,06/11/2015,Completed,06/12/2015,15-02655076,Alley Light Out,1660 W 101ST PL,60643.0,1167074.74107566,1837253.53321622,19.0,22.0,72.0,41.708976919083796,-87.66376446112656,"(41.708976919083796, -87.66376446112655)",2015-06-11
112272,06/10/2015,Completed - Dup,06/12/2015,15-02625667,Alley Light Out,5615 W WILSON AVE,60630.0,1138074.47677831,1930025.35987741,38.0,16.0,15.0,41.96412674869335,-87.7677311219205,"(41.96412674869335, -87.76773112192052)",2015-06-10
112273,06/10/2015,Completed - Dup,06/12/2015,15-02625850,Alley Light Out,5615 W WILSON AVE,60630.0,1138074.47677831,1930025.35987741,38.0,16.0,15.0,41.96412674869335,-87.7677311219205,"(41.96412674869335, -87.76773112192052)",2015-06-10
112274,06/10/2015,Completed,06/12/2015,15-02610034,Alley Light Out,7306 N RIDGE BLVD,60645.0,1160776.47517179,1948436.68408694,49.0,24.0,2.0,42.01420654447038,-87.68374880876266,"(42.01420654447038, -87.68374880876267)",2015-06-10
112275,06/10/2015,Completed,06/12/2015,15-02612500,Alley Light Out,3529 N OAK PARK AVE,60634.0,1130449.12517167,1922708.13067572,38.0,16.0,17.0,41.94418217315773,-87.79593650539927,"(41.94418217315773, -87.79593650539927)",2015-06-10
112276,06/10/2015,Completed,06/12/2015,15-02612684,Alley Light Out,5216 N MAGNOLIA AVE,60640.0,1167025.26013057,1934779.32717161,48.0,20.0,77.0,41.97659804416057,-87.66115042486081,"(41.97659804416057, -87.6611504248608)",2015-06-10
112277,06/10/2015,Completed,06/12/2015,15-02612940,Alley Light Out,1241 W BERWYN AVE,60640.0,1166965.588324,1935334.97218753,48.0,20.0,77.0,41.978124035445546,-87.66135383290619,"(41.97812403544555, -87.66135383290619)",2015-06-10
112278,06/10/2015,Completed,06/12/2015,15-02612946,Alley Light Out,5538 N MAGNOLIA AVE,60640.0,1166964.37641375,1936922.03059749,48.0,20.0,77.0,41.98247899527122,-87.6613124998023,"(41.98247899527123, -87.6613124998023)",2015-06-10
112279,06/10/2015,Completed,06/12/2015,15-02613158,Alley Light Out,1319 W CATALPA AVE,60640.0,1166442.75759093,1936651.6056341,48.0,20.0,77.0,41.98174815548679,-87.66323866007258,"(41.98174815548679, -87.66323866007258)",2015-06-10
112280,06/10/2015,Completed,06/12/2015,15-02615128,Alley Light Out,5254 S TRUMBULL AVE,60632.0,1154267.31989471,1869565.87356833,14.0,8.0,63.0,41.79791098841704,-87.70980940695674,"(41.797910988417044, -87.70980940695674)",2015-06-10
112281,06/10/2015,Completed,06/12/2015,15-02616635,Alley Light Out,5640 N TALMAN AVE,60659.0,1157595.8411724,1937454.43159357,40.0,20.0,2.0,41.984136457020895,-87.69575314414654,"(41.9841364570209, -87.69575314414655)",2015-06-10
112282,06/10/2015,Completed,06/12/2015,15-02619687,Alley Light Out,2425 N CALIFORNIA AVE,60647.0,1157300.26511844,1915999.0286217,1.0,14.0,22.0,41.92526756496615,-87.69742576444801,"(41.92526756496615, -87.69742576444801)",2015-06-10
112283,06/09/2015,Completed,06/12/2015,15-02591024,Alley Light Out,5615 W WILSON AVE,60630.0,1138074.47677831,1930025.35987741,38.0,16.0,15.0,41.96412674869335,-87.7677311219205,"(41.96412674869335, -87.76773112192052)",2015-06-09
112284,06/09/2015,Completed,06/12/2015,15-02602566,Alley Light Out,7139 S FRANCISCO AVE,60629.0,1158273.6698998,1857157.5532173999,18.0,8.0,66.0,41.763780098828775,-87.6954548811398,"(41.76378009882877, -87.6954548811398)",2015-06-09
112285,06/08/2015,Completed,06/12/2015,15-02559893,Alley Light Out,1844 W WAVELAND AVE,60613.0,1163261.34621256,1924595.13992641,47.0,19.0,5.0,41.948732389246686,-87.67527950311745,"(41.948732389246686, -87.67527950311745)",2015-06-08
112286,06/08/2015,Completed,06/12/2015,15-02564430,Alley Light Out,4355 S KARLOV AVE,60632.0,1149737.61313087,1875449.86200905,14.0,8.0,57.0,41.81414647976224,-87.72626839777641,"(41.81414647976224, -87.72626839777642)",2015-06-08
112287,06/07/2015,Completed,06/12/2015,15-02530745,Alley Light Out,6515 S ALBANY AVE,60629.0,1156839.56039325,1861265.66992968,17.0,8.0,66.0,41.77508245565701,-87.7006004850097,"(41.77508245565701, -87.7006004850097)",2015-06-07
112288,06/07/2015,Completed,06/12/2015,15-02541225,Alley Light Out,3013 S KARLOV AVE,60623.0,1149524.20287718,1884306.83731878,22.0,10.0,30.0,41.838455373267735,-87.72682186180496,"(41.838455373267735, -87.72682186180495)",2015-06-07
112289,06/07/2015,Completed,06/12/2015,15-02549252,Alley Light Out,9155 S CLYDE AVE,60617.0,1191771.65120606,1844675.54131193,7.0,4.0,48.0,41.72878109619396,-87.57308283776464,"(41.728781096193956, -87.57308283776464)",2015-06-07
112290,06/05/2015,Completed - Dup,06/12/2015,15-02493835,Alley Light Out,10940 S HERMOSA AVE,60643.0,1166887.51429137,1832097.07777917,19.0,22.0,75.0,41.69483075319076,-87.66459673709106,"(41.69483075319076, -87.66459673709107)",2015-06-05
112291,06/03/2015,Completed,06/12/2015,15-02449809,Alley Light Out,4947 S LAMON AVE,60638.0,1144527.8596333999,1871379.13037992,22.0,8.0,56.0,41.80307516406052,-87.74548069754148,"(41.80307516406052, -87.74548069754148)",2015-06-03
112292,06/02/2015,Completed - Dup,06/12/2015,15-02417796,Alley Light Out,2040 N NEWLAND AVE,60707.0,1129758.79071625,1912800.48497825,29.0,25.0,25.0,41.917006234538896,-87.79870099805827,"(41.9170062345389, -87.79870099805827)",2015-06-02
112293,06/02/2015,Completed,06/12/2015,15-02408050,Alley Light Out,5917 S TROY ST,60629.0,1156396.24232782,1865223.95060813,16.0,8.0,66.0,41.785953497647,-87.70211912796627,"(41.785953497647, -87.70211912796627)",2015-06-02
112294,06/02/2015,Completed,06/12/2015,15-02422827,Alley Light Out,1702 W 101ST PL,60643.0,1166799.34107566,1837242.03321622,19.0,22.0,72.0,41.708951233251156,-87.66477333413314,"(41.70895123325116, -87.66477333413314)",2015-06-02
112295,06/02/2015,Completed,06/12/2015,15-02428194,Alley Light Out,8220 S RICHMOND ST,60652.0,1158141.87407082,1849968.91988068,18.0,8.0,70.0,41.744056046960786,-87.69613308834828,"(41.74405604696078, -87.69613308834826)",2015-06-02
112296,06/02/2015,Completed,06/12/2015,15-02432353,Alley Light Out,5100 S CAMPBELL AVE,60632.0,1160565.15081994,1870779.623325,14.0,9.0,63.0,41.801113996290994,-87.6866805609264,"(41.801113996290994, -87.68668056092639)",2015-06-02
112297,06/01/2015,Completed,06/12/2015,15-02395729,Alley Light Out,4934 S LA CROSSE AVE,60638.0,1144858.69027913,1871474.46620508,22.0,8.0,56.0,41.803330565135546,-87.74426497232729,"(41.803330565135546, -87.7442649723273)",2015-06-01
112309,06/12/2015,Completed,06/13/2015,15-02668092,Alley Light Out,2500 W DIVISION ST,60622.0,1159521.18573105,1907898.15471365,26.0,14.0,24.0,41.902992666645936,-87.6894885005497,"(41.902992666645936, -87.6894885005497)",2015-06-12
112310,06/14/2015,Completed - Dup,06/14/2015,15-02714155,Alley Light Out,8612 S CALUMET AVE,60619.0,1179978.1337084,1847964.53709792,6.0,6.0,44.0,41.73808421483634,-87.61618435236015,"(41.73808421483634, -87.61618435236015)",2015-06-14
112311,06/14/2015,Completed - Dup,06/14/2015,15-02716893,Alley Light Out,10844 S ARTESIAN AVE,60655.0,1161971.81580957,1832647.85602174,19.0,22.0,75.0,41.69644550816307,-87.68257944923485,"(41.69644550816307, -87.68257944923485)",2015-06-14
112552,06/14/2015,Completed - Dup,06/15/2015,15-02718559,Alley Light Out,7951 S MORGAN ST,60620.0,1171025.6396003999,1852099.41921686,17.0,6.0,71.0,41.74963092460432,-87.64886353200814,"(41.74963092460432, -87.64886353200812)",2015-06-14
112553,06/14/2015,Completed - Dup,06/15/2015,15-02718601,Alley Light Out,6750 S RIDGELAND AVE,60649.0,1189018.56999406,1860902.80161628,5.0,3.0,43.0,41.77337647168008,-87.58264920125816,"(41.77337647168008, -87.58264920125815)",2015-06-14
112554,06/14/2015,Completed,06/15/2015,15-02714777,Alley Light Out,2011 W ARTHUR AVE,60645.0,1161664.92207058,1943156.88010307,50.0,24.0,2.0,41.999700075302904,-87.68062780946384,"(41.99970007530291, -87.68062780946384)",2015-06-14
112555,06/15/2015,Completed - Dup,06/15/2015,15-02728717,Alley Light Out,4450 S BERKELEY AVE,60653.0,1183993.97598371,1876050.95849796,4.0,2.0,39.0,41.8150631357382,-87.60059464963983,"(41.8150631357382, -87.60059464963983)",2015-06-15
112556,06/15/2015,Completed - Dup,06/15/2015,15-02734980,Alley Light Out,7630 W MYRTLE AVE,60631.0,1124495.24720802,1940558.50988013,41.0,16.0,10.0,41.993265956171996,-87.81742573325815,"(41.993265956172, -87.81742573325816)",2015-06-15
112557,06/15/2015,Completed,06/15/2015,15-02733657,Alley Light Out,9222 S WABASH AVE,60619.0,1178331.63892801,1843850.83559722,9.0,6.0,49.0,41.72683319637397,-87.62234116900845,"(41.726833196373974, -87.62234116900846)",2015-06-15
112558,06/15/2015,Completed,06/15/2015,15-02733752,Alley Light Out,9214 S WABASH AVE,60619.0,1178330.13892801,1843904.73559722,9.0,6.0,49.0,41.726981138847044,-87.62234503285309,"(41.72698113884704, -87.62234503285309)",2015-06-15
112559,06/15/2015,Completed,06/15/2015,15-02734051,Alley Light Out,9210 S WABASH AVE,60619.0,1178329.33892801,1843931.63559722,9.0,6.0,49.0,41.727054974009064,-87.62234714944843,"(41.72705497400906, -87.62234714944843)",2015-06-15
112560,06/12/2015,Completed - Dup,06/15/2015,15-02664613,Alley Light Out,4148 W 21ST ST,60623.0,1149048.91228375,1889766.71080956,24.0,10.0,29.0,41.85344716679537,-87.72842483589972,"(41.85344716679537, -87.72842483589972)",2015-06-12
112561,06/12/2015,Completed,06/15/2015,15-02661066,Alley Light Out,1617 W THORNDALE AVE,60660.0,1164547.04293005,1939067.21521474,40.0,20.0,77.0,41.988417148123354,-87.67014174791962,"(41.98841714812335, -87.67014174791962)",2015-06-12
112562,06/12/2015,Completed,06/15/2015,15-02665817,Alley Light Out,1727 W GREGORY ST,60640.0,1163818.54601894,1936910.22969135,40.0,20.0,77.0,41.98251375809642,-87.67288240383675,"(41.982513758096424, -87.67288240383675)",2015-06-12
112563,06/12/2015,Completed,06/15/2015,15-02670151,Alley Light Out,900 E 76TH ST,60619.0,1183548.37076708,1854810.02100926,8.0,6.0,69.0,41.756786563757345,-87.60289109240648,"(41.75678656375734, -87.60289109240648)",2015-06-12
112564,06/12/2015,Completed,06/15/2015,15-02676017,Alley Light Out,1601 W ESTES AVE,60626.0,1164471.44198869,1947474.83681009,49.0,24.0,1.0,42.01148947160653,-87.67018030884415,"(42.011489471606524, -87.67018030884415)",2015-06-12
112565,06/11/2015,Completed - Dup,06/15/2015,15-02640137,Alley Light Out,4314 S DR MARTIN LUTHER KING JR DR,60653.0,1179576.49588973,1876493.10689711,3.0,2.0,38.0,41.8163786483304,-87.61678492664196,"(41.8163786483304, -87.61678492664197)",2015-06-11
112566,06/10/2015,Completed,06/15/2015,15-02621455,Alley Light Out,5037 W QUINCY ST,60644.0,1142876.68311976,1898532.56796633,28.0,15.0,25.0,41.87761890812117,-87.75086108028792,"(41.87761890812117, -87.7508610802879)",2015-06-10
112567,06/08/2015,Completed - Dup,06/15/2015,15-02576619,Alley Light Out,4314 S DR MARTIN LUTHER KING JR DR,60653.0,1179576.49588973,1876493.10689711,3.0,2.0,38.0,41.8163786483304,-87.61678492664196,"(41.8163786483304, -87.61678492664197)",2015-06-08
112568,06/08/2015,Completed,06/15/2015,15-02569202,Alley Light Out,4148 W 21ST ST,60623.0,1149048.91228375,1889766.71080956,24.0,10.0,29.0,41.85344716679537,-87.72842483589972,"(41.85344716679537, -87.72842483589972)",2015-06-08
112569,06/04/2015,Completed - Dup,06/15/2015,15-02480394,Alley Light Out,4314 S DR MARTIN LUTHER KING JR DR,60653.0,1179576.49588973,1876493.10689711,3.0,2.0,38.0,41.8163786483304,-87.61678492664196,"(41.8163786483304, -87.61678492664197)",2015-06-04
112570,06/04/2015,Completed,06/15/2015,15-02466895,Alley Light Out,6924 S BELL AVE,60636.0,1162593.33049843,1858704.04527965,17.0,8.0,66.0,41.767934898005024,-87.6795791966935,"(41.76793489800502, -87.6795791966935)",2015-06-04
112571,06/03/2015,Completed - Dup,06/15/2015,15-02458577,Alley Light Out,4314 S DR MARTIN LUTHER KING JR DR,60653.0,1179576.49588973,1876493.10689711,3.0,2.0,38.0,41.8163786483304,-87.61678492664196,"(41.8163786483304, -87.61678492664197)",2015-06-03
112572,06/02/2015,Completed - Dup,06/15/2015,15-02434148,Alley Light Out,4314 S DR MARTIN LUTHER KING JR DR,60653.0,1179576.49588973,1876493.10689711,3.0,2.0,38.0,41.8163786483304,-87.61678492664196,"(41.8163786483304, -87.61678492664197)",2015-06-02
112575,06/01/2015,Completed - Dup,06/15/2015,15-02394472,Alley Light Out,9246 S WABASH AVE,60619.0,1178336.23892801,1843689.23559722,9.0,6.0,49.0,41.72638964107829,-87.62232920822014,"(41.726389641078285, -87.62232920822014)",2015-06-01
112576,06/01/2015,Completed,06/15/2015,15-02395722,Alley Light Out,5517 S WOLCOTT AVE,60636.0,1164631.7800125,1867973.14801911,15.0,7.0,67.0,41.79332776370073,-87.67184595600405,"(41.79332776370073, -87.67184595600405)",2015-06-01
112679,06/16/2015,Completed - Dup,06/16/2015,15-02741788,Alley Light Out,621 E 89TH ST,60619.0,1181936.47376625,1846104.16168235,6.0,6.0,44.0,41.73293412470024,-87.6090668913367,"(41.732934124700236, -87.60906689133668)",2015-06-16
112680,06/16/2015,Completed - Dup,06/16/2015,15-02756764,Alley Light Out,3018 N NATOMA AVE,60634.0,1131560.74090063,1919335.67531873,36.0,25.0,18.0,41.93490857248284,-87.79192890573444,"(41.93490857248284, -87.79192890573444)",2015-06-16
112681,06/13/2015,Completed - Dup,06/16/2015,15-02693208,Alley Light Out,11627 S PARNELL AVE,60628.0,1174723.15719889,1827790.03498732,34.0,5.0,53.0,41.68284104263289,-87.63603578026328,"(41.68284104263288, -87.63603578026328)",2015-06-13
112682,06/15/2015,Completed,06/16/2015,15-02725970,Alley Light Out,4355 W HIRSCH ST,60651.0,1147002.15002899,1908956.27040071,26.0,25.0,23.0,41.906144872417386,-87.7354465881192,"(41.90614487241738, -87.7354465881192)",2015-06-15
112683,06/15/2015,Completed,06/16/2015,15-02730908,Alley Light Out,5750 N KENMORE AVE,60660.0,1168217.32177241,1938035.38730507,48.0,20.0,77.0,41.985507005445406,-87.65667214543714,"(41.985507005445406, -87.65667214543714)",2015-06-15
112684,06/15/2015,Completed,06/16/2015,15-02734438,Alley Light Out,5749 N WINTHROP AVE,60660.0,1167826.33953027,1938352.67430492,48.0,20.0,77.0,41.986386115846926,-87.65810094375506,"(41.986386115846926, -87.65810094375506)",2015-06-15
112685,06/15/2015,Completed,06/16/2015,15-02734447,Alley Light Out,1348 W THORNDALE AVE,60660.0,1166215.80257176,1939641.29701112,48.0,20.0,77.0,41.98995681992583,-87.6639874032168,"(41.98995681992583, -87.6639874032168)",2015-06-15
112686,06/15/2015,Completed,06/16/2015,15-02734459,Alley Light Out,5945 N GLENWOOD AVE,60660.0,1165900.43216745,1939701.2472198003,48.0,20.0,77.0,41.990128082687306,-87.66514567000881,"(41.990128082687306, -87.66514567000881)",2015-06-15
112687,06/15/2015,Completed,06/16/2015,15-02734594,Alley Light Out,10901 S EGGLESTON AVE,60628.0,1175225.21801214,1832618.76520961,34.0,22.0,49.0,41.696080648939535,-87.63405444348419,"(41.696080648939535, -87.63405444348419)",2015-06-15
112688,06/15/2015,Completed,06/16/2015,15-02735350,Alley Light Out,6845 S CRANDON AVE,60649.0,1192503.65796601,1860019.2465293,5.0,3.0,43.0,41.77086774457892,-87.5699026600607,"(41.77086774457892, -87.5699026600607)",2015-06-15
112689,06/12/2015,Completed,06/16/2015,15-02657454,Alley Light Out,5112 S LEAMINGTON AVE,60638.0,1142892.72242698,1870241.63697894,14.0,8.0,56.0,41.79998422994535,-87.75150584477161,"(41.79998422994535, -87.75150584477161)",2015-06-12
112690,06/12/2015,Completed,06/16/2015,15-02666227,Alley Light Out,4813 S WOLCOTT AVE,60609.0,1164497.4098147,1872763.01833225,15.0,9.0,61.0,41.80647458476068,-87.672203588574,"(41.80647458476068, -87.67220358857402)",2015-06-12
112691,06/11/2015,Completed,06/16/2015,15-02637517,Alley Light Out,2621 N SEMINARY AVE,60614.0,1168511.98090818,1917663.43996755,43.0,19.0,7.0,41.92959924573274,-87.65618048310442,"(41.92959924573274, -87.65618048310442)",2015-06-11
112692,06/10/2015,Completed - Dup,06/16/2015,15-02609186,Alley Light Out,7927 S MAPLEWOOD AVE,60652.0,1160759.32697656,1851851.17987227,18.0,8.0,70.0,41.749167672064814,-87.68649057037572,"(41.74916767206481, -87.68649057037574)",2015-06-10
112693,06/10/2015,Completed - Dup,06/16/2015,15-02625869,Alley Light Out,11627 S PARNELL AVE,60628.0,1174723.15719889,1827790.03498732,34.0,5.0,53.0,41.68284104263289,-87.63603578026328,"(41.68284104263288, -87.63603578026328)",2015-06-10
112694,06/10/2015,Completed,06/16/2015,15-02625927,Alley Light Out,1232 W MELROSE ST,60657.0,1167501.44998576,1921708.93000625,44.0,19.0,6.0,41.940722110358564,-87.6597770850519,"(41.940722110358564, -87.65977708505191)",2015-06-10
112695,06/09/2015,Completed,06/16/2015,15-02581020,Alley Light Out,6545 W 60TH ST,60638.0,1133793.39021598,1864036.28709029,13.0,8.0,64.0,41.783119787883756,-87.78502157207919,"(41.78311978788376, -87.78502157207919)",2015-06-09
112696,06/09/2015,Completed,06/16/2015,15-02590181,Alley Light Out,2607 W POPE JOHN PAUL II DR,60632.0,1159673.80831278,1876057.94837272,15.0,9.0,58.0,41.81561674429319,-87.68980449966044,"(41.81561674429319, -87.68980449966044)",2015-06-09
112697,06/08/2015,Completed,06/16/2015,15-02559299,Alley Light Out,4138 N LINCOLN AVE,60618.0,1161770.04622509,1927558.82721237,47.0,19.0,5.0,41.95689619125978,-87.68067828253479,"(41.95689619125978, -87.68067828253479)",2015-06-08
112698,06/05/2015,Completed - Dup,06/16/2015,15-02505158,Alley Light Out,7927 S MAPLEWOOD AVE,60652.0,1160759.32697656,1851851.17987227,18.0,8.0,70.0,41.749167672064814,-87.68649057037572,"(41.74916767206481, -87.68649057037574)",2015-06-05
112699,06/04/2015,Completed - Dup,06/16/2015,15-02468827,Alley Light Out,4450 S BERKELEY AVE,60653.0,1183993.97598371,1876050.95849796,4.0,2.0,39.0,41.8150631357382,-87.60059464963983,"(41.8150631357382, -87.60059464963983)",2015-06-04
112700,06/04/2015,Completed - Dup,06/16/2015,15-02473504,Alley Light Out,7533 S WINCHESTER AVE,60620.0,1164662.59011537,1854681.0869709998,17.0,6.0,71.0,41.756851930398376,-87.67210773497128,"(41.756851930398376, -87.67210773497128)",2015-06-04
112701,06/04/2015,Completed,06/16/2015,15-02482791,Alley Light Out,11627 S PARNELL AVE,60628.0,1174723.15719889,1827790.03498732,34.0,5.0,53.0,41.68284104263289,-87.63603578026328,"(41.68284104263288, -87.63603578026328)",2015-06-04
112702,06/04/2015,Completed,06/16/2015,15-02483371,Alley Light Out,2635 W LOGAN BLVD,60647.0,1158232.65423428,1917182.93202659,32.0,14.0,22.0,41.92849725608389,-87.69396728309292,"(41.928497256083894, -87.69396728309292)",2015-06-04
112703,06/02/2015,Completed - Dup,06/16/2015,15-02417958,Alley Light Out,4048 S FRANCISCO AVE,60632.0,1157697.14623195,1877520.57268498,12.0,9.0,58.0,41.819670762428686,-87.69701556898086,"(41.819670762428686, -87.69701556898087)",2015-06-02
112704,06/02/2015,Completed - Dup,06/16/2015,15-02433355,Alley Light Out,4450 S BERKELEY AVE,60653.0,1183993.97598371,1876050.95849796,4.0,2.0,39.0,41.8150631357382,-87.60059464963983,"(41.8150631357382, -87.60059464963983)",2015-06-02
112705,06/02/2015,Completed,06/16/2015,15-02427855,Alley Light Out,1808 W EDDY ST,60657.0,1163569.90581942,1923600.21991667,47.0,19.0,5.0,41.94599577098478,-87.67417342167856,"(41.94599577098478, -87.67417342167857)",2015-06-02
112724,06/17/2015,Completed - Dup,06/17/2015,15-02789955,Alley Light Out,1258 S BLUE ISLAND AVE,60608.0,1169184.59151065,1894419.68472142,25.0,12.0,28.0,41.86580228730389,-87.65438478664137,"(41.86580228730389, -87.65438478664136)",2015-06-17
112725,06/17/2015,Completed,06/17/2015,15-02767106,Alley Light Out,6000 S WINCHESTER AVE,60636.0,1164385.00443065,1864870.86878045,16.0,7.0,67.0,41.78481992336889,-87.67283825457396,"(41.784819923368886, -87.67283825457396)",2015-06-17
112726,06/17/2015,Completed,06/17/2015,15-02775105,Alley Light Out,3921 N SACRAMENTO AVE,60618.0,1155686.63708786,1925918.35709914,33.0,17.0,16.0,41.95251959434169,-87.70308704705782,"(41.95251959434169, -87.70308704705782)",2015-06-17
112727,06/17/2015,Completed,06/17/2015,15-02780152,Alley Light Out,11237 S AVENUE L,60617.0,1201886.83870659,1831060.54759436,10.0,4.0,52.0,41.69116931247387,-87.53649100436995,"(41.69116931247387, -87.53649100436995)",2015-06-17
112728,06/17/2015,Completed,06/17/2015,15-02783896,Alley Light Out,6001 S WINCHESTER AVE,60636.0,1164385.20443065,1864864.16878045,15.0,7.0,67.0,41.78480153349,-87.67283770999002,"(41.784801533490004, -87.67283770999002)",2015-06-17
112729,06/17/2015,Completed,06/17/2015,15-02783967,Alley Light Out,6010 S WINCHESTER AVE,60636.0,1164386.90443065,1864803.86878045,16.0,7.0,67.0,41.784636026685355,-87.67283317538771,"(41.78463602668536, -87.67283317538771)",2015-06-17
112730,06/17/2015,Completed,06/17/2015,15-02784157,Alley Light Out,6011 S WINCHESTER AVE,60636.0,1164387.00443065,1864797.16878045,15.0,7.0,67.0,41.784617638913865,-87.67283299744818,"(41.784617638913865, -87.67283299744817)",2015-06-17
112731,06/17/2015,Completed,06/17/2015,15-02784218,Alley Light Out,6020 S WINCHESTER AVE,60636.0,1164388.70443065,1864736.86878045,16.0,7.0,67.0,41.78445213210394,-87.67282846286484,"(41.784452132103944, -87.67282846286483)",2015-06-17
112732,06/17/2015,Completed,06/17/2015,15-02784220,Alley Light Out,2253 W 18TH PL,60608.0,1161579.57382844,1891036.84499481,25.0,12.0,31.0,41.85668110075086,-87.682397392975,"(41.85668110075086, -87.68239739297502)",2015-06-17
112733,06/17/2015,Completed,06/17/2015,15-02784235,Alley Light Out,6023 S WINCHESTER AVE,60636.0,1164389.30443065,1864716.76878045,15.0,7.0,67.0,41.78439696246358,-87.67282682912743,"(41.784396962463575, -87.67282682912742)",2015-06-17
112734,06/17/2015,Completed,06/17/2015,15-02784245,Alley Light Out,6036 S WINCHESTER AVE,60636.0,1164391.70443065,1864629.66878045,16.0,7.0,67.0,41.78415789823187,-87.67282048290281,"(41.78415789823187, -87.67282048290282)",2015-06-17
112735,06/17/2015,Completed,06/17/2015,15-02784253,Alley Light Out,6039 S WINCHESTER AVE,60636.0,1164392.30443065,1864609.56878045,15.0,7.0,67.0,41.78410272858868,-87.67281884917648,"(41.78410272858868, -87.67281884917648)",2015-06-17
112736,06/17/2015,Completed,06/17/2015,15-02784261,Alley Light Out,6042 S WINCHESTER AVE,60636.0,1164392.80443065,1864589.46878045,16.0,7.0,67.0,41.78404756105296,-87.6728175820911,"(41.78404756105296, -87.67281758209111)",2015-06-17
112737,06/17/2015,Completed,06/17/2015,15-02784396,Alley Light Out,6055 S WINCHESTER AVE,60636.0,1164395.22950784,1864502.27431273,15.0,7.0,67.0,41.78380823704647,-87.67281114663689,"(41.78380823704647, -87.67281114663689)",2015-06-17
112738,06/17/2015,Completed,06/17/2015,15-02784465,Alley Light Out,6052 S WINCHESTER AVE,60636.0,1164394.72950784,1864522.37431273,16.0,7.0,67.0,41.783863404584494,-87.67281241371468,"(41.78386340458449, -87.67281241371467)",2015-06-17
112739,06/17/2015,Completed - Dup,06/17/2015,15-02765745,Alley Light Out,5922 S HONORE ST,60636.0,1165032.69171966,1865403.28968187,15.0,7.0,67.0,41.78626727644756,-87.67044850405708,"(41.78626727644756, -87.67044850405708)",2015-06-17
112740,06/17/2015,Completed - Dup,06/17/2015,15-02765787,Alley Light Out,9045 S UNION AVE,60620.0,1173227.17186662,1844836.00412725,21.0,22.0,71.0,41.729650809823305,-87.64101034397703,"(41.729650809823305, -87.64101034397703)",2015-06-17
112741,06/17/2015,Completed - Dup,06/17/2015,15-02766818,Alley Light Out,10548 S PARNELL AVE,60628.0,1174498.49219459,1834941.41878834,34.0,22.0,49.0,41.702470516908434,-87.63664645763815,"(41.70247051690843, -87.63664645763814)",2015-06-17
112742,06/17/2015,Completed - Dup,06/17/2015,15-02767249,Alley Light Out,7826 S EAST END AVE,60649.0,1188895.08307245,1853423.56921235,8.0,4.0,43.0,41.752855769829345,-87.5833409151353,"(41.75285576982934, -87.58334091513528)",2015-06-17
112743,06/17/2015,Completed - Dup,06/17/2015,15-02775135,Alley Light Out,5730 S CHRISTIANA AVE,60629.0,1155025.87597851,1866424.19023343,23.0,8.0,63.0,41.78927462736179,-87.70711155171391,"(41.78927462736179, -87.70711155171391)",2015-06-17
112744,06/17/2015,Completed - Dup,06/17/2015,15-02777441,Alley Light Out,1641 N MEADE AVE,60639.0,1135497.50001367,1910277.65153117,29.0,25.0,25.0,41.909983170741526,-87.77767666654802,"(41.90998317074152, -87.77767666654802)",2015-06-17
112745,06/17/2015,Completed - Dup,06/17/2015,15-02782868,Alley Light Out,2127 N TRIPP AVE,60639.0,1147703.71152636,1913797.01229495,35.0,25.0,20.0,41.91941490077771,-87.73274494976907,"(41.91941490077771, -87.73274494976908)",2015-06-17
112746,06/17/2015,Completed - Dup,06/17/2015,15-02783091,Alley Light Out,1229 N MAYFIELD AVE,60651.0,1136800.35981551,1907582.98279745,29.0,25.0,25.0,41.90256541127177,-87.77295507838345,"(41.902565411271766, -87.77295507838345)",2015-06-17
112747,06/15/2015,Completed,06/17/2015,15-02723538,Alley Light Out,4441 N HAZEL ST,60640.0,1169457.6681908001,1929784.57211798,46.0,19.0,3.0,41.9628395699973,-87.65235148992883,"(41.9628395699973, -87.65235148992885)",2015-06-15
112748,06/15/2015,Completed,06/17/2015,15-02736951,Alley Light Out,3309 W BRYN MAWR AVE,60659.0,1153268.52569611,1937020.76970435,39.0,17.0,13.0,41.98303375503292,-87.71168002381773,"(41.98303375503292, -87.71168002381773)",2015-06-15
112749,06/15/2015,Completed,06/17/2015,15-02738455,Alley Light Out,3461 N OCTAVIA AVE,60634.0,1126808.44570396,1922134.13998526,38.0,16.0,17.0,41.942668927838604,-87.80933121695921,"(41.9426689278386, -87.8093312169592)",2015-06-15
112750,06/15/2015,Completed,06/17/2015,15-02739263,Alley Light Out,4045 N OAK PARK AVE,60634.0,1130283.60919302,1926175.80459842,38.0,16.0,17.0,41.95370070511229,-87.79646504321795,"(41.95370070511229, -87.79646504321796)",2015-06-15
112751,06/16/2015,Completed - Dup,06/17/2015,15-02742495,Alley Light Out,1226 N GREENVIEW AVE,60642.0,1166169.11999373,1908259.37940501,2.0,14.0,24.0,41.903844379744186,-87.66505907799055,"(41.90384437974419, -87.66505907799055)",2015-06-16
112752,06/16/2015,Completed - Dup,06/17/2015,15-02755241,Alley Light Out,2119 W NORTH AVE,60647.0,1161964.03989378,1910627.04280177,2.0,14.0,24.0,41.91043027734929,-87.68043913325197,"(41.910430277349285, -87.68043913325197)",2015-06-16
112753,06/16/2015,Completed - Dup,06/17/2015,15-02758784,Alley Light Out,5534 S MERRIMAC AVE,60638.0,1135652.41851977,1867207.43148517,13.0,8.0,56.0,41.791789249548785,-87.77813053735608,"(41.79178924954878, -87.77813053735608)",2015-06-16
112754,06/16/2015,Completed,06/17/2015,15-02748888,Alley Light Out,7716 S HOMAN AVE,60652.0,1155044.13179449,1853225.66877151,18.0,8.0,70.0,41.753055488733466,-87.7073968245614,"(41.753055488733466, -87.7073968245614)",2015-06-16
112755,06/16/2015,Completed,06/17/2015,15-02750559,Alley Light Out,6410 S KEATING AVE,60629.0,1145813.84456601,1861681.67788184,13.0,8.0,64.0,41.776439549855155,-87.7410093491253,"(41.776439549855155, -87.74100934912532)",2015-06-16
112756,06/16/2015,Completed,06/17/2015,15-02755427,Alley Light Out,1900 S PRAIRIE AVE,60616.0,1178379.74547287,1891012.26343327,3.0,1.0,33.0,41.85624759293583,-87.6207329919508,"(41.85624759293583, -87.6207329919508)",2015-06-16
112757,06/14/2015,Completed,06/17/2015,15-02718111,Alley Light Out,2547 N RUTHERFORD AVE,60707.0,1130989.15951873,1916193.48868211,36.0,25.0,18.0,41.926295921674146,-87.794102148596,"(41.926295921674146, -87.794102148596)",2015-06-14
112758,06/15/2015,Completed - Dup,06/17/2015,15-02729506,Alley Light Out,12862 S UNION AVE,60628.0,1174003.4538287,1819480.57288411,34.0,5.0,53.0,41.66005447211318,-87.63891545238056,"(41.66005447211318, -87.63891545238057)",2015-06-15
112759,06/15/2015,Completed - Dup,06/17/2015,15-02732758,Alley Light Out,5820 N NEWARK AVE,60631.0,1130281.1109896998,1938237.05367956,41.0,16.0,10.0,41.98679804365836,-87.79619624010826,"(41.98679804365836, -87.79619624010826)",2015-06-15
112760,06/12/2015,Completed - Dup,06/17/2015,15-02656827,Alley Light Out,1226 N GREENVIEW AVE,60642.0,1166169.11999373,1908259.37940501,2.0,14.0,24.0,41.903844379744186,-87.66505907799055,"(41.90384437974419, -87.66505907799055)",2015-06-12
112761,06/12/2015,Completed - Dup,06/17/2015,15-02665225,Alley Light Out,5534 S MERRIMAC AVE,60638.0,1135652.41851977,1867207.43148517,13.0,8.0,56.0,41.791789249548785,-87.77813053735608,"(41.79178924954878, -87.77813053735608)",2015-06-12
112762,06/12/2015,Completed,06/17/2015,15-02663163,Alley Light Out,8500 S KNOX AVE,60652.0,1146915.32998106,1847773.64131078,18.0,8.0,70.0,41.73825256210853,-87.73732453752243,"(41.73825256210853, -87.73732453752244)",2015-06-12
112763,06/12/2015,Completed,06/17/2015,15-02665350,Alley Light Out,6736 S KARLOV AVE,60629.0,1150196.34683034,1859614.53697928,13.0,8.0,65.0,41.770683023601826,-87.72499672223014,"(41.770683023601826, -87.72499672223016)",2015-06-12
112764,06/12/2015,Completed,06/17/2015,15-02667935,Alley Light Out,511 N OAKLEY BLVD,60612.0,1160977.4538794,1903555.65771835,26.0,12.0,24.0,41.89104638532392,-87.68426001928688,"(41.89104638532392, -87.68426001928687)",2015-06-12
112765,06/11/2015,Completed,06/17/2015,15-02638416,Alley Light Out,911 N CICERO AVE,60651.0,1144190.60070875,1905666.74441787,37.0,11.0,25.0,41.89717135853782,-87.74585732459076,"(41.89717135853782, -87.74585732459077)",2015-06-11
112766,06/11/2015,Completed,06/17/2015,15-02638446,Alley Light Out,5369 W CRYSTAL ST,60651.0,1140279.41336626,1907803.6296682,37.0,25.0,25.0,41.903107818208035,-87.76017032382013,"(41.90310781820803, -87.76017032382013)",2015-06-11
112767,06/11/2015,Completed,06/17/2015,15-02651854,Alley Light Out,5400 S KOMENSKY AVE,60632.0,1150285.1598919,1868492.08290886,23.0,8.0,62.0,41.795042681126745,-87.72444072437072,"(41.795042681126745, -87.72444072437072)",2015-06-11
112768,06/10/2015,Completed - Dup,06/17/2015,15-02618283,Alley Light Out,2643 W ARMITAGE AVE,60647.0,1158231.89999909,1913182.04826844,1.0,14.0,22.0,41.917518550113,-87.6940796530148,"(41.917518550112995, -87.6940796530148)",2015-06-10
112769,06/10/2015,Completed,06/17/2015,15-02603426,Alley Light Out,3300 N OVERHILL AVE,60634.0,1124177.2734078998,1920987.88800747,38.0,16.0,17.0,41.93956719798465,-87.81902751495336,"(41.93956719798465, -87.81902751495336)",2015-06-10
112770,06/10/2015,Completed,06/17/2015,15-02617205,Alley Light Out,1428 N GREENVIEW AVE,60642.0,1166128.98259499,1909605.68119589,2.0,14.0,24.0,41.90753957942937,-87.66516799173067,"(41.90753957942937, -87.66516799173067)",2015-06-10
112771,06/10/2015,Completed,06/17/2015,15-02625815,Alley Light Out,3833 N NORA AVE,60634.0,1128720.73999558,1924673.27939229,38.0,16.0,17.0,41.94960432784573,-87.80224466011916,"(41.949604327845734, -87.80224466011916)",2015-06-10
112772,06/08/2015,Completed,06/17/2015,15-02554639,Alley Light Out,1226 N GREENVIEW AVE,60642.0,1166169.11999373,1908259.37940501,2.0,14.0,24.0,41.903844379744186,-87.66505907799055,"(41.90384437974419, -87.66505907799055)",2015-06-08
112773,06/08/2015,Completed,06/17/2015,15-02569616,Alley Light Out,4041 N PARKSIDE AVE,60634.0,1137957.73992137,1926306.40220404,38.0,16.0,15.0,41.953923692176005,-87.76825050398743,"(41.95392369217601, -87.76825050398742)",2015-06-08
112774,06/09/2015,Completed,06/17/2015,15-02590627,Alley Light Out,3043 W DIVERSEY AVE,60647.0,1155497.4863796001,1918457.44861518,32.0,14.0,22.0,41.93205015354314,-87.7039837396279,"(41.93205015354314, -87.70398373962789)",2015-06-09
112775,06/09/2015,Completed,06/17/2015,15-02601698,Alley Light Out,5612 W WINDSOR AVE,60630.0,1138104.18459071,1929713.61309377,38.0,16.0,15.0,41.96327074875588,-87.76762946095431,"(41.96327074875588, -87.7676294609543)",2015-06-09
112776,06/06/2015,Completed - Dup,06/17/2015,15-02516150,Alley Light Out,714 W 19TH PL,60616.0,1171722.6099987,1890872.37999067,11.0,12.0,31.0,41.85601275187523,-87.6451720074302,"(41.856012751875234, -87.6451720074302)",2015-06-06
112777,06/06/2015,Completed,06/17/2015,15-02512285,Alley Light Out,3230 N NORDICA AVE,60634.0,1128520.78000473,1920793.7500173,29.0,16.0,17.0,41.938961842020575,-87.80306792347206,"(41.93896184202058, -87.80306792347207)",2015-06-06
112778,06/07/2015,Completed - Dup,06/17/2015,15-02549014,Alley Light Out,1504 N ROCKWELL ST,60622.0,1158801.37699071,1909905.43758245,1.0,14.0,24.0,41.90851560826092,-87.69207738245069,"(41.90851560826092, -87.6920773824507)",2015-06-07
112779,06/07/2015,Completed,06/17/2015,15-02549013,Alley Light Out,1504 N ROCKWELL ST,60622.0,1158801.37699071,1909905.43758245,1.0,14.0,24.0,41.90851560826092,-87.69207738245069,"(41.90851560826092, -87.6920773824507)",2015-06-07
112780,06/07/2015,Completed,06/17/2015,15-02549167,Alley Light Out,1603 N RICHMOND ST,60647.0,1156575.15776955,1910521.46937538,1.0,14.0,24.0,41.91025143003081,-87.70023873942223,"(41.91025143003081, -87.70023873942223)",2015-06-07
112781,06/05/2015,Completed - Dup,06/17/2015,15-02490432,Alley Light Out,5534 S MERRIMAC AVE,60638.0,1135652.41851977,1867207.43148517,13.0,8.0,56.0,41.791789249548785,-87.77813053735608,"(41.79178924954878, -87.77813053735608)",2015-06-05
112782,06/05/2015,Completed,06/17/2015,15-02489254,Alley Light Out,6720 W 64TH ST,60638.0,1132722.03081708,1861338.26467621,23.0,8.0,64.0,41.77573458222644,-87.78901223320216,"(41.77573458222644, -87.78901223320216)",2015-06-05
112783,06/05/2015,Completed,06/17/2015,15-02494507,Alley Light Out,8135 W RASCHER AVE,60656.0,1120961.39516644,1935294.80882445,41.0,16.0,10.0,41.97887947058055,-87.83053857377321,"(41.978879470580544, -87.83053857377321)",2015-06-05
112784,06/04/2015,Completed - Dup,06/17/2015,15-02468724,Alley Light Out,9214 S HOUSTON AVE,60617.0,1198125.29250104,1844449.89929349,10.0,4.0,46.0,41.72800556718722,-87.54981601770872,"(41.72800556718722, -87.54981601770872)",2015-06-04
