,Creation Date,Status,Completion Date,Service Request Number,Type of Service Request,What is the Nature of this Code Violation?,Street Address,ZIP Code,X Coordinate,Y Coordinate,Ward,Police District,Community Area,Latitude,Longitude,Location,date
81659,06/01/2015,Completed,06/01/2015,15-02385026,Sanitation Code Violation,Other,316 S THROOP ST,60607.0,1167775.88517997,1898578.48988164,27.0,12.0,28.0,41.877244836438045,-87.6594363492983,"(41.877244836438045, -87.65943634929832)",2015-06-01
81660,06/01/2015,Completed,06/01/2015,15-02385959,Sanitation Code Violation,Other,4143 W NEWPORT AVE,60641.0,1148374.20318553,1922741.36218663,30.0,17.0,16.0,41.94394607876809,-87.73005021407928,"(41.94394607876809, -87.73005021407928)",2015-06-01
81715,06/02/2015,Completed,06/02/2015,15-02410215,Sanitation Code Violation,Other,4523 N LOWELL AVE,60630.0,1146414.51589258,1929704.09568639,39.0,17.0,16.0,41.96309001032899,-87.73707514414515,"(41.96309001032899, -87.73707514414514)",2015-06-02
81716,06/02/2015,Completed,06/02/2015,15-02410347,Sanitation Code Violation,Other,5047 N MONTICELLO AVE,60625.0,1151143.6003986,1933268.75958065,39.0,17.0,14.0,41.97278006406004,-87.71959397109569,"(41.97278006406004, -87.71959397109569)",2015-06-02
81717,06/02/2015,Completed,06/02/2015,15-02411567,Sanitation Code Violation,Garbage in yard,345 N CLAREMONT AVE,60612.0,1160684.27001043,1902191.88891435,27.0,12.0,28.0,41.88731016772999,-87.68537455991292,"(41.88731016772999, -87.6853745599129)",2015-06-02
81718,06/02/2015,Completed,06/02/2015,15-02415213,Sanitation Code Violation,Dumpster not being emptied,6056 N CLAREMONT AVE,60659.0,1159555.9693901,1940160.83151596,40.0,24.0,2.0,41.991522661395436,-87.68846912306536,"(41.99152266139544, -87.68846912306536)",2015-06-02
81719,06/02/2015,Completed,06/02/2015,15-02416998,Sanitation Code Violation,Other,4732 N CLARENDON AVE,60640.0,1170055.95197869,1931761.3427990002,46.0,19.0,3.0,41.968250818204325,-87.65009388220831,"(41.96825081820432, -87.65009388220831)",2015-06-02
81720,06/02/2015,Completed,06/02/2015,15-02420155,Sanitation Code Violation,Other,3015 N OAKLEY AVE,60618.0,1160500.90869543,1920036.72001087,32.0,19.0,5.0,41.93628152034663,-87.68555298999244,"(41.936281520346625, -87.68555298999244)",2015-06-02
81722,06/01/2015,Completed - Dup,06/02/2015,15-02401268,Sanitation Code Violation,Garbage in yard,21 E 120TH ST,60628.0,1178531.47539484,1825403.84369693,9.0,5.0,53.0,41.6762075466396,-87.62216714318855,"(41.676207546639596, -87.62216714318855)",2015-06-01
81723,06/01/2015,Completed,06/02/2015,15-02386147,Sanitation Code Violation,Garbage in alley,1637 N ASHLAND AVE,60622.0,1165426.29121649,1910974.39653369,32.0,14.0,24.0,41.91131041599175,-87.66771026966288,"(41.91131041599175, -87.66771026966288)",2015-06-01
81724,06/01/2015,Completed,06/02/2015,15-02386150,Sanitation Code Violation,Garbage in alley,1631 N ASHLAND AVE,60622.0,1165427.39121649,1910934.19653369,32.0,14.0,24.0,41.91120008114069,-87.66770737471863,"(41.911200081140684, -87.66770737471863)",2015-06-01
81725,06/01/2015,Completed,06/02/2015,15-02388996,Sanitation Code Violation,Other,1947 N HONORE ST,60622.0,1163711.5831237,1912987.35661748,32.0,14.0,22.0,41.91687045661103,-87.67395267312203,"(41.91687045661103, -87.67395267312202)",2015-06-01
81726,06/01/2015,Completed,06/02/2015,15-02389011,Sanitation Code Violation,Garbage in yard,5131 N CENTRAL PARK AVE,60625.0,1151461.4004231,1933856.29997017,39.0,17.0,13.0,41.97438605822017,-87.71840984084423,"(41.97438605822017, -87.71840984084423)",2015-06-01
81727,06/01/2015,Completed,06/02/2015,15-02389175,Sanitation Code Violation,Garbage in alley,1818 N PAULINA ST,60622.0,1164728.44639653,1912173.6998667999,32.0,14.0,22.0,41.914616215574185,-87.67023985117045,"(41.914616215574185, -87.67023985117046)",2015-06-01
81728,06/01/2015,Completed,06/02/2015,15-02389972,Sanitation Code Violation,Garbage in yard,6010 N KIMBALL AVE,60659.0,1152620.95378866,1939735.60711398,50.0,17.0,13.0,41.99049628796941,-87.71398946711477,"(41.99049628796941, -87.71398946711476)",2015-06-01
81729,06/01/2015,Completed,06/02/2015,15-02390009,Sanitation Code Violation,Garbage in yard,3359 W GLENLAKE AVE,60659.0,1152821.07120547,1940303.74208957,50.0,17.0,13.0,41.99205130591161,-87.7132382556686,"(41.99205130591161, -87.71323825566861)",2015-06-01
81730,06/01/2015,Completed,06/02/2015,15-02390340,Sanitation Code Violation,Garbage in alley,2715 W SCHUBERT AVE,60647.0,1157731.08750724,1917831.76711441,32.0,14.0,22.0,41.93028795453851,-87.69579264375578,"(41.930287954538514, -87.69579264375578)",2015-06-01
81731,06/01/2015,Completed,06/02/2015,15-02390375,Sanitation Code Violation,Garbage in yard,1408 N MOHAWK ST,60610.0,1172401.36148999,1909734.02761775,27.0,18.0,8.0,41.90775538501579,-87.64212306594703,"(41.90775538501579, -87.64212306594703)",2015-06-01
81732,06/01/2015,Completed,06/02/2015,15-02394808,Sanitation Code Violation,Garbage in yard,3355 W GLENLAKE AVE,60659.0,1152842.77120547,1940304.24208957,50.0,17.0,13.0,41.99205224673931,-87.7131584225956,"(41.99205224673931, -87.7131584225956)",2015-06-01
81733,06/01/2015,Completed,06/02/2015,15-02396364,Sanitation Code Violation,Other,3105 N DAMEN AVE,60618.0,1162469.32379556,1920640.63592038,32.0,19.0,5.0,41.937897659319404,-87.67830190959585,"(41.93789765931941, -87.67830190959586)",2015-06-01
81734,06/01/2015,Completed,06/02/2015,15-02397012,Sanitation Code Violation,Other,6119 W SUNNYSIDE AVE,60630.0,1134669.36961181,1929265.18981574,38.0,16.0,15.0,41.96210176452703,-87.78026894135786,"(41.96210176452703, -87.78026894135786)",2015-06-01
81735,06/01/2015,Completed,06/02/2015,15-02397337,Sanitation Code Violation,Other,850 W LELAND AVE,60640.0,1170065.66656599,1931433.01899763,46.0,19.0,3.0,41.96734967583264,-87.65006778999685,"(41.96734967583263, -87.65006778999685)",2015-06-01
81736,06/01/2015,Completed,06/02/2015,15-02400436,Sanitation Code Violation,Other,3640 W ADDISON ST,60618.0,1151292.28608082,1923685.93537295,30.0,17.0,16.0,41.94648120209775,-87.71929972584586,"(41.94648120209775, -87.71929972584584)",2015-06-01
81808,06/03/2015,Completed,06/03/2015,15-02435263,Sanitation Code Violation,Dumpster not being emptied,2410 W WILSON AVE,60625.0,1159434.47998903,1930443.6879043,47.0,19.0,4.0,41.96486089215418,-87.68918477273289,"(41.96486089215418, -87.68918477273289)",2015-06-03
81809,06/03/2015,Completed,06/03/2015,15-02440464,Sanitation Code Violation,Garbage in alley,3859 N WHIPPLE ST,60618.0,1155365.61301037,1925505.30419057,33.0,17.0,16.0,41.95139262209208,-87.70427829236195,"(41.95139262209208, -87.70427829236193)",2015-06-03
81810,06/02/2015,Completed,06/03/2015,15-02411865,Sanitation Code Violation,Other,6245 N WESTERN AVE,60659.0,1159187.2763216002,1941396.00266563,50.0,24.0,2.0,41.9949196284333,-87.6897911375074,"(41.9949196284333, -87.68979113750741)",2015-06-02
81811,06/02/2015,Completed,06/03/2015,15-02413671,Sanitation Code Violation,Garbage in yard,3332 W CUYLER AVE,60618.0,1153450.79602192,1926745.24989561,33.0,17.0,16.0,41.95483346880373,-87.71128405405865,"(41.95483346880373, -87.71128405405864)",2015-06-02
81812,06/02/2015,Completed,06/03/2015,15-02417794,Sanitation Code Violation,Construction Site Cleanliness/Fence,2020 W 18TH ST,60608.0,1163186.2148004998,1891404.65342557,25.0,12.0,31.0,41.857656827362774,-87.67648982903786,"(41.857656827362774, -87.67648982903786)",2015-06-02
81813,06/02/2015,Completed,06/03/2015,15-02417851,Sanitation Code Violation,Standing water,1614 W 38TH ST,60609.0,1166165.0250202,1879532.76519924,12.0,9.0,59.0,41.825016151921055,-87.66589448617536,"(41.825016151921055, -87.66589448617536)",2015-06-02
81814,06/02/2015,Completed,06/03/2015,15-02418034,Sanitation Code Violation,Other,5712 W 64TH PL,60638.0,1139447.88869241,1861215.08592573,13.0,8.0,64.0,41.77527709016217,-87.76435834705731,"(41.77527709016217, -87.7643583470573)",2015-06-02
81815,06/02/2015,Completed,06/03/2015,15-02418053,Sanitation Code Violation,Other,5739 W 64TH PL,60638.0,1139266.48869241,1861209.08592573,13.0,8.0,64.0,41.77526391656807,-87.76502349608066,"(41.775263916568065, -87.76502349608067)",2015-06-02
81816,06/02/2015,Completed,06/03/2015,15-02418070,Sanitation Code Violation,Other,5736 W 64TH PL,60638.0,1139286.58869241,1861209.78592573,13.0,8.0,64.0,41.775265472971284,-87.7649497935013,"(41.77526547297129, -87.7649497935013)",2015-06-02
81817,06/02/2015,Completed,06/03/2015,15-02418123,Sanitation Code Violation,Other,5759 W 64TH PL,60638.0,1139132.00642045,1861204.71419959,13.0,8.0,64.0,41.77525435744595,-87.7655166073786,"(41.77525435744595, -87.7655166073786)",2015-06-02
81818,06/02/2015,Completed,06/03/2015,15-02418180,Sanitation Code Violation,Other,5753 W 64TH PL,60638.0,1139172.40642045,1861206.01419959,13.0,8.0,64.0,41.77525719279533,-87.7653684714864,"(41.77525719279533, -87.7653684714864)",2015-06-02
81819,06/02/2015,Completed,06/03/2015,15-02419393,Sanitation Code Violation,,3254 N RIDGEWAY AVE,60618.0,1150818.86352213,1921379.82443419,30.0,17.0,21.0,41.94016234604985,-87.72110043512848,"(41.94016234604985, -87.72110043512848)",2015-06-02
81820,06/02/2015,Completed,06/03/2015,15-02419641,Sanitation Code Violation,Garbage in yard,3139 N CLYBOURN AVE,60618.0,1160238.04918713,1920796.87219408,32.0,19.0,5.0,41.93837287212215,-87.68649794742002,"(41.938372872122144, -87.68649794742002)",2015-06-02
81821,06/02/2015,Completed,06/03/2015,15-02421250,Sanitation Code Violation,Other,1288 W ROSEDALE AVE,60660.0,1166602.81808205,1939309.31488829,48.0,20.0,77.0,41.98903754363821,-87.6625734571973,"(41.989037543638204, -87.66257345719731)",2015-06-02
81822,06/02/2015,Completed,06/03/2015,15-02422864,Sanitation Code Violation,Other,913 W IRVING PARK RD,60613.0,1169457.26992368,1926751.99300734,46.0,19.0,6.0,41.954518078643645,-87.65244154689262,"(41.95451807864365, -87.65244154689263)",2015-06-02
81823,06/02/2015,Completed,06/03/2015,15-02424810,Sanitation Code Violation,Garbage in yard,1950 W MORSE AVE,60626.0,1162351.89407229,1946077.9295748002,49.0,24.0,1.0,42.007701115520064,-87.67801836597248,"(42.00770111552006, -87.67801836597249)",2015-06-02
81824,06/02/2015,Completed,06/03/2015,15-02427842,Sanitation Code Violation,Other,936 W SHERIDAN RD,60613.0,1169148.41317509,1926082.9643106998,46.0,19.0,6.0,41.95268896714284,-87.65359645070652,"(41.95268896714284, -87.65359645070652)",2015-06-02
81825,06/02/2015,Completed,06/03/2015,15-02428735,Sanitation Code Violation,Garbage in alley,1255 W LELAND AVE,60640.0,1166941.46627713,1931342.78418077,46.0,19.0,3.0,41.967169861396314,-87.66155766520892,"(41.96716986139631, -87.6615576652089)",2015-06-02
81826,06/02/2015,Completed,06/03/2015,15-02433171,Sanitation Code Violation,Other,5300 N GLENWOOD AVE,60640.0,1166028.70678803,1935308.91221046,48.0,20.0,77.0,41.978072641918956,-87.66479995557734,"(41.978072641918956, -87.66479995557734)",2015-06-02
81831,06/01/2015,Completed,06/03/2015,15-02388869,Sanitation Code Violation,,3830 S ARTESIAN AVE,60632.0,1160553.61221747,1879229.22710801,12.0,9.0,58.0,41.82430098628036,-87.68648963058119,"(41.82430098628037, -87.68648963058119)",2015-06-01
81832,06/01/2015,Completed,06/03/2015,15-02389260,Sanitation Code Violation,Garbage in alley,1601 W BERTEAU AVE,60613.0,1164897.79778674,1927966.78460001,47.0,19.0,6.0,41.95794970251872,-87.66916817416546,"(41.95794970251872, -87.66916817416545)",2015-06-01
81833,06/01/2015,Completed,06/03/2015,15-02389681,Sanitation Code Violation,Overflowing carts,2306 W WALTON ST,60622.0,1160859.96082079,1906275.23492164,1.0,12.0,24.0,41.89851156776619,-87.68461599753648,"(41.898511567766185, -87.68461599753648)",2015-06-01
81834,06/01/2015,Completed,06/03/2015,15-02390204,Sanitation Code Violation,Other,2852 W 38TH ST,60632.0,1157975.80987678,1879314.24340776,12.0,9.0,58.0,41.82458714890112,-87.69594449647853,"(41.824587148901124, -87.69594449647853)",2015-06-01
81835,06/01/2015,Completed,06/03/2015,15-02392568,Sanitation Code Violation,Garbage in yard,8900 S EMERALD AVE,60620.0,1172866.09388928,1845892.29356587,21.0,22.0,71.0,41.732557375050455,-87.64230200419527,"(41.732557375050455, -87.64230200419526)",2015-06-01
81836,06/01/2015,Completed,06/03/2015,15-02393133,Sanitation Code Violation,Other,3122 S KOMENSKY AVE,60623.0,1149873.49709554,1883582.71677262,22.0,10.0,30.0,41.83646151582332,-87.72555891796831,"(41.836461515823316, -87.72555891796831)",2015-06-01
81837,06/01/2015,Completed,06/03/2015,15-02394778,Sanitation Code Violation,Dumpster not being emptied,2025 S CHINA PL,60616.0,1175032.43092892,1890433.9351112999,25.0,9.0,34.0,41.854736192679646,-87.63303654186926,"(41.854736192679646, -87.63303654186925)",2015-06-01
81838,06/01/2015,Completed,06/03/2015,15-02394810,Sanitation Code Violation,Garbage in alley,5522 S CORNELL AVE,60637.0,1188199.90999177,1868706.21599308,5.0,2.0,41.0,41.794809216378496,-87.58540134730195,"(41.794809216378496, -87.58540134730197)",2015-06-01
81839,06/01/2015,Completed,06/03/2015,15-02394821,Sanitation Code Violation,Dumpster not being emptied,4613 N WESTERN AVE,60625.0,1159537.37998903,1930589.0879042998,47.0,19.0,4.0,41.965257753784286,-87.6888024138918,"(41.965257753784286, -87.68880241389182)",2015-06-01
81840,06/01/2015,Completed,06/03/2015,15-02395244,Sanitation Code Violation,Dumpster not being emptied,1471 N MILWAUKEE AVE,60622.0,1163636.1800321,1909886.50001248,1.0,14.0,24.0,41.908363084747094,-87.67431723843565,"(41.90836308474709, -87.67431723843566)",2015-06-01
81841,06/01/2015,Completed,06/03/2015,15-02396458,Sanitation Code Violation,Other,3124 S KOMENSKY AVE,60623.0,1149873.79709554,1883569.31677262,22.0,10.0,30.0,41.83642473862884,-87.7255581650549,"(41.836424738628835, -87.7255581650549)",2015-06-01
81842,06/01/2015,Completed,06/03/2015,15-02397512,Sanitation Code Violation,Other,2658 S KOMENSKY AVE,60623.0,1149808.32061214,1886022.16459715,22.0,10.0,30.0,41.84315694436466,-87.7257347551537,"(41.84315694436466, -87.72573475515371)",2015-06-01
81843,06/01/2015,Completed,06/03/2015,15-02401421,Sanitation Code Violation,,535 N WELLS ST,60654.0,1174641.27886782,1903881.27559026,42.0,18.0,8.0,41.89164530691472,-87.63407012758181,"(41.89164530691472, -87.63407012758181)",2015-06-01
81887,06/04/2015,Completed - Dup,06/04/2015,15-02463754,Sanitation Code Violation,Other,1732 W BARRY AVE,60657.0,1164240.152399,1920629.71791691,32.0,19.0,6.0,41.937830386059275,-87.67179409177997,"(41.93783038605927, -87.67179409177997)",2015-06-04
81888,06/04/2015,Completed,06/04/2015,15-02461194,Sanitation Code Violation,Overflowing carts,3118 N SPRINGFIELD AVE,60618.0,1149571.83997032,1920444.32010589,30.0,25.0,21.0,41.93761959236125,-87.72570805883122,"(41.93761959236125, -87.72570805883122)",2015-06-04
81889,06/04/2015,Completed,06/04/2015,15-02464121,Sanitation Code Violation,Dumpster not being emptied,6332 N MOZART ST,60659.0,1156187.33922395,1941887.52777188,50.0,24.0,2.0,41.996329728750155,-87.70081300256642,"(41.99632972875016, -87.7008130025664)",2015-06-04
81890,06/03/2015,Completed,06/04/2015,15-02436906,Sanitation Code Violation,Dumpster not being emptied,2737 N MILDRED AVE,60614.0,1169808.05256857,1918381.75792205,43.0,19.0,7.0,41.931542156965214,-87.65139681974199,"(41.93154215696522, -87.651396819742)",2015-06-03
81891,06/03/2015,Completed,06/04/2015,15-02436914,Sanitation Code Violation,Construction Site Cleanliness/Fence,2645 N BURLING ST,60614.0,1170817.33806822,1917908.02317073,43.0,19.0,7.0,41.93022011946629,-87.64770181479608,"(41.93022011946629, -87.6477018147961)",2015-06-03
81892,06/03/2015,Completed,06/04/2015,15-02437899,Sanitation Code Violation,Other,1732 W BARRY AVE,60657.0,1164240.152399,1920629.71791691,32.0,19.0,6.0,41.937830386059275,-87.67179409177997,"(41.93783038605927, -87.67179409177997)",2015-06-03
81893,06/03/2015,Completed,06/04/2015,15-02438685,Sanitation Code Violation,Garbage in alley,2416 W WILSON AVE,60625.0,1159541.47998903,1930446.9879043,47.0,19.0,4.0,41.96486773949129,-87.68879126941894,"(41.96486773949129, -87.68879126941894)",2015-06-03
81894,06/03/2015,Completed,06/04/2015,15-02439956,Sanitation Code Violation,Other,850 W LELAND AVE,60640.0,1170065.66656599,1931433.01899763,46.0,19.0,3.0,41.96734967583264,-87.65006778999685,"(41.96734967583263, -87.65006778999685)",2015-06-03
81895,06/03/2015,Completed,06/04/2015,15-02441078,Sanitation Code Violation,Garbage in alley,3349 N HAMLIN AVE,60618.0,1150467.79421286,1922002.52819207,30.0,17.0,21.0,41.94187796819935,-87.7223744267602,"(41.94187796819935, -87.72237442676021)",2015-06-03
81896,06/03/2015,Completed,06/04/2015,15-02441342,Sanitation Code Violation,Garbage in alley,1405 W TOUHY AVE,60626.0,1165595.63009584,1947955.73681081,49.0,24.0,1.0,42.01278509734284,-87.66603015971425,"(42.012785097342835, -87.66603015971427)",2015-06-03
81897,06/03/2015,Completed,06/04/2015,15-02442134,Sanitation Code Violation,Garbage in alley,2353 W CORNELIA AVE,60618.0,1159982.03589196,1923184.0218981004,32.0,19.0,5.0,41.944928654791404,-87.68737274118133,"(41.94492865479141, -87.68737274118133)",2015-06-03
81898,06/03/2015,Completed,06/04/2015,15-02444026,Sanitation Code Violation,Other,4318 N SPRINGFIELD AVE,60618.0,1149616.05419531,1928413.78401811,39.0,17.0,16.0,41.95948756477056,-87.72533779241583,"(41.95948756477056, -87.72533779241583)",2015-06-03
81899,06/03/2015,Completed,06/04/2015,15-02444033,Sanitation Code Violation,Standing water,3420 N LAKE SHORE DR,60657.0,1172735.52630066,1922715.62007772,44.0,19.0,6.0,41.943370038609686,-87.64051022874878,"(41.94337003860969, -87.64051022874878)",2015-06-03
81900,06/03/2015,Completed,06/04/2015,15-02444045,Sanitation Code Violation,Other,4319 N HARDING AVE,60618.0,1149283.74826818,1928412.39011208,39.0,17.0,16.0,41.95949020318933,-87.72655953993488,"(41.959490203189326, -87.72655953993487)",2015-06-03
81901,06/03/2015,Completed,06/04/2015,15-02444632,Sanitation Code Violation,Dog feces in yard,5501 N CHESTER AVE,60656.0,1118644.39276653,1935435.80020581,41.0,16.0,76.0,41.9793033709963,-87.83905670336408,"(41.9793033709963, -87.8390567033641)",2015-06-03
81902,06/03/2015,Completed,06/04/2015,15-02447202,Sanitation Code Violation,Other,2398 W LOGAN BLVD,60647.0,1159923.40801649,1917251.29463179,32.0,14.0,22.0,41.92865008339769,-87.68775244690407,"(41.92865008339769, -87.68775244690407)",2015-06-03
81903,06/03/2015,Completed,06/04/2015,15-02447538,Sanitation Code Violation,,7050 N WESTERN AVE,60645.0,1159035.8088163,1946909.52999817,50.0,24.0,2.0,42.0100520567755,-87.69019596216695,"(42.0100520567755, -87.69019596216695)",2015-06-03
81904,06/03/2015,Completed,06/04/2015,15-02449064,Sanitation Code Violation,Standing water,1045 W LELAND AVE,60640.0,1168344.91290856,1931380.11262058,46.0,19.0,3.0,41.96724198041992,-87.65639630710375,"(41.967241980419914, -87.65639630710375)",2015-06-03
81905,06/03/2015,Completed,06/04/2015,15-02450379,Sanitation Code Violation,Other,4450 S BERKELEY AVE,60653.0,1183993.97598371,1876050.95849796,4.0,2.0,39.0,41.8150631357382,-87.60059464963983,"(41.8150631357382, -87.60059464963983)",2015-06-03
81906,06/03/2015,Completed,06/04/2015,15-02451040,Sanitation Code Violation,Overflowing carts,311 W CHICAGO AVE,60654.0,1174071.08143094,1905671.95167242,42.0,18.0,8.0,41.896571753739494,-87.63611074104813,"(41.89657175373949, -87.63611074104813)",2015-06-03
81907,06/03/2015,Completed,06/04/2015,15-02451904,Sanitation Code Violation,Other,1625 W 37TH PL,60609.0,1166089.42779272,1879865.04997531,12.0,9.0,59.0,41.82592958766827,-87.66616236454472,"(41.82592958766827, -87.66616236454472)",2015-06-03
81908,06/03/2015,Completed,06/04/2015,15-02457727,Sanitation Code Violation,Dumpster not being emptied,1702 W THORNDALE AVE,60660.0,1164139.75809531,1939053.63200324,40.0,20.0,77.0,41.98838851999013,-87.67164016430695,"(41.988388519990124, -87.67164016430695)",2015-06-03
81909,06/03/2015,Completed,06/04/2015,15-02459266,Sanitation Code Violation,Other,6727 S CREGIER AVE,60649.0,1189360.33011493,1860730.25499276,5.0,3.0,43.0,41.77289479702788,-87.5814019384766,"(41.77289479702788, -87.58140193847659)",2015-06-03
81910,06/03/2015,Completed,06/04/2015,15-02459924,Sanitation Code Violation,Garbage in alley,1637 N ASHLAND AVE,60622.0,1165426.29121649,1910974.39653369,32.0,14.0,24.0,41.91131041599175,-87.66771026966288,"(41.91131041599175, -87.66771026966288)",2015-06-03
81911,06/03/2015,Completed,06/04/2015,15-02459925,Sanitation Code Violation,Garbage in alley,1621 N ASHLAND AVE,60622.0,1165429.29121649,1910867.19653369,32.0,14.0,24.0,41.91101618829785,-87.66770230491885,"(41.91101618829785, -87.66770230491885)",2015-06-03
81912,06/03/2015,Completed,06/04/2015,15-02459949,Sanitation Code Violation,Garbage in alley,1632 N BOSWORTH AVE,60642.0,1165726.69470773,1910947.40867687,32.0,14.0,24.0,41.9112299570933,-87.66660746089191,"(41.9112299570933, -87.66660746089192)",2015-06-03
81913,06/02/2015,Completed,06/04/2015,15-02412229,Sanitation Code Violation,Garbage in alley,5036 S DREXEL BLVD,60615.0,1183037.17516747,1871802.78000165,4.0,2.0,39.0,41.80342814079711,-87.60423649246181,"(41.80342814079711, -87.60423649246182)",2015-06-02
81914,06/02/2015,Completed,06/04/2015,15-02416731,Sanitation Code Violation,Other,4408 S LAKE PARK AVE,60653.0,1184854.65607127,1876012.26032528,4.0,2.0,39.0,41.81493676291744,-87.59743880615906,"(41.814936762917434, -87.59743880615906)",2015-06-02
81915,06/02/2015,Completed,06/04/2015,15-02421732,Sanitation Code Violation,Other,3918 N CLARK ST,60613.0,1167110.71337264,1926146.66008677,47.0,19.0,6.0,41.95290785541326,-87.66108525217318,"(41.95290785541326, -87.66108525217317)",2015-06-02
81916,06/02/2015,Completed,06/04/2015,15-02423183,Sanitation Code Violation,Construction Site Cleanliness/Fence,8221 W HIGGINS RD,60631.0,1120503.63530591,1937802.04627262,41.0,16.0,10.0,41.98576697079119,-87.83216810190594,"(41.98576697079119, -87.83216810190594)",2015-06-02
81917,06/02/2015,Completed,06/04/2015,15-02424739,Sanitation Code Violation,Overflowing carts,5337 N DELPHIA AVE,60656.0,1117974.59219401,1934475.37012025,41.0,16.0,76.0,41.97667841727211,-87.84154029112166,"(41.97667841727211, -87.84154029112166)",2015-06-02
81918,06/02/2015,Completed,06/04/2015,15-02425026,Sanitation Code Violation,Dumpster not being emptied,5327 N DELPHIA AVE,60656.0,1117974.71802968,1934375.08996974,41.0,16.0,76.0,41.976403234695134,-87.84154194551432,"(41.97640323469513, -87.84154194551432)",2015-06-02
81919,06/02/2015,Completed,06/04/2015,15-02425396,Sanitation Code Violation,Other,10434 S AVENUE H,60617.0,1202826.54076569,1836386.1296299999,10.0,4.0,52.0,41.70575925448656,-87.5328695527581,"(41.70575925448656, -87.5328695527581)",2015-06-02
81920,06/02/2015,Completed,06/04/2015,15-02429684,Sanitation Code Violation,Garbage in alley,4750 N LINCOLN AVE,60625.0,1159748.38387668,1931496.55308486,47.0,19.0,4.0,41.9677435254536,-87.68800147037386,"(41.96774352545359, -87.68800147037386)",2015-06-02
81924,06/01/2015,Completed,06/04/2015,15-02387449,Sanitation Code Violation,Dumpster not being emptied,1201 N CLARK ST,60610.0,1175319.27122878,1908359.9381871002,2.0,18.0,8.0,41.90391979685813,-87.63144563503614,"(41.903919796858126, -87.63144563503614)",2015-06-01
81925,06/01/2015,Completed,06/04/2015,15-02388207,Sanitation Code Violation,Dumpster not being emptied,603 W STRATFORD PL,60657.0,1171622.90412997,1923386.7533843003,44.0,19.0,6.0,41.945236256965984,-87.6445798272292,"(41.945236256965984, -87.64457982722921)",2015-06-01
81926,06/01/2015,Completed,06/04/2015,15-02389134,Sanitation Code Violation,Garbage in yard,635 W BARRY AVE,60657.0,1171462.24996789,1920708.43000321,44.0,19.0,6.0,41.93789037657874,-87.64524934767445,"(41.93789037657874, -87.64524934767446)",2015-06-01
81927,06/01/2015,Completed,06/04/2015,15-02394773,Sanitation Code Violation,Other,4353 W HADDON AVE,60651.0,1147141.97167401,1907306.27719086,37.0,11.0,23.0,41.90161444325308,-87.73497524317621,"(41.90161444325308, -87.7349752431762)",2015-06-01
81928,06/01/2015,Completed,06/04/2015,15-02395720,Sanitation Code Violation,Standing water,963 E 40TH ST,60653.0,1183610.9333708,1878798.36168866,4.0,2.0,36.0,41.82261115978356,-87.60191390340474,"(41.82261115978356, -87.60191390340474)",2015-06-01
81929,06/01/2015,Completed,06/04/2015,15-02396847,Sanitation Code Violation,Other,5200 S MOBILE AVE,60638.0,1135254.56452016,1869432.19321649,14.0,8.0,56.0,41.79790143375049,-87.77953687530814,"(41.79790143375049, -87.77953687530814)",2015-06-01
81930,06/01/2015,Completed,06/04/2015,15-02398149,Sanitation Code Violation,Garbage in yard,932 E 44TH ST,60653.0,1183255.87377284,1876033.22008614,4.0,2.0,39.0,41.815031699079206,-87.60330263638336,"(41.8150316990792, -87.60330263638336)",2015-06-01
81961,06/05/2015,Completed,06/05/2015,15-02483994,Sanitation Code Violation,Overflowing carts,1349 W GEORGE ST,60657.0,1166806.31540314,1919369.4730301998,32.0,19.0,6.0,41.93431748361147,-87.66239923533259,"(41.93431748361147, -87.66239923533259)",2015-06-05
81962,06/05/2015,Completed,06/05/2015,15-02483998,Sanitation Code Violation,Overflowing carts,2857 N SOUTHPORT AVE,60657.0,1166479.98000338,1919151.29592529,32.0,19.0,6.0,41.93372579595234,-87.66360477304498,"(41.93372579595234, -87.66360477304498)",2015-06-05
81963,06/05/2015,Completed,06/05/2015,15-02483999,Sanitation Code Violation,Garbage in alley,1351 W GEORGE ST,60657.0,1166793.01369073,1919369.01101742,32.0,19.0,6.0,41.93431650146433,-87.66244813206373,"(41.93431650146433, -87.66244813206374)",2015-06-05
81964,06/05/2015,Completed,06/05/2015,15-02486808,Sanitation Code Violation,Garbage in alley,217 W 22ND PL,60616.0,1175192.6599677,1889496.18003026,25.0,9.0,34.0,41.852159336952475,-87.63247653192573,"(41.85215933695248, -87.63247653192573)",2015-06-05
81965,06/05/2015,Completed,06/05/2015,15-02489183,Sanitation Code Violation,Other,2439 S FRANCISCO AVE,60623.0,1157418.93997947,1887508.01007067,12.0,10.0,30.0,41.84708312943443,-87.69776507161356,"(41.84708312943443, -87.69776507161357)",2015-06-05
81966,06/05/2015,Completed,06/05/2015,15-02491732,Sanitation Code Violation,Garbage in alley,1637 N ASHLAND AVE,60622.0,1165426.29121649,1910974.39653369,32.0,14.0,24.0,41.91131041599175,-87.66771026966288,"(41.91131041599175, -87.66771026966288)",2015-06-05
81967,06/05/2015,Completed,06/05/2015,15-02494455,Sanitation Code Violation,Other,4743 N KEYSTONE AVE,60630.0,1148544.62620143,1931058.91317247,39.0,17.0,14.0,41.966766785536926,-87.72920829738536,"(41.96676678553692, -87.72920829738534)",2015-06-05
81968,06/04/2015,Completed,06/05/2015,15-02462064,Sanitation Code Violation,Construction Site Cleanliness/Fence,303 W WISCONSIN ST,60614.0,1173923.16910428,1912950.8877327,43.0,18.0,7.0,41.91654881390114,-87.63643679467428,"(41.91654881390114, -87.63643679467428)",2015-06-04
81969,06/04/2015,Completed,06/05/2015,15-02462088,Sanitation Code Violation,Construction Site Cleanliness/Fence,2732 N MAGNOLIA AVE,60614.0,1167500.78821294,1918278.02556924,43.0,19.0,7.0,41.93130755461215,-87.65987857394646,"(41.93130755461215, -87.65987857394646)",2015-06-04
81970,06/04/2015,Completed,06/05/2015,15-02465435,Sanitation Code Violation,Construction Site Cleanliness/Fence,3103 N SOUTHPORT AVE,60657.0,1166425.95618824,1920719.35192372,32.0,19.0,6.0,41.93802977996743,-87.66375830048624,"(41.93802977996743, -87.66375830048624)",2015-06-04
81971,06/04/2015,Completed,06/05/2015,15-02465442,Sanitation Code Violation,Construction Site Cleanliness/Fence,1458 W BARRY AVE,60657.0,1166041.47509125,1920674.60082484,32.0,19.0,6.0,41.937915212445674,-87.6651726229527,"(41.93791521244567, -87.66517262295268)",2015-06-04
81972,06/04/2015,Completed,06/05/2015,15-02465461,Sanitation Code Violation,Construction Site Cleanliness/Fence,1448 W BARRY AVE,60657.0,1166107.95618824,1920676.75192372,32.0,19.0,6.0,41.93791969305293,-87.66492823116323,"(41.93791969305294, -87.66492823116324)",2015-06-04
81973,06/04/2015,Completed,06/05/2015,15-02465927,Sanitation Code Violation,Other,6158 N MAPLEWOOD AVE,60659.0,1158209.0921061002,1940798.25771835,40.0,24.0,2.0,41.99329950834007,-87.69340580000447,"(41.993299508340066, -87.69340580000447)",2015-06-04
81974,06/04/2015,Completed,06/05/2015,15-02466458,Sanitation Code Violation,Overflowing carts,1758 W 17TH ST,60608.0,1164885.18779877,1891779.21799478,25.0,12.0,31.0,41.85864883184021,-87.6702429797555,"(41.858648831840206, -87.6702429797555)",2015-06-04
81975,06/04/2015,Completed,06/05/2015,15-02467725,Sanitation Code Violation,Garbage in yard,1509 W DIVERSEY PKWY,60614.0,1165740.70667691,1918675.1212138,32.0,19.0,7.0,41.93243496160541,-87.66633517378216,"(41.93243496160541, -87.66633517378216)",2015-06-04
81976,06/04/2015,Completed,06/05/2015,15-02470751,Sanitation Code Violation,Other,4023 N MEADE AVE,60634.0,1134970.55788988,1926116.62830571,38.0,16.0,15.0,41.953456457096216,-87.7792364281604,"(41.95345645709622, -87.7792364281604)",2015-06-04
81977,06/04/2015,Completed,06/05/2015,15-02471193,Sanitation Code Violation,Construction Site Cleanliness/Fence,1838 W NELSON ST,60657.0,1163462.86179655,1920278.31007018,32.0,19.0,5.0,41.93688252694199,-87.67466070070175,"(41.936882526941986, -87.67466070070175)",2015-06-04
81978,06/04/2015,Completed,06/05/2015,15-02471604,Sanitation Code Violation,Dog feces in yard,3250 N PARIS AVE,60634.0,1121194.5501889,1920282.37511167,38.0,16.0,17.0,41.937679759802855,-87.83000539217186,"(41.93767975980285, -87.83000539217186)",2015-06-04
81979,06/04/2015,Completed,06/05/2015,15-02472771,Sanitation Code Violation,Other,5241 W PATTERSON AVE,60641.0,1140772.23800328,1923766.69008026,30.0,16.0,15.0,41.94690309408542,-87.75796661198994,"(41.94690309408542, -87.75796661198994)",2015-06-04
81980,06/04/2015,Completed,06/05/2015,15-02473194,Sanitation Code Violation,Garbage in yard,6599 N SPOKANE AVE,60646.0,1140481.50082866,1943104.23792816,41.0,16.0,12.0,41.99997227739843,-87.75855839455966,"(41.99997227739842, -87.75855839455966)",2015-06-04
81981,06/04/2015,Completed,06/05/2015,15-02473197,Sanitation Code Violation,,1240 W DEVON AVE,60660.0,1166729.75697816,1942639.1890139,49.0,24.0,1.0,41.99817206464669,-87.66201054573628,"(41.99817206464669, -87.66201054573628)",2015-06-04
81982,06/04/2015,Completed,06/05/2015,15-02473210,Sanitation Code Violation,,1244 W DEVON AVE,60660.0,1166710.55697816,1942638.6890139,49.0,24.0,1.0,41.99817110567443,-87.66208119014057,"(41.99817110567443, -87.66208119014057)",2015-06-04
81983,06/04/2015,Completed,06/05/2015,15-02474218,Sanitation Code Violation,Other,2600 S WHIPPLE ST,60623.0,1156445.42141073,1886590.48111974,12.0,10.0,30.0,41.84458503971322,-87.70136266876337,"(41.844585039713216, -87.70136266876338)",2015-06-04
81984,06/04/2015,Completed,06/05/2015,15-02475643,Sanitation Code Violation,Garbage in alley,5447 W WRIGHTWOOD AVE,60639.0,1139522.39001386,1916750.29021781,30.0,25.0,19.0,41.92767230801268,-87.76273242005675,"(41.92767230801268, -87.76273242005675)",2015-06-04
81985,06/04/2015,Completed,06/05/2015,15-02476177,Sanitation Code Violation,Construction Site Cleanliness/Fence,1921 W BARRY AVE,60657.0,1162991.22906916,1920599.64521912,32.0,19.0,5.0,41.93777421959607,-87.67638496295069,"(41.937774219596065, -87.67638496295069)",2015-06-04
81986,06/06/2015,Completed,06/08/2015,15-02517385,Sanitation Code Violation,Other,1911 W WOLFRAM ST,60657.0,1163111.42171097,1918941.94008633,32.0,19.0,5.0,41.933222851785146,-87.67598994655317,"(41.93322285178515, -87.67598994655317)",2015-06-06
81987,06/04/2015,Completed,06/05/2015,15-02476385,Sanitation Code Violation,Garbage in yard,2149 W DIVISION ST,60622.0,1161856.79206859,1907964.75302803,2.0,12.0,24.0,41.90312699470946,-87.68090750844094,"(41.90312699470946, -87.68090750844094)",2015-06-04
81988,06/03/2015,Completed,06/05/2015,15-02436903,Sanitation Code Violation,Garbage in alley,2646 N ORCHARD ST,60614.0,1171142.40258283,1917991.29006726,43.0,19.0,7.0,41.93044146829075,-87.6465048403936,"(41.93044146829075, -87.64650484039359)",2015-06-03
81989,06/03/2015,Completed,06/05/2015,15-02441359,Sanitation Code Violation,Other,2401 S LEAVITT ST,60608.0,1162080.31182889,1888039.75938538,25.0,10.0,31.0,41.84844636456375,-87.68064303210524,"(41.84844636456375, -87.68064303210524)",2015-06-03
81990,06/03/2015,Completed,06/05/2015,15-02444308,Sanitation Code Violation,Other,3420 W MEDILL AVE,60647.0,1153227.21428396,1915414.8401156003,35.0,14.0,22.0,41.92374641483535,-87.7124076835722,"(41.92374641483535, -87.71240768357218)",2015-06-03
81991,06/03/2015,Completed,06/05/2015,15-02445328,Sanitation Code Violation,Other,2015 W HADDON AVE,60622.0,1162759.49002702,1907652.01996996,2.0,12.0,24.0,41.902249944806265,-87.67760050204578,"(41.902249944806265, -87.67760050204578)",2015-06-03
81992,06/03/2015,Completed,06/05/2015,15-02445924,Sanitation Code Violation,Garbage in alley,3909 W BELMONT AVE,60618.0,1149967.90442679,1920997.32309336,30.0,25.0,21.0,41.93912936564046,-87.72423799913342,"(41.93912936564046, -87.72423799913342)",2015-06-03
81993,06/03/2015,Completed,06/05/2015,15-02456605,Sanitation Code Violation,Other,2156 W PIERCE AVE,60622.0,1161744.35102788,1910213.51001171,2.0,14.0,24.0,41.90930009894824,-87.6812577351665,"(41.90930009894824, -87.6812577351665)",2015-06-03
81994,06/01/2015,Completed,06/05/2015,15-02385978,Sanitation Code Violation,Other,4745 N MONTICELLO AVE,60625.0,1151198.16016671,1931287.51133385,35.0,17.0,14.0,41.96734231766168,-87.71944554620487,"(41.96734231766168, -87.71944554620487)",2015-06-01
81995,06/01/2015,Completed,06/05/2015,15-02388221,Sanitation Code Violation,Other,31 E 101ST PL,60628.0,1178353.88452566,1837684.58007802,9.0,5.0,49.0,41.70991167527232,-87.62244618969395,"(41.709911675272316, -87.62244618969393)",2015-06-01
81996,06/01/2015,Completed,06/05/2015,15-02388451,Sanitation Code Violation,Other,2110 N MERRIMAC AVE,60639.0,1134401.91002839,1913388.96846927,36.0,25.0,19.0,41.918540409470616,-87.78162796629448,"(41.91854040947062, -87.78162796629448)",2015-06-01
81997,06/01/2015,Completed,06/05/2015,15-02388457,Sanitation Code Violation,Other,2111 N MELVINA AVE,60639.0,1134737.81012106,1913277.44002889,36.0,25.0,19.0,41.91822842574195,-87.7803964610805,"(41.91822842574195, -87.7803964610805)",2015-06-01
81998,06/01/2015,Completed,06/05/2015,15-02388962,Sanitation Code Violation,Other,33 E 101ST PL,60628.0,1178374.38452566,1837685.18007802,9.0,5.0,49.0,41.70991285730349,-87.62237109780517,"(41.70991285730349, -87.62237109780517)",2015-06-01
81999,06/01/2015,Completed,06/05/2015,15-02394788,Sanitation Code Violation,Dumpster not being emptied,4049 W 18TH ST,60623.0,1149591.00422521,1891072.62057242,24.0,10.0,29.0,41.85702024786616,-87.72640126826393,"(41.85702024786616, -87.72640126826394)",2015-06-01
82000,06/01/2015,Completed,06/05/2015,15-02401560,Sanitation Code Violation,Construction Site Cleanliness/Fence,1439 N MOHAWK ST,60610.0,1172395.86148999,1909912.52761775,2.0,18.0,8.0,41.90824531997817,-87.64213798605287,"(41.90824531997817, -87.64213798605287)",2015-06-01
82001,06/01/2015,Completed,06/05/2015,15-02401604,Sanitation Code Violation,Other,11350 S ST LAWRENCE AVE,60628.0,1182269.13489562,1830158.23771862,9.0,5.0,50.0,41.689168802928265,-87.6083400668763,"(41.689168802928265, -87.6083400668763)",2015-06-01
82002,06/01/2015,Completed,06/05/2015,15-02404645,Sanitation Code Violation,Garbage in yard,1814 S FAIRFIELD AVE,60608.0,1158315.61682041,1891116.46523366,24.0,10.0,29.0,41.85696686393923,-87.6943757254528,"(41.85696686393923, -87.6943757254528)",2015-06-01
82003,06/02/2015,Completed - Dup,06/05/2015,15-02413641,Sanitation Code Violation,Garbage in yard,1814 S FAIRFIELD AVE,60608.0,1158315.61682041,1891116.46523366,24.0,10.0,29.0,41.85696686393923,-87.6943757254528,"(41.85696686393923, -87.6943757254528)",2015-06-02
82004,06/02/2015,Completed,06/05/2015,15-02409617,Sanitation Code Violation,Other,10105 S LAFAYETTE AVE,60628.0,1177706.35613139,1837966.25267479,9.0,5.0,49.0,41.71069926869263,-87.62480903857319,"(41.71069926869263, -87.62480903857319)",2015-06-02
82005,06/02/2015,Completed,06/05/2015,15-02411404,Sanitation Code Violation,Garbage in alley,1454 W IRVING PARK RD,60613.0,1165703.85991156,1926652.77001059,47.0,19.0,6.0,41.95432680867474,-87.66624242440872,"(41.95432680867474, -87.66624242440872)",2015-06-02
82006,06/02/2015,Completed,06/05/2015,15-02421746,Sanitation Code Violation,Garbage in alley,3311 W FULLERTON AVE,60647.0,1153633.21991475,1915756.02463186,35.0,14.0,22.0,41.92467457621781,-87.71090675565803,"(41.924674576217804, -87.71090675565803)",2015-06-02
82023,06/06/2015,Completed,06/07/2015,15-02517368,Sanitation Code Violation,Other,7840 W BELMONT AVE,60634.0,1123161.68951851,1920342.72517335,38.0,16.0,17.0,41.93781344739957,-87.82277429470905,"(41.93781344739957, -87.82277429470905)",2015-06-06
82025,06/07/2015,Completed,06/08/2015,15-02548107,Sanitation Code Violation,Other,3306 N CLAREMONT AVE,60618.0,1160122.0700946,1921898.98659259,32.0,19.0,5.0,41.94139954308383,-87.68689365173037,"(41.94139954308383, -87.68689365173036)",2015-06-07
82026,06/07/2015,Completed,06/08/2015,15-02548252,Sanitation Code Violation,Other,2256 W ROSCOE ST,60618.0,1160646.51789012,1922535.76311286,32.0,19.0,5.0,41.943136027171114,-87.68494839471623,"(41.94313602717111, -87.68494839471622)",2015-06-07
82027,06/07/2015,Completed,06/08/2015,15-02549726,Sanitation Code Violation,Garbage in alley,917 W DAKIN ST,60613.0,1169359.55400313,1926419.32269509,46.0,19.0,6.0,41.953607349025404,-87.65281047410495,"(41.953607349025404, -87.65281047410495)",2015-06-07
82028,06/08/2015,Completed,06/08/2015,15-02555656,Sanitation Code Violation,Garbage in alley,2744 N LARAMIE AVE,60639.0,1141240.13830315,1917856.93251029,31.0,25.0,19.0,41.93067750691292,-87.75639291749637,"(41.930677506912915, -87.75639291749637)",2015-06-08
82029,06/08/2015,Completed,06/08/2015,15-02556037,Sanitation Code Violation,Construction Site Cleanliness/Fence,647 W WILSON DR,60640.0,1170846.55572279,1930828.02970917,46.0,19.0,3.0,41.965672444450334,-87.64721438297936,"(41.965672444450334, -87.64721438297936)",2015-06-08
82030,06/08/2015,Completed,06/08/2015,15-02557038,Sanitation Code Violation,Dumpster not being emptied,3351 W HOLLYWOOD AVE,60659.0,1152915.43283065,1937674.70699164,39.0,17.0,13.0,41.984835219693025,-87.71296121237984,"(41.98483521969302, -87.71296121237984)",2015-06-08
82031,06/08/2015,Completed,06/08/2015,15-02558500,Sanitation Code Violation,Garbage in yard,5231 N BERNARD ST,60625.0,1152442.27149734,1934543.47461922,39.0,17.0,13.0,41.976252329575885,-87.71478462298958,"(41.97625232957588, -87.71478462298958)",2015-06-08
82032,06/08/2015,Completed,06/08/2015,15-02560533,Sanitation Code Violation,Other,4639 N MAGNOLIA AVE,60640.0,1167078.48459055,1930942.10720097,46.0,19.0,3.0,41.96606744063506,-87.66106542755816,"(41.966067440635065, -87.66106542755816)",2015-06-08
82033,06/06/2015,Completed,06/08/2015,15-02516378,Sanitation Code Violation,Other,5860 N LACEY AVE,60646.0,1141727.58902501,1938773.47991956,39.0,16.0,12.0,41.98806532667465,-87.75408203606408,"(41.98806532667465, -87.75408203606406)",2015-06-06
82034,06/06/2015,Completed,06/08/2015,15-02517101,Sanitation Code Violation,Other,3038 W JEROME ST,60645.0,1154929.11001626,1949884.69967594,50.0,24.0,2.0,42.01829969565547,-87.70522565371965,"(42.018299695655465, -87.70522565371965)",2015-06-06
82035,06/06/2015,Completed,06/08/2015,15-02529494,Sanitation Code Violation,Other,850 W LELAND AVE,60640.0,1170065.66656599,1931433.01899763,46.0,19.0,3.0,41.96734967583264,-87.65006778999685,"(41.96734967583263, -87.65006778999685)",2015-06-06
82036,06/07/2015,Completed,06/08/2015,15-02533101,Sanitation Code Violation,Other,745 W LAWRENCE DR,60640.0,1170243.773969,1932109.96651169,46.0,19.0,3.0,41.96920333908129,-87.64939304393768,"(41.96920333908129, -87.64939304393768)",2015-06-07
82037,06/07/2015,Completed,06/08/2015,15-02534628,Sanitation Code Violation,Standing water,1350 W FLETCHER ST,60657.0,1167104.47509165,1921039.17268207,32.0,19.0,6.0,41.938892814114794,-87.66125540193029,"(41.9388928141148, -87.66125540193029)",2015-06-07
82038,06/07/2015,Completed,06/08/2015,15-02536940,Sanitation Code Violation,Dog feces in yard,4402 N CLARENDON AVE,60640.0,1170123.40038189,1929448.62978197,46.0,19.0,3.0,41.961903189361294,-87.64991370799221,"(41.96190318936129, -87.64991370799221)",2015-06-07
82039,06/07/2015,Completed,06/08/2015,15-02536941,Sanitation Code Violation,Overflowing carts,922 W MONTROSE AVE,60613.0,1169320.91851834,1929405.5501344,46.0,19.0,3.0,41.96180250253664,-87.65286533095566,"(41.96180250253664, -87.65286533095565)",2015-06-07
82040,06/07/2015,Completed,06/08/2015,15-02537360,Sanitation Code Violation,Other,4544 N NB OUTER LAKE SHORE DR,60640.0,1170956.26070163,1930478.81778678,46.0,19.0,3.0,41.96471178592717,-87.6468213114453,"(41.96471178592717, -87.6468213114453)",2015-06-07
82041,06/07/2015,Completed,06/08/2015,15-02541678,Sanitation Code Violation,Garbage in alley,6115 N FRANCISCO AVE,60659.0,1155904.13390439,1940467.62231194,50.0,24.0,2.0,41.992439181334774,-87.70189330748174,"(41.99243918133477, -87.70189330748175)",2015-06-07
82042,06/07/2015,Completed,06/08/2015,15-02543356,Sanitation Code Violation,Other,3425 N SEMINARY AVE,60657.0,1168337.46227787,1923006.8049104,44.0,19.0,6.0,41.9442654698132,-87.65666680193522,"(41.9442654698132, -87.65666680193522)",2015-06-07
82043,06/07/2015,Completed,06/08/2015,15-02543706,Sanitation Code Violation,Garbage in alley,2740 W ARTHUR AVE,60645.0,1156775.02980452,1943012.33517323,50.0,24.0,2.0,41.999404313488434,-87.6986204732648,"(41.999404313488434, -87.6986204732648)",2015-06-07
82044,06/07/2015,Completed,06/08/2015,15-02545244,Sanitation Code Violation,Garbage in yard,7545 N CLARK ST,60626.0,1162877.84888055,1950045.12012294,49.0,24.0,1.0,42.0185761063204,-87.67597118237707,"(42.018576106320396, -87.67597118237708)",2015-06-07
82045,06/07/2015,Completed,06/08/2015,15-02546540,Sanitation Code Violation,Other,800 W MONTROSE AVE,60613.0,1170124.00038189,1929426.62978197,46.0,19.0,3.0,41.961842807547754,-87.64991214718104,"(41.96184280754775, -87.64991214718103)",2015-06-07
82046,06/04/2015,Completed,06/08/2015,15-02464857,Sanitation Code Violation,Garbage in alley,4139 N KENMORE AVE,60613.0,1168424.40413421,1927770.93628624,46.0,19.0,3.0,41.95733655276891,-87.65620889735062,"(41.95733655276891, -87.65620889735061)",2015-06-04
82047,06/04/2015,Completed,06/08/2015,15-02477114,Sanitation Code Violation,Other,3827 N OB KENNEDY EXPY,60618.0,1149672.57877369,1925312.12827865,45.0,17.0,16.0,41.95097528841677,-87.72521089930979,"(41.95097528841677, -87.72521089930979)",2015-06-04
82048,06/05/2015,Completed,06/08/2015,15-02489237,Sanitation Code Violation,Other,6316 N MOZART ST,60659.0,1156191.23922395,1941782.32777188,50.0,24.0,2.0,41.99604097641846,-87.70080151473628,"(41.99604097641846, -87.7008015147363)",2015-06-05
82049,06/05/2015,Completed,06/08/2015,15-02497664,Sanitation Code Violation,Dog feces in yard,2938 W 39TH PL,60632.0,1157411.23047819,1878301.70948948,12.0,9.0,58.0,41.821820105186994,-87.69804324588475,"(41.821820105186994, -87.69804324588475)",2015-06-05
82050,06/05/2015,Completed,06/08/2015,15-02498773,Sanitation Code Violation,Garbage in yard,2730 N ALBANY AVE,60647.0,1155239.75837484,1917988.81197863,32.0,14.0,22.0,41.93076936654358,-87.70494347990244,"(41.93076936654358, -87.70494347990243)",2015-06-05
82051,06/05/2015,Completed,06/08/2015,15-02500281,Sanitation Code Violation,Dumpster not being emptied,2601 W FITCH AVE,60645.0,1157725.75710644,1947344.13158518,50.0,24.0,2.0,42.01127152323453,-87.69500418101515,"(42.011271523234534, -87.69500418101514)",2015-06-05
82052,06/03/2015,Completed - Dup,06/08/2015,15-02448369,Sanitation Code Violation,Other,5525 N MILWAUKEE AVE,60630.0,1136463.40401679,1936519.99359916,45.0,16.0,11.0,41.98197763813837,-87.77349860607504,"(41.98197763813837, -87.77349860607504)",2015-06-03
82053,06/03/2015,Completed - Dup,06/08/2015,15-02448382,Sanitation Code Violation,Other,5527 N MILWAUKEE AVE,60630.0,1136457.10401679,1936529.19359916,45.0,16.0,11.0,41.98200299671678,-87.7735215550108,"(41.98200299671678, -87.77352155501079)",2015-06-03
82054,06/03/2015,Completed,06/08/2015,15-02445897,Sanitation Code Violation,Other,4200 W KAMERLING AVE,60651.0,1148133.42482111,1908657.04982535,26.0,25.0,23.0,41.90530206836553,-87.73129866887342,"(41.905302068365536, -87.73129866887342)",2015-06-03
82055,06/03/2015,Completed,06/08/2015,15-02448310,Sanitation Code Violation,Other,5521 N MILWAUKEE AVE,60630.0,1136476.10401679,1936501.59359916,45.0,16.0,11.0,41.98192691917411,-87.7734523404793,"(41.9819269191741, -87.7734523404793)",2015-06-03
82056,06/01/2015,Completed,06/08/2015,15-02389938,Sanitation Code Violation,Other,5016 W PENSACOLA AVE,60641.0,1142222.27812626,1928457.63398841,45.0,16.0,15.0,41.95974862978561,-87.75251975457451,"(41.95974862978561, -87.7525197545745)",2015-06-01
82057,06/01/2015,Completed,06/08/2015,15-02401022,Sanitation Code Violation,Overflowing carts,1045 W BARRY AVE,60657.0,1168673.93447724,1920750.75031161,44.0,19.0,6.0,41.93806746108803,-87.65549565552509,"(41.93806746108803, -87.6554956555251)",2015-06-01
82058,06/02/2015,Completed,06/08/2015,15-02425703,Sanitation Code Violation,Other,5628 N MAJOR AVE,60646.0,1137205.54690877,1937060.00699804,45.0,16.0,11.0,41.98344613732761,-87.7707561168709,"(41.98344613732761, -87.7707561168709)",2015-06-02
82059,06/02/2015,Completed,06/08/2015,15-02426338,Sanitation Code Violation,Other,5736 W GUNNISON ST,60630.0,1137132.57213029,1931663.3496312,45.0,16.0,11.0,41.96863855268248,-87.77115476440619,"(41.96863855268248, -87.77115476440619)",2015-06-02
82099,06/09/2015,Completed,06/09/2015,15-02583597,Sanitation Code Violation,Dumpster not being emptied,6314 N MOZART ST,60659.0,1156191.63922395,1941769.12777188,50.0,24.0,2.0,41.996004746947406,-87.70080040199534,"(41.99600474694741, -87.70080040199535)",2015-06-09
82100,06/09/2015,Completed,06/09/2015,15-02585224,Sanitation Code Violation,Dumpster not being emptied,1450 W BARRY AVE,60657.0,1166427.05618824,1920687.05192372,32.0,19.0,6.0,41.937941123566674,-87.6637551849698,"(41.93794112356667, -87.66375518496982)",2015-06-09
82101,06/09/2015,Completed,06/09/2015,15-02586515,Sanitation Code Violation,Other,917 W DAKIN ST,60613.0,1169359.55400313,1926419.32269509,46.0,19.0,6.0,41.953607349025404,-87.65281047410495,"(41.953607349025404, -87.65281047410495)",2015-06-09
82102,06/09/2015,Completed,06/09/2015,15-02587314,Sanitation Code Violation,Garbage in alley,421 W NORTH AVE,60610.0,1173128.74031182,1910959.63468114,2.0,18.0,8.0,41.911102397096755,-87.63941466540163,"(41.91110239709676, -87.63941466540163)",2015-06-09
82103,06/08/2015,Completed,06/09/2015,15-02554250,Sanitation Code Violation,Other,5141 S KEDZIE AVE,60632.0,1155915.35941657,1870362.38219362,14.0,9.0,63.0,41.80006375570039,-87.70374431971615,"(41.80006375570039, -87.70374431971615)",2015-06-08
82104,06/08/2015,Completed,06/09/2015,15-02555171,Sanitation Code Violation,Other,6117 N MEADE AVE,60646.0,1134575.67998532,1940279.73661756,39.0,16.0,10.0,41.99232834486568,-87.78035198502045,"(41.99232834486568, -87.78035198502045)",2015-06-08
82105,06/08/2015,Completed,06/09/2015,15-02555172,Sanitation Code Violation,Other,4905 N WHIPPLE ST,60625.0,1155154.63987481,1932428.03347113,33.0,17.0,14.0,41.970393265029955,-87.70486718450563,"(41.97039326502995, -87.70486718450564)",2015-06-08
82106,06/08/2015,Completed,06/09/2015,15-02556561,Sanitation Code Violation,Other,13328 S BRANDON AVE,60633.0,1199438.92290502,1817187.47836724,10.0,4.0,55.0,41.6531619354153,-87.54591694136539,"(41.6531619354153, -87.54591694136539)",2015-06-08
82107,06/08/2015,Completed,06/09/2015,15-02557949,Sanitation Code Violation,Overflowing carts,1312 W NORTH AVE,60642.0,1167279.33990066,1910776.86162588,2.0,14.0,24.0,41.91072870511075,-87.66090849882801,"(41.91072870511075, -87.66090849882801)",2015-06-08
82108,06/08/2015,Completed,06/09/2015,15-02558625,Sanitation Code Violation,Other,8500 S ESCANABA AVE,60617.0,1196961.34730575,1849170.48581092,10.0,4.0,46.0,41.74098823420314,-87.55392307305763,"(41.74098823420314, -87.55392307305762)",2015-06-08
82109,06/08/2015,Completed,06/09/2015,15-02559336,Sanitation Code Violation,Garbage in yard,4301 S CHRISTIANA AVE,60632.0,1154731.50010954,1875934.98650924,14.0,8.0,58.0,41.81537945667388,-87.70793720553962,"(41.81537945667388, -87.70793720553962)",2015-06-08
82110,06/08/2015,Completed,06/09/2015,15-02560222,Sanitation Code Violation,Overflowing carts,3159 N SEMINARY AVE,60657.0,1168394.41056799,1921138.7515291001,44.0,19.0,6.0,41.939138214537905,-87.65651169901062,"(41.939138214537905, -87.65651169901062)",2015-06-08
82111,06/08/2015,Completed,06/09/2015,15-02560241,Sanitation Code Violation,Other,1059 W BELMONT AVE,60657.0,1168582.73900601,1921412.20859269,44.0,19.0,6.0,41.939884510804795,-87.65581160248794,"(41.939884510804795, -87.65581160248793)",2015-06-08
82112,06/08/2015,Completed,06/09/2015,15-02561386,Sanitation Code Violation,Other,1538 W OAKDALE AVE,60657.0,1165549.95581603,1919665.86610057,32.0,19.0,6.0,41.93515768920725,-87.66700786123094,"(41.93515768920725, -87.66700786123096)",2015-06-08
82113,06/08/2015,Completed,06/09/2015,15-02561460,Sanitation Code Violation,Other,2601 N WESTERN AVE,60647.0,1159917.10801649,1917260.29463179,32.0,14.0,22.0,41.92867491017153,-87.68777534830645,"(41.928674910171544, -87.68777534830646)",2015-06-08
82114,06/08/2015,Completed,06/09/2015,15-02561803,Sanitation Code Violation,Overflowing carts,9805 S CALHOUN AVE,60617.0,1194737.50392921,1840437.95689743,10.0,4.0,51.0,41.71708037749574,-87.56235747248427,"(41.71708037749574, -87.56235747248427)",2015-06-08
82115,06/08/2015,Completed,06/09/2015,15-02562206,Sanitation Code Violation,Garbage in alley,2453 W DIVERSEY AVE,60647.0,1159429.00008585,1918524.73719742,32.0,14.0,22.0,41.93215469712987,-87.68953409470245,"(41.932154697129874, -87.68953409470245)",2015-06-08
82116,06/08/2015,Completed,06/09/2015,15-02563552,Sanitation Code Violation,Dumpster not being emptied,2628 N WAYNE AVE,60614.0,1166861.89972642,1917571.0887278998,32.0,19.0,7.0,41.929381429046565,-87.66224669520426,"(41.92938142904656, -87.66224669520425)",2015-06-08
82117,06/08/2015,Completed,06/09/2015,15-02566363,Sanitation Code Violation,Garbage in yard,1353 W CATALPA AVE,60640.0,1166213.75759093,1936645.3056341,48.0,20.0,77.0,41.98173578104557,-87.66408103461771,"(41.98173578104557, -87.66408103461771)",2015-06-08
82118,06/08/2015,Completed,06/09/2015,15-02566551,Sanitation Code Violation,Other,1856 N OAKLEY AVE,60647.0,1160724.74779372,1912459.07737679,32.0,14.0,22.0,41.915483311509135,-87.68494094138033,"(41.91548331150913, -87.68494094138033)",2015-06-08
82119,06/08/2015,Completed,06/09/2015,15-02567659,Sanitation Code Violation,Garbage in yard,3846 W 65TH ST,60629.0,1151847.24676652,1861225.06677716,23.0,8.0,65.0,41.77507037070987,-87.71890290529394,"(41.77507037070987, -87.71890290529393)",2015-06-08
82120,06/08/2015,Completed,06/09/2015,15-02568209,Sanitation Code Violation,,3820 W GEORGE ST,60618.0,1150327.38261103,1919009.38019853,30.0,25.0,21.0,41.93366726930137,-87.7229688292273,"(41.93366726930137, -87.7229688292273)",2015-06-08
82121,06/08/2015,Completed,06/09/2015,15-02568524,Sanitation Code Violation,Other,817 S WELLS ST,60607.0,1174836.74327147,1896700.59013255,25.0,1.0,32.0,41.87193670268944,-87.63356731107946,"(41.87193670268944, -87.63356731107947)",2015-06-08
82122,06/08/2015,Completed,06/09/2015,15-02569844,Sanitation Code Violation,Garbage in yard,1211 W 15TH ST,60608.0,1168506.32202583,1892883.19009182,25.0,12.0,28.0,41.86160071312953,-87.6569191847649,"(41.86160071312953, -87.6569191847649)",2015-06-08
82123,06/08/2015,Completed,06/09/2015,15-02570888,Sanitation Code Violation,Other,10948 S AVENUE G,60617.0,1203188.38621376,1832975.45720433,10.0,4.0,52.0,41.696390850852794,-87.53166079674361,"(41.6963908508528, -87.53166079674361)",2015-06-08
82124,06/08/2015,Completed,06/09/2015,15-02571425,Sanitation Code Violation,Dumpster not being emptied,7650 N SHERIDAN RD,60626.0,1165473.89972355,1950751.56071933,49.0,24.0,1.0,42.02045948054722,-87.66639791069285,"(42.020459480547224, -87.66639791069284)",2015-06-08
82125,06/08/2015,Completed,06/09/2015,15-02571437,Sanitation Code Violation,Garbage in alley,7648 N SHERIDAN RD,60626.0,1165475.99972355,1950741.76071933,49.0,24.0,1.0,42.0204325443248,-87.66639046385265,"(42.0204325443248, -87.66639046385265)",2015-06-08
82126,06/08/2015,Completed,06/09/2015,15-02572270,Sanitation Code Violation,Garbage in alley,3949 N GREENVIEW AVE,60613.0,1165368.34300682,1926308.66102417,47.0,19.0,6.0,41.953389718194536,-87.66748565536209,"(41.95338971819454, -87.66748565536209)",2015-06-08
82127,06/08/2015,Completed,06/09/2015,15-02573208,Sanitation Code Violation,Dumpster not being emptied,5201 W EDDY ST,60641.0,1141063.60871099,1923118.51388971,30.0,16.0,15.0,41.94511906483642,-87.75691162482752,"(41.945119064836426, -87.75691162482752)",2015-06-08
82128,06/08/2015,Completed,06/09/2015,15-02574520,Sanitation Code Violation,Dumpster not being emptied,3119 W ALBION AVE,60645.0,1154272.44989779,1943590.43233113,50.0,24.0,2.0,42.00104117315347,-87.70781129656038,"(42.00104117315347, -87.70781129656037)",2015-06-08
82129,06/06/2015,Completed,06/09/2015,15-02511933,Sanitation Code Violation,Other,5016 S KENNETH AVE,60632.0,1147542.35989368,1870992.27453041,14.0,8.0,57.0,41.80195646443086,-87.73443484897713,"(41.80195646443086, -87.73443484897712)",2015-06-06
82130,06/06/2015,Completed,06/09/2015,15-02514918,Sanitation Code Violation,Garbage in yard,7150 S EUCLID AVE,60649.0,1190271.69836853,1858245.24951465,5.0,3.0,43.0,41.76605382901021,-87.578141139467,"(41.76605382901021, -87.57814113946698)",2015-06-06
82131,06/06/2015,Completed,06/09/2015,15-02522022,Sanitation Code Violation,Construction Site Cleanliness/Fence,2830 W BERWYN AVE,60625.0,1156535.0982174,1935078.90029741,40.0,20.0,4.0,41.977639483187424,-87.69971904115575,"(41.97763948318742, -87.69971904115573)",2015-06-06
82132,06/07/2015,Completed,06/09/2015,15-02535069,Sanitation Code Violation,Standing water,3520 N SACRAMENTO AVE,60618.0,1155759.34908925,1923236.16323419,33.0,17.0,21.0,41.94515800871455,-87.7028922796952,"(41.94515800871455, -87.7028922796952)",2015-06-07
82133,06/07/2015,Completed,06/09/2015,15-02537394,Sanitation Code Violation,Construction Site Cleanliness/Fence,3922 N BELL AVE,60618.0,1160665.26051326,1926005.07678395,47.0,19.0,5.0,41.952655633215244,-87.68478301873957,"(41.95265563321524, -87.68478301873957)",2015-06-07
82134,06/07/2015,Completed,06/09/2015,15-02542954,Sanitation Code Violation,Garbage in alley,2337 S LAWNDALE AVE,60623.0,1152073.58150707,1888216.56001531,22.0,10.0,30.0,41.849134358546955,-87.71736395497312,"(41.84913435854695, -87.71736395497312)",2015-06-07
82135,06/07/2015,Completed,06/09/2015,15-02546526,Sanitation Code Violation,Overflowing carts,5728 S ARCHER AVE,60638.0,1141850.33881127,1869073.98913299,14.0,8.0,56.0,41.79679930967327,-87.75535742551611,"(41.79679930967327, -87.75535742551611)",2015-06-07
82136,06/07/2015,Completed,06/09/2015,15-02547618,Sanitation Code Violation,Garbage in alley,4718 S KILDARE AVE,60632.0,1148488.31007564,1872999.53548621,14.0,8.0,57.0,41.807446550437774,-87.73091402679384,"(41.807446550437774, -87.73091402679384)",2015-06-07
82137,06/07/2015,Completed,06/09/2015,15-02549030,Sanitation Code Violation,Other,240 E WACKER DR,60601.0,1178038.7053,1902620.5997,42.0,1.0,32.0,41.88810929617859,-87.62163148705378,"(41.88810929617859, -87.62163148705378)",2015-06-07
82138,06/07/2015,Completed,06/09/2015,15-02550225,Sanitation Code Violation,Garbage in alley,4341 W 47TH ST,60632.0,1148062.07032568,1873110.18521543,14.0,8.0,57.0,41.807758377761395,-87.73247453621326,"(41.807758377761395, -87.73247453621327)",2015-06-07
82139,06/07/2015,Completed,06/09/2015,15-02550465,Sanitation Code Violation,Graffiti Commercial Vehicle,5212 S ARCHER AVE,60632.0,1147381.33998234,1870244.55982066,14.0,8.0,57.0,41.79990769743865,-87.73504446869511,"(41.79990769743865, -87.73504446869511)",2015-06-07
82140,06/04/2015,Completed,06/09/2015,15-02467673,Sanitation Code Violation,Dog feces in yard,1821 W 17TH ST,60608.0,1164504.08779877,1891770.01799478,25.0,12.0,31.0,41.85863165420595,-87.6716421228052,"(41.85863165420595, -87.6716421228052)",2015-06-04
82141,06/04/2015,Completed,06/09/2015,15-02468349,Sanitation Code Violation,Other,5142 S LINDER AVE,60638.0,1140564.93431731,1869982.48778304,14.0,8.0,56.0,41.79931600171841,-87.76004900881306,"(41.79931600171841, -87.76004900881306)",2015-06-04
82142,06/04/2015,Completed,06/09/2015,15-02469082,Sanitation Code Violation,Construction Site Cleanliness/Fence,6309 W 52ND ST,60638.0,1135158.06452016,1869428.99321649,14.0,8.0,56.0,41.797894357859,-87.77989084051904,"(41.797894357859, -87.77989084051904)",2015-06-04
82143,06/04/2015,Completed,06/09/2015,15-02469377,Sanitation Code Violation,Other,2551 E 79TH ST,60649.0,1194652.4995731001,1853083.7030727002,7.0,4.0,46.0,41.75178349066609,-87.56225385690284,"(41.751783490666085, -87.56225385690284)",2015-06-04
82144,06/04/2015,Completed,06/09/2015,15-02470240,Sanitation Code Violation,Other,5556 S HOMAN AVE,60629.0,1154658.28576686,1867565.53628425,14.0,8.0,63.0,41.792413985841264,-87.70842897982187,"(41.792413985841264, -87.70842897982187)",2015-06-04
82145,06/04/2015,Completed,06/09/2015,15-02471862,Sanitation Code Violation,Other,4537 S SPRINGFIELD AVE,60632.0,1151114.82538696,1874273.62357784,14.0,8.0,57.0,41.81089190627014,-87.72124732185316,"(41.81089190627015, -87.72124732185316)",2015-06-04
82146,06/04/2015,Completed,06/09/2015,15-02472537,Sanitation Code Violation,Other,3249 S HAMLIN AVE,60623.0,1151555.80993113,1882792.60187248,22.0,10.0,30.0,41.83426050774467,-87.71940653960999,"(41.83426050774467, -87.71940653960999)",2015-06-04
82147,06/04/2015,Completed,06/09/2015,15-02472650,Sanitation Code Violation,Construction Site Cleanliness/Fence,5422 S LAWNDALE AVE,60632.0,1152628.88182294,1868401.84979963,23.0,8.0,62.0,41.79474919259454,-87.7158485623811,"(41.79474919259454, -87.7158485623811)",2015-06-04
82148,06/04/2015,Completed,06/09/2015,15-02473464,Sanitation Code Violation,,4916 N TRIPP AVE,60630.0,1147162.53579307,1932332.76719554,39.0,17.0,14.0,41.970288962995575,-87.7342573387541,"(41.97028896299557, -87.73425733875409)",2015-06-04
82149,06/04/2015,Completed,06/09/2015,15-02473519,Sanitation Code Violation,Garbage in yard,4918 N TRIPP AVE,60630.0,1147162.13579307,1932346.16719554,39.0,17.0,14.0,41.97032574123906,-87.73425846504698,"(41.97032574123906, -87.73425846504699)",2015-06-04
82150,06/04/2015,Completed,06/09/2015,15-02474595,Sanitation Code Violation,Other,5525 S HOMAN AVE,60629.0,1154652.51219319,1867772.76088535,14.0,8.0,63.0,41.79298275518836,-87.70844462761734,"(41.79298275518836, -87.70844462761735)",2015-06-04
82151,06/04/2015,Completed,06/09/2015,15-02474765,Sanitation Code Violation,Other,8600 S SAGINAW AVE,60617.0,1195319.4059765,1848463.86941372,7.0,4.0,46.0,41.739089871064465,-87.55996215912356,"(41.73908987106447, -87.55996215912356)",2015-06-04
82152,06/04/2015,Completed,06/09/2015,15-02477655,Sanitation Code Violation,Other,5416 W CHICAGO AVE,60651.0,1140004.26450705,1904805.33061858,37.0,15.0,25.0,41.8948851670133,-87.76125445499491,"(41.8948851670133, -87.7612544549949)",2015-06-04
82153,06/04/2015,Completed,06/09/2015,15-02481125,Sanitation Code Violation,Other,4906 S KEATING AVE,60632.0,1145520.0504684,1871678.78292571,14.0,8.0,56.0,41.80387877835094,-87.7418342532589,"(41.80387877835094, -87.74183425325889)",2015-06-04
82154,06/05/2015,Completed - Dup,06/09/2015,15-02492507,Sanitation Code Violation,Other,3609 W 55TH PL,60629.0,1153205.05479139,1867559.08997983,23.0,8.0,62.0,41.79242515989071,-87.71375799288522,"(41.79242515989071, -87.71375799288522)",2015-06-05
82155,06/05/2015,Completed,06/09/2015,15-02488487,Sanitation Code Violation,Other,3250 N CENTRAL PARK AVE,60618.0,1151828.33939609,1921042.26557212,30.0,17.0,21.0,41.93921621432524,-87.7173991723488,"(41.939216214325235, -87.7173991723488)",2015-06-05
82156,06/05/2015,Completed,06/09/2015,15-02489233,Sanitation Code Violation,Other,3609 W SCHOOL ST,60618.0,1151704.6616709998,1921703.49000873,30.0,17.0,21.0,41.94103310356754,-87.71783627558584,"(41.94103310356754, -87.71783627558584)",2015-06-05
82157,06/05/2015,Completed,06/09/2015,15-02492365,Sanitation Code Violation,Construction Site Cleanliness/Fence,3609 W 55TH PL,60629.0,1153205.05479139,1867559.08997983,23.0,8.0,62.0,41.79242515989071,-87.71375799288522,"(41.79242515989071, -87.71375799288522)",2015-06-05
82158,06/05/2015,Completed,06/09/2015,15-02492991,Sanitation Code Violation,Other,9854 S BENSLEY AVE,60617.0,1194453.94490565,1840103.47750745,10.0,4.0,51.0,41.71616949721931,-87.56340696009026,"(41.71616949721931, -87.56340696009025)",2015-06-05
82159,06/05/2015,Completed,06/09/2015,15-02496495,Sanitation Code Violation,Garbage in yard,5250 N WESTERN AVE,60625.0,1159398.19588731,1934882.03477637,40.0,20.0,4.0,41.97704067976519,-87.68919548549714,"(41.97704067976519, -87.68919548549712)",2015-06-05
82160,06/05/2015,Completed,06/09/2015,15-02499222,Sanitation Code Violation,Other,303 W 24TH ST,60616.0,1174572.83178156,1888382.95201154,25.0,9.0,34.0,41.84911841482581,-87.63478469087109,"(41.84911841482581, -87.63478469087109)",2015-06-05
82161,06/03/2015,Completed - Dup,06/09/2015,15-02456451,Sanitation Code Violation,Other,5742 W EDDY ST,60634.0,1137451.16091148,1923023.84499745,36.0,16.0,15.0,41.944925178532365,-87.77019206363768,"(41.944925178532365, -87.77019206363767)",2015-06-03
82162,06/03/2015,Completed,06/09/2015,15-02440134,Sanitation Code Violation,Other,4570 S ARCHER AVE,60632.0,1154138.38251963,1874136.77381948,14.0,8.0,58.0,41.81045674235371,-87.71016071304882,"(41.81045674235371, -87.71016071304882)",2015-06-03
82163,06/03/2015,Completed,06/09/2015,15-02447003,Sanitation Code Violation,Other,5015 S KARLOV AVE,60632.0,1149879.66167331,1871003.80621903,14.0,8.0,57.0,41.80194309960485,-87.72586261710697,"(41.801943099604856, -87.72586261710697)",2015-06-03
82164,06/03/2015,Completed,06/09/2015,15-02451304,Sanitation Code Violation,Other,4859 N KILPATRICK AVE,60630.0,1144385.21660488,1931977.47589122,39.0,17.0,14.0,41.96936685332162,-87.7444787895892,"(41.969366853321624, -87.74447878958918)",2015-06-03
82165,06/03/2015,Completed,06/09/2015,15-02454762,Sanitation Code Violation,Other,7716 S SOUTH SHORE DR,60649.0,1197105.38958565,1854927.76937207,7.0,4.0,43.0,41.75678306455252,-87.55320406995281,"(41.75678306455252, -87.55320406995281)",2015-06-03
82166,06/03/2015,Completed,06/09/2015,15-02458869,Sanitation Code Violation,Dumpster not being emptied,3259 W MONTROSE AVE,60618.0,1153793.28756666,1929056.28871205,33.0,17.0,16.0,41.961168282614274,-87.70996318913157,"(41.96116828261427, -87.70996318913156)",2015-06-03
82167,06/04/2015,Completed,06/09/2015,15-02465669,Sanitation Code Violation,Dumpster not being emptied,6820 S MERRILL AVE,60649.0,1191719.4926200002,1860170.76549821,5.0,3.0,43.0,41.771302588919156,-87.5727721515081,"(41.77130258891916, -87.57277215150809)",2015-06-04
82168,06/04/2015,Completed,06/09/2015,15-02467114,Sanitation Code Violation,Other,5200 S MOBILE AVE,60638.0,1135254.56452016,1869432.19321649,14.0,8.0,56.0,41.79790143375049,-87.77953687530814,"(41.79790143375049, -87.77953687530814)",2015-06-04
82169,06/04/2015,Completed,06/09/2015,15-02467642,Sanitation Code Violation,Other,3915 N KIMBALL AVE,60618.0,1153029.81977115,1925823.49541735,33.0,17.0,16.0,41.952312485148866,-87.71285617519153,"(41.95231248514887, -87.71285617519153)",2015-06-04
82170,06/02/2015,Completed,06/09/2015,15-02418001,Sanitation Code Violation,Overflowing carts,7701 S ESSEX AVE,60649.0,1194198.16770487,1854387.73200882,7.0,4.0,43.0,41.755373009782524,-87.56387600178759,"(41.75537300978252, -87.5638760017876)",2015-06-02
82171,06/02/2015,Completed,06/09/2015,15-02418009,Sanitation Code Violation,Other,7739 S ESSEX AVE,60649.0,1194204.06770487,1854134.13200882,7.0,4.0,43.0,41.75467696684612,-87.56386269250784,"(41.75467696684612, -87.56386269250784)",2015-06-02
82172,06/02/2015,Completed,06/09/2015,15-02418017,Sanitation Code Violation,Other,7712 S ESSEX AVE,60649.0,1194199.86770487,1854314.33200882,7.0,4.0,43.0,41.75517155275667,-87.56387217766991,"(41.75517155275667, -87.5638721776699)",2015-06-02
82173,06/02/2015,Completed,06/09/2015,15-02418019,Sanitation Code Violation,Other,7718 S ESSEX AVE,60649.0,1194200.76770487,1854274.33200882,7.0,4.0,43.0,41.75506176755728,-87.56387019054674,"(41.75506176755728, -87.56387019054675)",2015-06-02
82174,06/02/2015,Completed,06/09/2015,15-02418022,Sanitation Code Violation,Other,7736 S ESSEX AVE,60649.0,1194203.56770487,1854154.13200882,7.0,4.0,43.0,41.75473186067684,-87.56386386929312,"(41.75473186067684, -87.56386386929313)",2015-06-02
82175,06/02/2015,Completed,06/09/2015,15-02418029,Sanitation Code Violation,Other,7746 S ESSEX AVE,60649.0,1194205.16770487,1854087.43200882,7.0,4.0,43.0,41.75454879140602,-87.56386019208121,"(41.75454879140602, -87.5638601920812)",2015-06-02
82178,06/01/2015,Completed,06/09/2015,15-02392395,Sanitation Code Violation,Other,8208 S MANISTEE AVE,60617.0,1195927.1877918001,1851077.1001855,7.0,4.0,46.0,41.74624577518664,-87.5576491028333,"(41.746245775186644, -87.55764910283328)",2015-06-01
82179,06/01/2015,Completed,06/09/2015,15-02401615,Sanitation Code Violation,Other,5742 W EDDY ST,60634.0,1137451.16091148,1923023.84499745,36.0,16.0,15.0,41.944925178532365,-87.77019206363768,"(41.944925178532365, -87.77019206363767)",2015-06-01
82218,06/10/2015,Completed,06/10/2015,15-02603823,Sanitation Code Violation,Construction Site Cleanliness/Fence,3710 S CALIFORNIA AVE,60632.0,1158309.21948851,1879879.07241114,12.0,9.0,58.0,41.82613031415001,-87.69470590807249,"(41.82613031415001, -87.69470590807249)",2015-06-10
82219,06/10/2015,Completed,06/10/2015,15-02606282,Sanitation Code Violation,Dumpster not being emptied,1 E WACKER DR,60601.0,1176315.30549814,1902134.20588098,42.0,1.0,32.0,41.886813654150075,-87.6279750042498,"(41.88681365415008, -87.6279750042498)",2015-06-10
82220,06/10/2015,Completed,06/10/2015,15-02609010,Sanitation Code Violation,Other,5255 W FLETCHER ST,60641.0,1140782.09260193,1920438.87012267,30.0,25.0,19.0,41.937771050664956,-87.75801248718264,"(41.93777105066495, -87.75801248718264)",2015-06-10
82221,06/10/2015,Completed,06/10/2015,15-02612482,Sanitation Code Violation,Dog feces in yard,6251 S MASON AVE,60638.0,1137817.02980461,1862479.47503377,13.0,8.0,64.0,41.77877625817679,-87.77030665425991,"(41.77877625817679, -87.77030665425991)",2015-06-10
82222,06/09/2015,Completed - Dup,06/10/2015,15-02597979,Sanitation Code Violation,Other,1725 W 18TH PL,60608.0,1165103.25400413,1891119.42262994,25.0,12.0,31.0,41.85683366848349,-87.66946126231163,"(41.85683366848349, -87.66946126231163)",2015-06-09
82223,06/09/2015,Completed,06/10/2015,15-02584381,Sanitation Code Violation,Garbage in yard,4722 N TALMAN AVE,60625.0,1157852.76992019,1931263.27328558,40.0,19.0,4.0,41.967142361297114,-87.69497787596605,"(41.96714236129711, -87.69497787596605)",2015-06-09
82224,06/09/2015,Completed,06/10/2015,15-02585126,Sanitation Code Violation,Garbage in alley,732 W GRACE ST,60613.0,1170559.57078693,1925660.29482018,46.0,19.0,6.0,41.95149831755968,-87.64842142506944,"(41.95149831755969, -87.64842142506946)",2015-06-09
82225,06/09/2015,Completed,06/10/2015,15-02586370,Sanitation Code Violation,Other,3437 N OAK PARK AVE,60634.0,1130471.56190955,1922094.36413368,38.0,16.0,17.0,41.94249754144939,-87.79586818143423,"(41.94249754144939, -87.79586818143424)",2015-06-09
82226,06/09/2015,Completed,06/10/2015,15-02586382,Sanitation Code Violation,Dumpster not being emptied,3239 N LINDER AVE,60641.0,1139126.07010233,1921108.80798849,30.0,16.0,15.0,41.939639764040564,-87.7640824204236,"(41.93963976404056, -87.7640824204236)",2015-06-09
82227,06/09/2015,Completed,06/10/2015,15-02586396,Sanitation Code Violation,Garbage in alley,3249 N LINDER AVE,60641.0,1139124.47010233,1921157.00798849,30.0,16.0,15.0,41.9397720588896,-87.76408712462326,"(41.9397720588896, -87.76408712462326)",2015-06-09
82228,06/09/2015,Completed,06/10/2015,15-02586730,Sanitation Code Violation,Other,3409 N RIDGEWAY AVE,60618.0,1150789.04959553,1922406.44309339,30.0,17.0,21.0,41.94298005342436,-87.72118306676649,"(41.94298005342435, -87.7211830667665)",2015-06-09
82229,06/09/2015,Completed,06/10/2015,15-02588367,Sanitation Code Violation,Other,3606 N PAGE AVE,60634.0,1121767.35006949,1922992.06742687,38.0,16.0,17.0,41.94510625840217,-87.82784146841347,"(41.94510625840217, -87.82784146841347)",2015-06-09
82230,06/09/2015,Completed,06/10/2015,15-02589801,Sanitation Code Violation,Other,5229 S FRANCISCO AVE,60632.0,1157928.34961875,1869838.3258128003,14.0,9.0,63.0,41.79858497765233,-87.69637628276048,"(41.798584977652325, -87.69637628276048)",2015-06-09
82231,06/09/2015,Completed,06/10/2015,15-02592435,Sanitation Code Violation,Garbage in alley,1852 S PAULINA ST,60608.0,1165332.94006834,1891025.64599507,25.0,12.0,31.0,41.8565714604415,-87.66862085532003,"(41.8565714604415, -87.66862085532003)",2015-06-09
82232,06/09/2015,Completed,06/10/2015,15-02593411,Sanitation Code Violation,Garbage in alley,1725 W 18TH PL,60608.0,1165103.25400413,1891119.42262994,25.0,12.0,31.0,41.85683366848349,-87.66946126231163,"(41.85683366848349, -87.66946126231163)",2015-06-09
82233,06/09/2015,Completed,06/10/2015,15-02593506,Sanitation Code Violation,Garbage in alley,1726 W 19TH ST,60608.0,1165105.08899167,1890787.13190288,25.0,12.0,31.0,41.85592179301947,-87.66946395723852,"(41.85592179301947, -87.66946395723852)",2015-06-09
82234,06/09/2015,Completed,06/10/2015,15-02594707,Sanitation Code Violation,Overflowing carts,6447 N WINCHESTER AVE,60626.0,1162115.57996612,1943060.58001188,50.0,24.0,2.0,41.99942638641138,-87.67897266090407,"(41.999426386411386, -87.67897266090407)",2015-06-09
82235,06/09/2015,Completed,06/10/2015,15-02594746,Sanitation Code Violation,,5411 N WAYNE AVE,60640.0,1166332.14790111,1936056.85006936,48.0,20.0,77.0,41.98011850236749,-87.66366255049795,"(41.98011850236749, -87.66366255049796)",2015-06-09
82236,06/09/2015,Completed,06/10/2015,15-02597355,Sanitation Code Violation,Construction Site Cleanliness/Fence,3738 S WASHTENAW AVE,60632.0,1158983.85450239,1879651.95756828,12.0,9.0,58.0,41.825493295916544,-87.69223702297661,"(41.82549329591655, -87.69223702297661)",2015-06-09
82237,06/09/2015,Completed,06/10/2015,15-02599606,Sanitation Code Violation,Other,2790 W SCHUBERT AVE,60647.0,1157289.93099118,1917824.45997052,32.0,14.0,22.0,41.930276893260704,-87.69741399068684,"(41.9302768932607, -87.69741399068684)",2015-06-09
82238,06/08/2015,Completed,06/10/2015,15-02559628,Sanitation Code Violation,Garbage in alley,4019 N MOBILE AVE,60634.0,1133639.13878019,1926127.59930031,38.0,16.0,15.0,41.95351007999543,-87.78413067337482,"(41.953510079995425, -87.78413067337483)",2015-06-08
82239,06/08/2015,Completed,06/10/2015,15-02560481,Sanitation Code Violation,Standing water,4014 S OAKENWALD AVE,60653.0,1183882.67997145,1878776.79997863,4.0,2.0,36.0,41.822545640602605,-87.60091766677412,"(41.82254564060261, -87.60091766677412)",2015-06-08
82240,06/08/2015,Completed,06/10/2015,15-02560535,Sanitation Code Violation,Standing water,963 E 40TH ST,60653.0,1183610.9333708,1878798.36168866,4.0,2.0,36.0,41.82261115978356,-87.60191390340474,"(41.82261115978356, -87.60191390340474)",2015-06-08
82241,06/08/2015,Completed,06/10/2015,15-02562111,Sanitation Code Violation,Other,1523 N HARDING AVE,60651.0,1149768.24499568,1909836.75397693,26.0,25.0,23.0,41.90850765075879,-87.72526267386442,"(41.9085076507588, -87.72526267386442)",2015-06-08
82242,06/08/2015,Completed,06/10/2015,15-02563751,Sanitation Code Violation,Dog feces in yard,7128 W FOSTER AVE,60656.0,1127785.02809681,1934106.89760822,41.0,16.0,10.0,41.97550706957364,-87.8054706619587,"(41.97550706957364, -87.80547066195868)",2015-06-08
82243,06/08/2015,Completed,06/10/2015,15-02567621,Sanitation Code Violation,Dumpster not being emptied,2476 N LINCOLN AVE,60614.0,1169972.36057773,1916703.7005826,43.0,19.0,7.0,41.926933900755174,-87.65084210493522,"(41.92693390075517, -87.65084210493522)",2015-06-08
82244,06/08/2015,Completed,06/10/2015,15-02567628,Sanitation Code Violation,Construction Site Cleanliness/Fence,1853 N HOWE ST,60614.0,1171656.97480648,1912386.27663215,43.0,18.0,7.0,41.915049722512016,-87.64477930831079,"(41.915049722512016, -87.6447793083108)",2015-06-08
82245,06/08/2015,Completed,06/10/2015,15-02567637,Sanitation Code Violation,Garbage in alley,650 W BELDEN AVE,60614.0,1171885.68962665,1915542.12390697,43.0,18.0,7.0,41.92370447689794,-87.64384582663311,"(41.92370447689794, -87.64384582663311)",2015-06-08
82246,06/08/2015,Completed,06/10/2015,15-02567656,Sanitation Code Violation,Other,2730 N WILTON AVE,60614.0,1169481.90660955,1918325.05049597,43.0,19.0,7.0,41.93139366121125,-87.65259699769287,"(41.93139366121125, -87.65259699769288)",2015-06-08
82247,06/08/2015,Completed,06/10/2015,15-02567662,Sanitation Code Violation,Other,2651 N DAYTON ST,60614.0,1170157.89142947,1917822.60001896,43.0,19.0,7.0,41.93000015927896,-87.65012760365997,"(41.930000159278954, -87.65012760365997)",2015-06-08
82248,06/08/2015,Completed,06/10/2015,15-02567673,Sanitation Code Violation,Other,811 W DIVERSEY PKWY,60614.0,1170337.07131412,1918812.12782035,43.0,19.0,7.0,41.9327115486967,-87.64944016358065,"(41.9327115486967, -87.64944016358064)",2015-06-08
82249,06/08/2015,Completed,06/10/2015,15-02567685,Sanitation Code Violation,Other,2626 N LAKEVIEW AVE,60614.0,1173108.83208396,1917894.81101665,43.0,19.0,7.0,41.930133272989735,-87.63928160271674,"(41.930133272989735, -87.63928160271674)",2015-06-08
82250,06/08/2015,Completed,06/10/2015,15-02567712,Sanitation Code Violation,Garbage in alley,2519 N HALSTED ST,60614.0,1170512.87003315,1917039.91000108,43.0,19.0,7.0,41.9278446524817,-87.6488461190238,"(41.9278446524817, -87.64884611902379)",2015-06-08
82251,06/08/2015,Completed,06/10/2015,15-02570472,Sanitation Code Violation,,6839 S DORCHESTER AVE,60637.0,1186718.11521403,1859942.65949605,5.0,3.0,43.0,41.7707965506517,-87.59111238603809,"(41.7707965506517, -87.59111238603809)",2015-06-08
82252,06/05/2015,Completed,06/10/2015,15-02489241,Sanitation Code Violation,Garbage in yard,2755 N SAYRE AVE,60707.0,1129116.71870628,1917535.69493293,36.0,25.0,18.0,41.9300112082264,-87.80095200736065,"(41.930011208226404, -87.80095200736065)",2015-06-05
82253,06/05/2015,Completed,06/10/2015,15-02491638,Sanitation Code Violation,Garbage in yard,3910 W WELLINGTON AVE,60618.0,1149765.52127157,1919654.42017487,30.0,25.0,21.0,41.93544827153024,-87.7250168390292,"(41.935448271530234, -87.72501683902921)",2015-06-05
82254,06/05/2015,Completed,06/10/2015,15-02507265,Sanitation Code Violation,Other,4700 S WOODLAWN AVE,60615.0,1185036.50856672,1874084.11629518,4.0,2.0,39.0,41.80964152314103,-87.59683236978952,"(41.809641523141025, -87.59683236978951)",2015-06-05
82255,06/05/2015,Completed,06/10/2015,15-02507545,Sanitation Code Violation,Construction Site Cleanliness/Fence,1835 N MOHAWK ST,60614.0,1172315.27778818,1912477.34022831,43.0,18.0,7.0,41.91528507731428,-87.64235810422079,"(41.91528507731428, -87.6423581042208)",2015-06-05
82256,06/06/2015,Completed,06/10/2015,15-02514182,Sanitation Code Violation,,6610 N ONARGA AVE,60631.0,1126532.92939617,1943207.20931493,41.0,16.0,9.0,42.00050030839445,-87.80987063431887,"(42.00050030839445, -87.80987063431886)",2015-06-06
82257,06/06/2015,Completed,06/10/2015,15-02521328,Sanitation Code Violation,Other,1852 N CICERO AVE,60639.0,1144104.71410097,1912012.3728206002,36.0,25.0,19.0,41.914586068175936,-87.74601320125498,"(41.914586068175936, -87.74601320125497)",2015-06-06
82258,06/03/2015,Completed,06/10/2015,15-02445361,Sanitation Code Violation,Other,7314 S BENNETT AVE,60649.0,1189973.19821984,1856846.93919709,7.0,3.0,43.0,41.762223935625464,-87.57928015854392,"(41.76222393562546, -87.57928015854394)",2015-06-03
82259,06/03/2015,Completed,06/10/2015,15-02450261,Sanitation Code Violation,Other,5640 W SCHOOL ST,60634.0,1138181.96122335,1921375.44406821,36.0,16.0,15.0,41.940388592110175,-87.76754588460643,"(41.94038859211017, -87.76754588460643)",2015-06-03
82261,06/01/2015,Completed,06/10/2015,15-02387102,Sanitation Code Violation,Other,2410 E 79TH ST,60649.0,1193673.8049083,1853056.74848975,7.0,4.0,43.0,41.75173353819469,-87.56584113063921,"(41.751733538194685, -87.56584113063921)",2015-06-01
82262,06/01/2015,Completed,06/10/2015,15-02396064,Sanitation Code Violation,Garbage in alley,8200 S EXCHANGE AVE,60617.0,1197251.43887215,1851165.9213681999,7.0,4.0,46.0,41.746456646440116,-87.55279390774403,"(41.74645664644012, -87.55279390774403)",2015-06-01
82285,06/11/2015,Completed,06/11/2015,15-02628347,Sanitation Code Violation,Other,3339 W 63RD ST,60629.0,1155215.79308704,1862651.64628752,23.0,8.0,66.0,41.77891841307988,-87.70651602075752,"(41.77891841307988, -87.70651602075753)",2015-06-11
82286,06/11/2015,Completed,06/11/2015,15-02633966,Sanitation Code Violation,Garbage in yard,2117 W ARTHUR AVE,60645.0,1160939.67201757,1943134.8841156997,50.0,24.0,2.0,41.99965485707195,-87.68329643615975,"(41.99965485707195, -87.68329643615975)",2015-06-11
82287,06/10/2015,Completed,06/11/2015,15-02611391,Sanitation Code Violation,Other,5100 S HARDING AVE,60632.0,1150910.31048275,1870510.3800061,23.0,8.0,62.0,41.800569015015355,-87.72209563876494,"(41.80056901501536, -87.72209563876493)",2015-06-10
82288,06/10/2015,Completed,06/11/2015,15-02611440,Sanitation Code Violation,Garbage in yard,5005 W PARKER AVE,60639.0,1142546.46018594,1917822.98398812,31.0,25.0,19.0,41.9305601271635,-87.75159325522829,"(41.9305601271635, -87.75159325522829)",2015-06-10
82289,06/10/2015,Completed,06/11/2015,15-02614439,Sanitation Code Violation,Garbage in alley,2247 N ELSTON AVE,60614.0,1163775.66491963,1915009.00157528,32.0,14.0,22.0,41.922416628800136,-87.67366010299914,"(41.92241662880013, -87.67366010299914)",2015-06-10
82290,06/10/2015,Completed,06/11/2015,15-02614645,Sanitation Code Violation,Overflowing carts,6824 W 65TH ST,60638.0,1132050.46252023,1860645.16818909,23.0,8.0,64.0,41.77384422957173,-87.79149020732453,"(41.77384422957173, -87.79149020732451)",2015-06-10
82291,06/10/2015,Completed,06/11/2015,15-02615285,Sanitation Code Violation,Garbage in alley,5317 S MELVINA AVE,60638.0,1135941.36100612,1868681.60792303,23.0,8.0,56.0,41.79582952605233,-87.77703603438732,"(41.79582952605233, -87.77703603438732)",2015-06-10
82292,06/10/2015,Completed,06/11/2015,15-02615478,Sanitation Code Violation,Other,2014 W WABANSIA AVE,60647.0,1162598.92480498,1911311.5605292,32.0,14.0,24.0,41.912295357650926,-87.67808759952824,"(41.91229535765092, -87.67808759952824)",2015-06-10
82293,06/10/2015,Completed,06/11/2015,15-02617848,Sanitation Code Violation,Construction Site Cleanliness/Fence,6241 S KOMENSKY AVE,60629.0,1150441.59290154,1862904.76862744,23.0,8.0,65.0,41.77970718412765,-87.7240122791068,"(41.77970718412765, -87.72401227910682)",2015-06-10
82294,06/10/2015,Completed,06/11/2015,15-02618632,Sanitation Code Violation,Overflowing carts,2417 W FARGO AVE,60645.0,1158839.78002026,1949368.02601373,50.0,24.0,2.0,42.016802280061285,-87.69084932820482,"(42.016802280061285, -87.69084932820483)",2015-06-10
82295,06/10/2015,Completed,06/11/2015,15-02618825,Sanitation Code Violation,Overflowing carts,2251 N ELSTON AVE,60614.0,1163753.56491963,1915029.30157528,32.0,14.0,22.0,41.9224727997751,-87.67374073129255,"(41.9224727997751, -87.67374073129255)",2015-06-10
82296,06/10/2015,Completed,06/11/2015,15-02620416,Sanitation Code Violation,Other,6610 N WASHTENAW AVE,60645.0,1157127.68419302,1943750.29597397,50.0,24.0,2.0,42.001422125875244,-87.69730298267916,"(42.00142212587524, -87.69730298267916)",2015-06-10
82297,06/10/2015,Completed,06/11/2015,15-02620598,Sanitation Code Violation,Other,3105 N DAMEN AVE,60618.0,1162469.32379556,1920640.63592038,32.0,19.0,5.0,41.937897659319404,-87.67830190959585,"(41.93789765931941, -87.67830190959586)",2015-06-10
82298,06/10/2015,Completed,06/11/2015,15-02620600,Sanitation Code Violation,Other,3109 N DAMEN AVE,60618.0,1162467.92379556,1920683.43592038,32.0,19.0,5.0,41.93801513437225,-87.67830585296534,"(41.93801513437225, -87.67830585296535)",2015-06-10
82299,06/10/2015,Completed,06/11/2015,15-02625228,Sanitation Code Violation,Other,8241 W IRVING PARK RD,60634.0,1120297.28637008,1925542.14830304,38.0,16.0,17.0,41.952127669989174,-87.83319029242672,"(41.95212766998917, -87.83319029242672)",2015-06-10
82300,06/08/2015,Completed,06/11/2015,15-02570304,Sanitation Code Violation,Other,5233 S KEATING AVE,60632.0,1145579.10040935,1869474.74377806,14.0,8.0,56.0,41.7978294331181,-87.74167332415564,"(41.7978294331181, -87.74167332415564)",2015-06-08
82301,06/08/2015,Completed,06/11/2015,15-02570540,Sanitation Code Violation,Other,4106 W 69TH ST,60629.0,1150161.72508125,1858527.134491,13.0,8.0,65.0,41.76769968468685,-87.72515181970915,"(41.767699684686846, -87.72515181970914)",2015-06-08
82302,06/08/2015,Completed,06/11/2015,15-02570596,Sanitation Code Violation,Other,4408 W 65TH ST,60629.0,1148073.80887558,1861135.75689624,13.0,8.0,65.0,41.77489843841751,-87.7327383000264,"(41.77489843841751, -87.7327383000264)",2015-06-08
82303,06/09/2015,Completed,06/11/2015,15-02583259,Sanitation Code Violation,Other,5105 S ALBANY AVE,60632.0,1156573.77989687,1870624.8943862,14.0,9.0,63.0,41.80077086591885,-87.70132260126766,"(41.80077086591885, -87.70132260126765)",2015-06-09
82304,06/09/2015,Completed,06/11/2015,15-02585722,Sanitation Code Violation,Other,9729 S HOXIE AVE,60617.0,1195071.15777225,1840820.94992102,10.0,4.0,51.0,41.71812314091871,-87.56112288709619,"(41.718123140918706, -87.56112288709618)",2015-06-09
82305,06/09/2015,Completed,06/11/2015,15-02590491,Sanitation Code Violation,Other,8553 S BUFFALO AVE,60617.0,1199625.26999738,1848883.39917771,10.0,4.0,46.0,41.74013382558394,-87.54417254328845,"(41.74013382558394, -87.54417254328847)",2015-06-09
82306,06/09/2015,Completed,06/11/2015,15-02590802,Sanitation Code Violation,,10248 S INDIANAPOLIS AVE,60617.0,1203259.19001828,1837592.39532778,10.0,4.0,52.0,41.70905829640047,-87.53124412460942,"(41.70905829640047, -87.5312441246094)",2015-06-09
82307,06/09/2015,Completed,06/11/2015,15-02593557,Sanitation Code Violation,Garbage in yard,4835 S KOMENSKY AVE,60632.0,1150178.2568825001,1872257.24363174,14.0,8.0,57.0,41.80537692043504,-87.72473498613684,"(41.805376920435044, -87.72473498613684)",2015-06-09
82308,06/09/2015,Completed,06/11/2015,15-02594212,Sanitation Code Violation,Other,10400 S AVENUE E,60617.0,1203813.21012165,1836621.97507234,10.0,4.0,52.0,41.706381208768214,-87.52924848270443,"(41.706381208768214, -87.52924848270443)",2015-06-09
82309,06/09/2015,Completed,06/11/2015,15-02597938,Sanitation Code Violation,Other,4131 W BELMONT AVE,60641.0,1148291.36822381,1920957.3068763001,31.0,25.0,21.0,41.939052080308265,-87.73040080280559,"(41.939052080308265, -87.73040080280559)",2015-06-09
82310,06/09/2015,Completed,06/11/2015,15-02598856,Sanitation Code Violation,Other,2903 N KILPATRICK AVE,60641.0,1144546.43586781,1918888.15252439,31.0,25.0,19.0,41.933445579524495,-87.74421681415924,"(41.9334455795245, -87.74421681415923)",2015-06-09
82311,06/09/2015,Completed,06/11/2015,15-02599063,Sanitation Code Violation,Garbage in yard,913 N WINCHESTER AVE,60622.0,1163237.04433077,1906103.53442766,2.0,12.0,24.0,41.897990753852845,-87.67588996409691,"(41.89799075385284, -87.67588996409691)",2015-06-09
82312,06/04/2015,Completed,06/11/2015,15-02463561,Sanitation Code Violation,Other,6201 S KOLMAR AVE,60629.0,1147104.65781726,1863099.7985901001,13.0,8.0,65.0,41.780306612393005,-87.73624112977343,"(41.78030661239301, -87.73624112977342)",2015-06-04
82313,06/04/2015,Completed,06/11/2015,15-02478487,Sanitation Code Violation,Garbage in yard,817 S WELLS ST,60607.0,1174836.74327147,1896700.59013255,25.0,1.0,32.0,41.87193670268944,-87.63356731107946,"(41.87193670268944, -87.63356731107947)",2015-06-04
82314,06/05/2015,Completed,06/11/2015,15-02493483,Sanitation Code Violation,Other,4446 S SAWYER AVE,60632.0,1155440.31982732,1874925.50699981,14.0,8.0,58.0,41.81259512579414,-87.70536417386269,"(41.81259512579414, -87.70536417386269)",2015-06-05
82315,06/05/2015,Completed,06/11/2015,15-02499202,Sanitation Code Violation,Other,6501 S CICERO AVE,60638.0,1145502.67990208,1861074.86241426,13.0,8.0,64.0,41.77478022098442,-87.74216537188231,"(41.774780220984425, -87.74216537188232)",2015-06-05
82316,06/02/2015,Completed,06/11/2015,15-02408058,Sanitation Code Violation,Other,4341 W 62ND ST,60629.0,1148391.76590994,1863134.43947969,23.0,8.0,65.0,41.78037705041963,-87.73152142289345,"(41.78037705041963, -87.73152142289345)",2015-06-02
82317,06/02/2015,Completed,06/11/2015,15-02416122,Sanitation Code Violation,,3739 W 61ST PL,60629.0,1152501.35478893,1863568.23252064,23.0,8.0,65.0,41.78148753198349,-87.71644338487833,"(41.781487531983494, -87.71644338487833)",2015-06-02
82318,06/02/2015,Completed,06/11/2015,15-02419626,Sanitation Code Violation,,5256 S MILLARD AVE,60632.0,1152932.80546688,1869464.35579994,23.0,8.0,62.0,41.79765886795875,-87.71470602710241,"(41.79765886795876, -87.7147060271024)",2015-06-02
82319,06/02/2015,Completed,06/11/2015,15-02425846,Sanitation Code Violation,Other,2429 W TAYLOR ST,60612.0,1160338.65781839,1895637.51990138,28.0,11.0,28.0,41.8693315331966,-87.68682506080185,"(41.8693315331966, -87.68682506080185)",2015-06-02
82320,06/02/2015,Completed,06/11/2015,15-02429014,Sanitation Code Violation,Garbage in yard,8212 S HOUSTON AVE,60617.0,1197915.04739557,1851104.09450458,7.0,4.0,46.0,41.746270444643386,-87.55036440772716,"(41.746270444643386, -87.55036440772716)",2015-06-02
82321,06/03/2015,Completed,06/11/2015,15-02446038,Sanitation Code Violation,Garbage in yard,6549 S KENNETH AVE,60629.0,1147836.11600391,1860802.08118246,13.0,8.0,65.0,41.77398732884177,-87.73361819064425,"(41.773987328841784, -87.73361819064425)",2015-06-03
82322,06/03/2015,Completed,06/11/2015,15-02446955,Sanitation Code Violation,Other,5009 S KARLOV AVE,60632.0,1149877.96167331,1871063.20621903,14.0,8.0,57.0,41.8021061350077,-87.7258673121773,"(41.802106135007705, -87.7258673121773)",2015-06-03
82323,06/01/2015,Completed,06/11/2015,15-02402788,Sanitation Code Violation,Other,4700 W GLADYS AVE,60644.0,1145112.96680043,1897941.76393416,28.0,11.0,25.0,41.87595573032824,-87.74266486320221,"(41.87595573032824, -87.74266486320222)",2015-06-01
82353,06/11/2015,Completed,06/12/2015,15-02640148,Sanitation Code Violation,Standing water,4574 N MOBILE AVE,60630.0,1133517.729893,1929954.56218395,38.0,16.0,15.0,41.964013790479186,-87.7844868858207,"(41.964013790479186, -87.78448688582071)",2015-06-11
82354,06/11/2015,Completed,06/12/2015,15-02640261,Sanitation Code Violation,Dumpster not being emptied,351 N LOWER STETSON AVE,60601.0,1177841.838795,1902667.04722636,42.0,1.0,32.0,41.88824122877409,-87.62235302529642,"(41.888241228774085, -87.62235302529642)",2015-06-11
82355,06/11/2015,Completed,06/12/2015,15-02640661,Sanitation Code Violation,Other,7304 W RASCHER AVE,60656.0,1126651.65027936,1935076.34968623,41.0,16.0,10.0,41.978186435978756,-87.80961679366699,"(41.97818643597876, -87.809616793667)",2015-06-11
82356,06/11/2015,Completed,06/12/2015,15-02649071,Sanitation Code Violation,Dumpster not being emptied,2846 N NORMANDY AVE,60634.0,1131262.27462731,1918186.47243389,36.0,25.0,18.0,41.9317601910394,-87.79305241290164,"(41.93176019103941, -87.79305241290164)",2015-06-11
82357,06/12/2015,Completed,06/12/2015,15-02656717,Sanitation Code Violation,Overflowing carts,7052 N WESTERN AVE,60645.0,1159035.2088163,1946930.82999817,50.0,24.0,2.0,42.010110516988966,-87.6901975810082,"(42.01011051698897, -87.6901975810082)",2015-06-12
82358,06/12/2015,Completed,06/12/2015,15-02660280,Sanitation Code Violation,Other,7528 N OZARK AVE,60631.0,1123569.62198362,1949445.15012322,41.0,16.0,9.0,42.017666998610004,-87.82063486065736,"(42.017666998610004, -87.82063486065738)",2015-06-12
82359,06/10/2015,Completed,06/12/2015,15-02605814,Sanitation Code Violation,Garbage in alley,1855 N TRIPP AVE,60639.0,1147761.30953414,1912001.98042166,35.0,25.0,20.0,41.914488052114784,-87.73257952390198,"(41.91448805211479, -87.73257952390198)",2015-06-10
82360,06/10/2015,Completed,06/12/2015,15-02608833,Sanitation Code Violation,Dumpster not being emptied,2023 N ORCHARD ST,60614.0,1171278.27001389,1913682.71001487,43.0,18.0,7.0,41.918615535711105,-87.6461324501259,"(41.918615535711105, -87.6461324501259)",2015-06-10
82361,06/10/2015,Completed,06/12/2015,15-02608864,Sanitation Code Violation,Other,5224 S WOODLAWN AVE,60615.0,1185109.51808789,1870778.0851687,5.0,2.0,41.0,41.80056781029818,-87.59666851784327,"(41.80056781029819, -87.59666851784326)",2015-06-10
82362,06/10/2015,Completed,06/12/2015,15-02609112,Sanitation Code Violation,Other,3329 W CULLOM AVE,60618.0,1153419.93959404,1928385.8335211999,33.0,17.0,16.0,41.959335954566285,-87.7113537140923,"(41.95933595456629, -87.7113537140923)",2015-06-10
82363,06/10/2015,Completed,06/12/2015,15-02611995,Sanitation Code Violation,,2908 W BELMONT AVE,60618.0,1156394.3860948,1921133.02730952,33.0,17.0,21.0,41.93937401940889,-87.70061518156301,"(41.93937401940889, -87.70061518156301)",2015-06-10
82364,06/10/2015,Completed,06/12/2015,15-02617660,Sanitation Code Violation,Other,7307 S UNIVERSITY AVE,60619.0,1185146.36578358,1856793.94960145,5.0,3.0,69.0,41.76219327411199,-87.59697255876449,"(41.76219327411199, -87.5969725587645)",2015-06-10
82365,06/10/2015,Completed,06/12/2015,15-02619508,Sanitation Code Violation,Other,4850 S KENWOOD AVE,60615.0,1185932.64001414,1873443.23066581,4.0,2.0,39.0,41.80786176665514,-87.59356578540806,"(41.80786176665513, -87.59356578540806)",2015-06-10
82366,06/10/2015,Completed,06/12/2015,15-02621447,Sanitation Code Violation,Overflowing carts,4809 N HAMILTON AVE,60625.0,1161138.75845,1931976.27845,47.0,20.0,4.0,41.969031063222644,-87.68287579587759,"(41.96903106322265, -87.6828757958776)",2015-06-10
82367,06/10/2015,Completed,06/12/2015,15-02621459,Sanitation Code Violation,Garbage in yard,2114 W LAWRENCE AVE,60625.0,1161312.57008605,1931860.82812724,47.0,20.0,4.0,41.96871063942379,-87.68223991950346,"(41.96871063942379, -87.68223991950346)",2015-06-10
82368,06/11/2015,Completed - Dup,06/12/2015,15-02631558,Sanitation Code Violation,Other,2114 W LAWRENCE AVE,60625.0,1161312.57008605,1931860.82812724,47.0,20.0,4.0,41.96871063942379,-87.68223991950346,"(41.96871063942379, -87.68223991950346)",2015-06-11
82369,06/11/2015,Completed,06/12/2015,15-02631556,Sanitation Code Violation,Overflowing carts,2112 W LAWRENCE AVE,60625.0,1161336.87008605,1931861.62812724,47.0,20.0,4.0,41.968712327886465,-87.6821505469079,"(41.96871232788647, -87.6821505469079)",2015-06-11
82370,06/11/2015,Completed,06/12/2015,15-02633283,Sanitation Code Violation,Other,2123 W CHASE AVE,60645.0,1160550.99716586,1948376.12507805,49.0,24.0,2.0,42.01404506122489,-87.68458016316538,"(42.01404506122489, -87.68458016316538)",2015-06-11
82371,06/11/2015,Completed,06/12/2015,15-02636569,Sanitation Code Violation,Other,4714 N MAPLEWOOD AVE,60625.0,1158519.27000386,1931220.83842715,40.0,19.0,4.0,41.9670122651608,-87.69252840054554,"(41.967012265160804, -87.69252840054553)",2015-06-11
82372,06/11/2015,Completed,06/12/2015,15-02638136,Sanitation Code Violation,Garbage in yard,5618 N RICHMOND ST,60659.0,1155678.71991896,1937184.28251345,40.0,20.0,2.0,41.983434098556955,-87.70281137232986,"(41.98343409855695, -87.70281137232986)",2015-06-11
82373,06/11/2015,Completed,06/12/2015,15-02638138,Sanitation Code Violation,Garbage in yard,6010 N KIMBALL AVE,60659.0,1152620.95378866,1939735.60711398,50.0,17.0,13.0,41.99049628796941,-87.71398946711477,"(41.99049628796941, -87.71398946711476)",2015-06-11
82374,06/11/2015,Completed,06/12/2015,15-02638853,Sanitation Code Violation,Garbage in yard,2721 W PETERSON AVE,60659.0,1157009.8495253,1939751.65881004,40.0,20.0,2.0,41.99045210222651,-87.6978456499602,"(41.990452102226506, -87.6978456499602)",2015-06-11
82375,06/09/2015,Completed,06/12/2015,15-02587648,Sanitation Code Violation,Garbage in alley,4539 N SPAULDING AVE,60625.0,1153566.76191429,1929959.99861566,33.0,17.0,14.0,41.963652639495685,-87.71077188208983,"(41.96365263949569, -87.71077188208983)",2015-06-09
82376,06/06/2015,Completed,06/12/2015,15-02511414,Sanitation Code Violation,Other,7300 S ASHLAND AVE,60636.0,1166947.56957891,1856309.12982682,17.0,7.0,67.0,41.76127100265183,-87.66368721783556,"(41.76127100265183, -87.66368721783557)",2015-06-06
82377,06/06/2015,Completed,06/12/2015,15-02511452,Sanitation Code Violation,Other,4514 N CALIFORNIA AVE,60625.0,1156900.63388866,1929774.26048345,33.0,17.0,14.0,41.96307583932507,-87.69851933475563,"(41.96307583932507, -87.69851933475563)",2015-06-06
82378,06/07/2015,Completed,06/12/2015,15-02536634,Sanitation Code Violation,Garbage in yard,2433 N WESTERN AVE,60647.0,1159952.61322953,1916203.54009286,1.0,14.0,22.0,41.925774369572025,-87.6876741191972,"(41.92577436957202, -87.68767411919718)",2015-06-07
82379,06/07/2015,Completed,06/12/2015,15-02544252,Sanitation Code Violation,Garbage in alley,2353 W ALTGELD ST,60647.0,1160165.10459507,1916442.6606983996,1.0,14.0,22.0,41.92642613973021,-87.68688669513195,"(41.926426139730204, -87.68688669513196)",2015-06-07
82380,06/07/2015,Completed,06/12/2015,15-02545467,Sanitation Code Violation,Dog feces in yard,6210 W SCHOOL ST,60634.0,1134414.87572036,1921288.14449089,36.0,16.0,17.0,41.940216425259464,-87.781393502556,"(41.94021642525946, -87.781393502556)",2015-06-07
82381,06/08/2015,Completed - Dup,06/12/2015,15-02573572,Sanitation Code Violation,Standing water,1015 N HONORE ST,60622.0,1163882.94572401,1906800.4973896,1.0,12.0,24.0,41.89988966548189,-87.67349794507112,"(41.899889665481886, -87.67349794507112)",2015-06-08
82382,06/08/2015,Completed,06/12/2015,15-02567601,Sanitation Code Violation,Dumpster not being emptied,2260 N LINCOLN AVE,60614.0,1171493.31577739,1915270.24509788,43.0,18.0,7.0,41.92296707699619,-87.64529556153136,"(41.922967076996194, -87.64529556153134)",2015-06-08
82383,06/08/2015,Completed,06/12/2015,15-02567608,Sanitation Code Violation,Garbage in yard,2242 N LINCOLN AVE,60614.0,1171617.37096694,1915153.18511514,43.0,18.0,7.0,41.9226431266596,-87.64484319776747,"(41.922643126659594, -87.64484319776747)",2015-06-08
82384,06/08/2015,Completed,06/12/2015,15-02568822,Sanitation Code Violation,Other,1079 N HERMITAGE AVE,60622.0,1164524.4900111998,1907476.36251788,1.0,12.0,24.0,41.901730723962324,-87.6711223865691,"(41.901730723962324, -87.6711223865691)",2015-06-08
82385,06/08/2015,Completed,06/12/2015,15-02573571,Sanitation Code Violation,Standing water,1015 N HONORE ST,60622.0,1163882.94572401,1906800.4973896,1.0,12.0,24.0,41.89988966548189,-87.67349794507112,"(41.899889665481886, -87.67349794507112)",2015-06-08
82386,06/08/2015,Completed,06/12/2015,15-02578406,Sanitation Code Violation,Garbage in yard,3902 W BELDEN AVE,60647.0,1149977.76842803,1915003.71929571,35.0,25.0,22.0,41.922682208396616,-87.72435820557827,"(41.92268220839662, -87.72435820557826)",2015-06-08
82387,06/04/2015,Completed,06/12/2015,15-02470236,Sanitation Code Violation,Overflowing carts,2942 W LYNDALE ST,60647.0,1156345.34997637,1914945.53303338,1.0,14.0,22.0,41.922396070564716,-87.70096313007893,"(41.922396070564716, -87.70096313007892)",2015-06-04
82388,06/04/2015,Completed,06/12/2015,15-02474182,Sanitation Code Violation,Garbage in yard,2415 N WESTERN AVE,60647.0,1159956.81322953,1916084.54009286,1.0,14.0,22.0,41.9254477385302,-87.68766197887102,"(41.925447738530195, -87.68766197887102)",2015-06-04
82389,06/05/2015,Completed,06/12/2015,15-02491158,Sanitation Code Violation,Other,4245 N CENTRAL PARK AVE,60618.0,1151628.73712579,1927979.85089294,35.0,17.0,16.0,41.958257397355815,-87.71794969854584,"(41.95825739735582, -87.71794969854585)",2015-06-05
82390,06/03/2015,Completed - Dup,06/12/2015,15-02460665,Sanitation Code Violation,Construction Site Cleanliness/Fence,1023 N HONORE ST,60622.0,1163881.34572401,1906853.9973896,1.0,12.0,24.0,41.90003650720739,-87.67350231050787,"(41.90003650720739, -87.67350231050787)",2015-06-03
82391,06/03/2015,Completed,06/12/2015,15-02442209,Sanitation Code Violation,Dumpster not being emptied,1023 N HONORE ST,60622.0,1163881.34572401,1906853.9973896,1.0,12.0,24.0,41.90003650720739,-87.67350231050787,"(41.90003650720739, -87.67350231050787)",2015-06-03
82392,06/03/2015,Completed,06/12/2015,15-02448217,Sanitation Code Violation,Other,2577 W ARMITAGE AVE,60647.0,1158683.91011437,1913189.73778967,1.0,14.0,22.0,41.91753039327123,-87.69241874213901,"(41.91753039327123, -87.69241874213901)",2015-06-03
82393,06/03/2015,Completed,06/12/2015,15-02451781,Sanitation Code Violation,Garbage in alley,1543 N TALMAN AVE,60622.0,1158466.94329662,1910160.59230186,1.0,14.0,24.0,41.90922262754883,-87.69329893597441,"(41.90922262754883, -87.6932989359744)",2015-06-03
82394,06/03/2015,Completed,06/12/2015,15-02451784,Sanitation Code Violation,Garbage in alley,1541 N TALMAN AVE,60622.0,1158467.34329662,1910147.09230186,1.0,14.0,24.0,41.909185574274346,-87.69329783660595,"(41.909185574274346, -87.69329783660596)",2015-06-03
82395,06/02/2015,Completed,06/12/2015,15-02411541,Sanitation Code Violation,Other,7300 S SANGAMON ST,60621.0,1171238.32028076,1856428.59771654,17.0,7.0,68.0,41.76150610268214,-87.64795780195892,"(41.76150610268214, -87.64795780195892)",2015-06-02
82396,06/02/2015,Completed,06/12/2015,15-02411543,Sanitation Code Violation,Other,7302 S SANGAMON ST,60621.0,1171238.72028076,1856415.19771654,17.0,7.0,68.0,41.76146932264887,-87.64795672722563,"(41.761469322648864, -87.64795672722562)",2015-06-02
82397,06/02/2015,Completed,06/12/2015,15-02422371,Sanitation Code Violation,Other,7707 S MAY ST,60620.0,1169988.227584,1853693.93479285,17.0,6.0,71.0,41.75402907152367,-87.6526188099119,"(41.75402907152367, -87.65261880991191)",2015-06-02
82398,06/02/2015,Completed,06/12/2015,15-02423917,Sanitation Code Violation,Other,2329 W IOWA ST,60622.0,1160714.36587164,1905939.50487221,1.0,12.0,24.0,41.89759331697726,-87.68516007486845,"(41.89759331697726, -87.68516007486846)",2015-06-02
82405,06/01/2015,Completed,06/14/2015,15-02392143,Sanitation Code Violation,Other,1729 N SAWYER AVE,60647.0,1154313.99077342,1911422.49430602,26.0,14.0,23.0,41.912769418789026,-87.70852130662097,"(41.91276941878903, -87.70852130662095)",2015-06-01
82406,06/01/2015,Completed,06/14/2015,15-02396245,Sanitation Code Violation,Garbage in alley,4035 W NORTH AVE,60639.0,1149067.79661988,1910326.69518356,26.0,25.0,23.0,41.90986569460528,-87.72782309319945,"(41.90986569460528, -87.72782309319946)",2015-06-01
82412,06/14/2015,Completed - Dup,06/15/2015,15-02716625,Sanitation Code Violation,Dumpster not being emptied,3127 W LYNDALE ST,60647.0,1155177.21791333,1914922.20598157,32.0,14.0,22.0,41.92235561709878,-87.70525584886997,"(41.92235561709878, -87.70525584886997)",2015-06-14
82413,06/14/2015,Completed,06/15/2015,15-02700965,Sanitation Code Violation,Standing water,1350 W FLETCHER ST,60657.0,1167104.47509165,1921039.17268207,32.0,19.0,6.0,41.938892814114794,-87.66125540193029,"(41.9388928141148, -87.66125540193029)",2015-06-14
82414,06/14/2015,Completed,06/15/2015,15-02706172,Sanitation Code Violation,Overflowing carts,2507 N HALSTED ST,60614.0,1170517.07003315,1916917.31000108,43.0,19.0,7.0,41.927508140341246,-87.64883428216976,"(41.927508140341246, -87.64883428216977)",2015-06-14
82415,06/14/2015,Completed,06/15/2015,15-02707726,Sanitation Code Violation,Other,3733 N ORIOLE AVE,60634.0,1124752.63570434,1923805.4909893002,38.0,16.0,17.0,41.94728955744058,-87.81685044416191,"(41.94728955744058, -87.81685044416191)",2015-06-14
