,Creation Date,Status,Completion Date,Service Request Number,Type of Service Request,License Plate,Vehicle Make/Model,Vehicle Color,Current Activity,Most Recent Action,How Many Days Has the Vehicle Been Reported as Parked?,Street Address,ZIP Code,X Coordinate,Y Coordinate,Ward,Police District,Community Area,SSA,Latitude,Longitude,Location,date
89421,06/01/2015,Completed - Dup,06/02/2015,15-02397917,Abandoned Vehicle Complaint,831010,Dodge,White,,,35.0,7109 W DEVON AVE,60631.0,1127844.32902395,1942222.40527559,41.0,16.0,10.0,,41.99768334889936,-87.80528367958624,"(41.99768334889936, -87.80528367958624)",2015-06-01
100841,06/01/2015,Completed,06/01/2015,15-02390576,Abandoned Vehicle Complaint,301781ST,(Homemade Trailer),Silver,FVI - Outcome,Vehicle was moved from original address requested,7.0,3133 N ALBANY AVE,60618.0,1155271.24081789,1920804.43712719,33.0,14.0,21.0,,41.93853798993006,-87.70462990649263,"(41.93853798993006, -87.70462990649264)",2015-06-01
100934,06/02/2015,Completed - Dup,06/02/2015,15-02408020,Abandoned Vehicle Complaint,X913764,Honda,Silver,FVI - Outcome,Create Work Order,11.0,6049 N MASON AVE,60646.0,1135583.74987953,1939835.54338202,39.0,16.0,11.0,,41.99163166807889,-87.77650267152633,"(41.99163166807889, -87.77650267152633)",2015-06-02
100935,06/02/2015,Completed - Dup,06/02/2015,15-02408254,Abandoned Vehicle Complaint,NPL180,Mercury,White,FVI - Outcome,Create Work Order,21.0,545 W 42ND PL,60609.0,1173365.86930176,1876739.53569425,11.0,9.0,61.0,,41.817074878876646,-87.6402359619231,"(41.817074878876646, -87.64023596192311)",2015-06-02
100936,06/02/2015,Completed - Dup,06/02/2015,15-02411377,Abandoned Vehicle Complaint,V159819,Saturn,Gray,FVI - Outcome,Create Work Order,7.0,2053 N KILBOURN AVE,60639.0,1146056.03097988,1913268.75790263,36.0,25.0,20.0,,41.918587741623824,-87.73868431751842,"(41.91858774162382, -87.73868431751842)",2015-06-02
100937,06/02/2015,Completed - Dup,06/02/2015,15-02412655,Abandoned Vehicle Complaint,NO PLATE,Nissan,White,FVI - Outcome,Create Work Order,2.0,316 W CHICAGO AVE,60654.0,1174019.48143094,1905670.15167242,27.0,18.0,8.0,,41.89667409709342,-87.63639568873215,"(41.896674097093424, -87.63639568873215)",2015-06-02
100938,06/02/2015,Completed - Dup,06/02/2015,15-02412673,Abandoned Vehicle Complaint,V333621,Chevrolet,Gray,FVI - Outcome,Create Work Order,21.0,10634 S WOOD ST,60643.0,1166240.72033443,1834025.09002208,19.0,22.0,72.0,,41.69996432764993,-87.66705111704219,"(41.69996432764993, -87.6670511170422)",2015-06-02
100939,06/02/2015,Completed - Dup,06/02/2015,15-02412979,Abandoned Vehicle Complaint,,,,,,,4609 N LAWRENCE WILSON DR,60640.0,1172003.952323,1931271.64869438,46.0,19.0,3.0,,41.966954104392116,-87.64242425578738,"(41.966954104392116, -87.64242425578738)",2015-06-02
100940,06/02/2015,Completed - Dup,06/02/2015,15-02422865,Abandoned Vehicle Complaint,DR 947,(Unlisted Make),Black,FVI - Outcome,Create Work Order,3.0,4030 W CARROLL AVE,60624.0,1149463.7560222,1901931.41992998,28.0,11.0,26.0,,41.88692220341025,-87.7271099878673,"(41.88692220341025, -87.7271099878673)",2015-06-02
100941,06/01/2015,Completed - Dup,06/02/2015,15-02397301,Abandoned Vehicle Complaint,CJE 2085 MICHIGAN,Saab,Silver,FVI - Outcome,Create Work Order,15.0,1746 N MAPLEWOOD AVE,60647.0,1159095.12819076,1911514.15387023,1.0,14.0,22.0,,41.91345086493196,-87.6911141835771,"(41.91345086493196, -87.6911141835771)",2015-06-01
100942,06/01/2015,Completed - Dup,06/02/2015,15-02399326,Abandoned Vehicle Complaint,N80 6539,Pontiac,Gray,FVI - Outcome,Create Work Order,14.0,4510 W HUTCHINSON ST,60641.0,1145341.65701698,1927688.0383971,45.0,17.0,16.0,,41.957674705492884,-87.74117145204714,"(41.95767470549288, -87.74117145204714)",2015-06-01
100943,06/01/2015,Completed - Dup,06/02/2015,15-02400442,Abandoned Vehicle Complaint,X913764,Honda,Silver,,,14.0,6051 N MASON AVE,60646.0,1135583.80547165,1939848.86369667,39.0,16.0,11.0,,41.99168773701146,-87.7765018060573,"(41.99168773701146, -87.7765018060573)",2015-06-01
100944,06/01/2015,Completed - Dup,06/02/2015,15-02407569,Abandoned Vehicle Complaint,L387282,Mercury,Black,,,14.0,2439 W AINSLIE ST,60625.0,1159118.80998238,1932606.53003276,40.0,20.0,4.0,21.0,41.970689917521455,-87.69058992411064,"(41.970689917521455, -87.69058992411064)",2015-06-01
100945,06/01/2015,Completed,06/02/2015,15-02388294,Abandoned Vehicle Complaint,ESK108,Honda,Black,FVI - Outcome,Vehicle was moved from original address requested,21.0,10636 S WOOD ST,60643.0,,,19.0,22.0,72.0,,41.69990842819808,-87.6670491713548,"(41.69990842819808, -87.66704917135482)",2015-06-01
100946,06/01/2015,Completed,06/02/2015,15-02391909,Abandoned Vehicle Complaint,S676905,Pontiac,Red,FVI - Outcome,Vehicle was moved from original address requested,120.0,619 N MONTICELLO AVE,60624.0,,,27.0,11.0,23.0,,41.892401084272976,-87.71729597888374,"(41.892401084272976, -87.71729597888373)",2015-06-01
100947,06/01/2015,Completed,06/02/2015,15-02401605,Abandoned Vehicle Complaint,E573535,Volkswagen,Blue,FVI - Outcome,Return to Owner - Vehicle,15.0,2917 S QUINN ST,60608.0,,,11.0,9.0,60.0,,41.840529994418,-87.65008382069423,"(41.840529994418, -87.65008382069423)",2015-06-01
100950,06/01/2015,Completed - Dup,06/02/2015,15-02388242,Abandoned Vehicle Complaint,V333621,Chevrolet,Blue,FVI - Outcome,Create Work Order,21.0,10634 S WOOD ST,60643.0,1166240.72033443,1834025.09002208,19.0,22.0,72.0,,41.69996432764993,-87.66705111704219,"(41.69996432764993, -87.6670511170422)",2015-06-01
100951,06/01/2015,Completed - Dup,06/02/2015,15-02391179,Abandoned Vehicle Complaint,1184570,Infiniti/Q45,Black,FVI - Outcome,Create Work Order,90.0,1750 W AUGUSTA BLVD,60622.0,1164465.41723112,1906716.2289182,1.0,12.0,24.0,,41.89974993353447,-87.67180114714151,"(41.89974993353448, -87.67180114714151)",2015-06-01
100952,06/01/2015,Completed - Dup,06/02/2015,15-02391955,Abandoned Vehicle Complaint,DON'T HAVE,Ford,White,FVI - Outcome,Create Work Order,60.0,8756 S MANISTEE AVE,60617.0,1196152.35999401,1847447.51840183,7.0,4.0,46.0,,41.735633774454996,-87.55707254513139,"(41.735633774455, -87.55707254513139)",2015-06-01
100953,06/01/2015,Completed - Dup,06/02/2015,15-02394832,Abandoned Vehicle Complaint,1501044,(Unlisted Make),White,FVI - Outcome,Create Work Order,21.0,2443 N MANGO AVE,60639.0,1137642.87472974,1915660.42547298,30.0,25.0,19.0,,41.92520552118597,-87.76953613481214,"(41.92520552118597, -87.76953613481214)",2015-06-01
100954,06/01/2015,Completed - Dup,06/02/2015,15-02394847,Abandoned Vehicle Complaint,73627FF,Ford,Black,FVI - Outcome,Create Work Order,17.0,5820 W SCHOOL ST,60634.0,1136993.57568793,1921347.78221573,30.0,16.0,15.0,,41.94043895426051,-87.77230100849006,"(41.940438954260514, -87.77230100849007)",2015-06-01
101010,06/03/2015,Completed - Dup,06/03/2015,15-02439714,Abandoned Vehicle Complaint,R474052,Chevrolet,Maroon,FVI - Outcome,Create Work Order,30.0,853 N RIDGEWAY AVE,60651.0,1151230.72227755,1905435.58551951,27.0,11.0,23.0,63.0,41.896990481958774,-87.71987841072452,"(41.896990481958774, -87.71987841072453)",2015-06-03
101011,06/03/2015,Completed - Dup,06/03/2015,15-02440762,Abandoned Vehicle Complaint,V333621,Chevrolet,Blue,FVI - Outcome,Create Work Order,120.0,10636 S WOOD ST,60643.0,1166241.02033443,1834015.79002208,19.0,22.0,72.0,,41.69990842819808,-87.6670491713548,"(41.69990842819808, -87.66704917135482)",2015-06-03
101012,06/03/2015,Completed - Dup,06/03/2015,15-02443077,Abandoned Vehicle Complaint,UNKNOWN,General Motors Corp.,Beige,FVI - Outcome,Create Work Order,28.0,3855 W 57TH ST,60629.0,1151641.09879664,1866529.93977719,23.0,8.0,62.0,,41.789510515528,-87.72033084719263,"(41.789510515527994, -87.72033084719263)",2015-06-03
101013,06/03/2015,Completed,06/03/2015,15-02435278,Abandoned Vehicle Complaint,AWW3435,Chevrolet,Blue,FVI - Outcome,Vehicle was moved from original address requested,38.0,4349 N HARDING AVE,60618.0,1149277.74826818,1928613.59011208,39.0,17.0,16.0,,41.960591281916706,-87.7264464190151,"(41.9605912819167, -87.72644641901509)",2015-06-03
101014,06/03/2015,Completed,06/03/2015,15-02442090,Abandoned Vehicle Complaint,S79 5666,Chevrolet,Cream,FVI - Outcome,Vehicle was moved from original address requested,180.0,1100 S CAMPBELL AVE,60612.0,,,28.0,11.0,28.0,,41.868358180195706,-87.68866751531306,"(41.868358180195706, -87.68866751531307)",2015-06-03
101015,06/03/2015,Completed,06/03/2015,15-02442203,Abandoned Vehicle Complaint,K78 0712,Jeep - Year Greater 1988,Blue,FVI - Outcome,Vehicle was moved from original address requested,400.0,922 S CAMPBELL AVE,60612.0,,,28.0,11.0,28.0,,41.869483797360246,-87.6886974833885,"(41.86948379736025, -87.6886974833885)",2015-06-03
101016,06/02/2015,Completed,06/03/2015,15-02412654,Abandoned Vehicle Complaint,NO PLATE,Nissan,White,FVI - Outcome,Vehicle was moved from original address requested,2.0,316 W CHICAGO AVE,60654.0,,,27.0,18.0,8.0,,41.89667409709342,-87.63639568873215,"(41.896674097093424, -87.63639568873215)",2015-06-02
101017,06/02/2015,Completed,06/03/2015,15-02414157,Abandoned Vehicle Complaint,L165590,Mercury,Brown,FVI - Outcome,Vehicle was moved from original address requested,21.0,3013 W SACRAMENTO SQ,60612.0,,,27.0,12.0,23.0,,41.88956277662601,-87.70211641469075,"(41.88956277662601, -87.70211641469075)",2015-06-02
101018,06/02/2015,Completed,06/03/2015,15-02417523,Abandoned Vehicle Complaint,NONE,(Unlisted Make),Red,FVI - Outcome,Vehicle was moved from original address requested,15.0,451 N MENARD AVE,60644.0,,,29.0,15.0,25.0,,41.888693930077814,-87.76977208401934,"(41.88869393007781, -87.76977208401934)",2015-06-02
101019,06/02/2015,Completed,06/03/2015,15-02417983,Abandoned Vehicle Complaint,R474052,Chevrolet,Maroon,FVI - Outcome,Vehicle was moved from original address requested,21.0,853 N RIDGEWAY AVE,60651.0,,,27.0,11.0,23.0,63.0,41.896990481958774,-87.71987841072452,"(41.896990481958774, -87.71987841072453)",2015-06-02
101020,06/02/2015,Completed,06/03/2015,15-02421974,Abandoned Vehicle Complaint,NO PLATES,Pontiac,Burgundy,FVI - Outcome,Vehicle was moved from original address requested,65.0,1825 S CHRISTIANA AVE,60623.0,,,24.0,10.0,29.0,,41.8557304158433,-87.70887554021175,"(41.855730415843304, -87.70887554021175)",2015-06-02
101021,06/02/2015,Completed,06/03/2015,15-02422384,Abandoned Vehicle Complaint,S102933,Hyundai,Beige,FVI - Outcome,Vehicle was moved from original address requested,7.0,2400 W 40TH ST,60632.0,,,12.0,9.0,58.0,,41.821208879473225,-87.68483484931177,"(41.821208879473225, -87.68483484931176)",2015-06-02
101022,06/02/2015,Completed,06/03/2015,15-02427385,Abandoned Vehicle Complaint,UNKNOWN,Nissan,Gray,FVI - Outcome,Vehicle was moved from original address requested,21.0,3041 S HARDING AVE,60623.0,,,22.0,10.0,30.0,,41.837510991484535,-87.72299816691853,"(41.83751099148454, -87.72299816691853)",2015-06-02
101023,06/02/2015,Completed,06/03/2015,15-02429977,Abandoned Vehicle Complaint,NO REAR PLATE,Ford,Black,FVI - Outcome,Vehicle was moved from original address requested,14.0,2610 S GREEN ST,60608.0,,,11.0,9.0,60.0,,41.844903080623524,-87.64767481120896,"(41.84490308062352, -87.64767481120896)",2015-06-02
101024,06/02/2015,Completed - Dup,06/03/2015,15-02424588,Abandoned Vehicle Complaint,3131107,Cadillac,Brown,FVI - Outcome,Create Work Order,30.0,1322 W 72ND ST,60636.0,1168585.27199278,1857018.60701603,6.0,7.0,67.0,,41.76328298454942,-87.65827739741562,"(41.76328298454942, -87.65827739741563)",2015-06-02
101025,06/02/2015,Completed - Dup,06/03/2015,15-02425704,Abandoned Vehicle Complaint,8900601,Chevrolet,Maroon,FVI - Outcome,Create Work Order,14.0,1839 W MELROSE ST,60657.0,1163436.7702847,1921607.18681015,47.0,19.0,5.0,,41.94041206450765,-87.67547015039125,"(41.94041206450765, -87.67547015039125)",2015-06-02
101026,06/02/2015,Completed - Dup,06/03/2015,15-02425896,Abandoned Vehicle Complaint,8900601,Chevrolet,Maroon,FVI - Outcome,Create Work Order,14.0,1839 W MELROSE ST,60657.0,1163436.7702847,1921607.18681015,47.0,19.0,5.0,,41.94041206450765,-87.67547015039125,"(41.94041206450765, -87.67547015039125)",2015-06-02
101027,06/02/2015,Completed - Dup,06/03/2015,15-02427826,Abandoned Vehicle Complaint,1501044,Chevrolet,White,FVI - Outcome,Create Work Order,21.0,2443 N MANGO AVE,60639.0,1137642.87472974,1915660.42547298,30.0,25.0,19.0,,41.92520552118597,-87.76953613481214,"(41.92520552118597, -87.76953613481214)",2015-06-02
101028,06/02/2015,Completed,06/03/2015,15-02409676,Abandoned Vehicle Complaint,V746018,Toyota,Black,FVI - Outcome,Vehicle was moved from original address requested,10.0,3957 W HURON ST,60624.0,,,37.0,11.0,23.0,,41.893425099951365,-87.72576570773815,"(41.893425099951365, -87.72576570773815)",2015-06-02
101029,06/02/2015,Completed,06/03/2015,15-02409745,Abandoned Vehicle Complaint,NLP,Buick,Black,FVI - Outcome,Return to Owner - Vehicle,10.0,3960 W ERIE ST,60624.0,,,37.0,11.0,23.0,,41.89301438144328,-87.72587249460855,"(41.89301438144328, -87.72587249460855)",2015-06-02
101030,06/02/2015,Completed,06/03/2015,15-02411154,Abandoned Vehicle Complaint,E436884,Buick,Maroon,FVI - Outcome,Vehicle was moved from original address requested,10.0,6032 N AUSTIN AVE,60646.0,,,39.0,16.0,10.0,,41.99121813695964,-87.7780243278735,"(41.99121813695964, -87.7780243278735)",2015-06-02
101031,06/02/2015,Completed,06/03/2015,15-02411413,Abandoned Vehicle Complaint,A97 9671,Lexus,Green,FVI - Outcome,Need Vehicle Tow Report,,6205 N RIDGEWAY AVE,60659.0,,,39.0,17.0,13.0,,41.993920039452355,-87.72253886053664,"(41.99392003945236, -87.72253886053666)",2015-06-02
101032,06/02/2015,Completed,06/03/2015,15-02411672,Abandoned Vehicle Complaint,NO PLATES,Toyota,Silver,FVI - Outcome,Vehicle was moved from original address requested,14.0,1418 E 57TH ST,60637.0,,,5.0,2.0,41.0,,41.79161834950028,-87.5907516151542,"(41.791618349500276, -87.5907516151542)",2015-06-02
101033,06/02/2015,Completed,06/03/2015,15-02411776,Abandoned Vehicle Complaint,NO PLATES-,"(Homemade Motorcycle, Moped.Etc.)",Black,FVI - Outcome,Vehicle was moved from original address requested,20.0,2400 W GREENLEAF AVE,60645.0,,,50.0,24.0,2.0,,42.00962149073405,-87.6902566772932,"(42.00962149073405, -87.6902566772932)",2015-06-02
101034,06/01/2015,Completed,06/03/2015,15-02384959,Abandoned Vehicle Complaint,DF 6079,(Unlisted Make),Yellow,FVI - Outcome,Vehicle was moved from original address requested,30.0,2040 W AINSLIE ST,60625.0,,,40.0,20.0,4.0,,41.97065826586788,-87.68086249332191,"(41.970658265867876, -87.6808624933219)",2015-06-01
101035,06/01/2015,Completed,06/03/2015,15-02387211,Abandoned Vehicle Complaint,152S814,Chevrolet,White,FVI - Outcome,Vehicle was moved from original address requested,14.0,2239 S KILDARE AVE,60623.0,,,22.0,10.0,29.0,,41.85027006417624,-87.73106438803885,"(41.85027006417624, -87.73106438803885)",2015-06-01
101036,06/01/2015,Completed,06/03/2015,15-02389241,Abandoned Vehicle Complaint,G202449,Oldsmobile,Beige,FVI - Outcome,Return to Owner - Vehicle,90.0,2263 S SPRINGFIELD AVE,60623.0,,,22.0,10.0,30.0,,41.84982724650536,-87.72208693548212,"(41.84982724650537, -87.72208693548212)",2015-06-01
101037,06/01/2015,Completed,06/03/2015,15-02389428,Abandoned Vehicle Complaint,X343344,"Monon Trailer, Div. Of Evans Products Co.",Red,FVI - Outcome,Vehicle was moved from original address requested,35.0,3053 W 21ST PL,60623.0,,,24.0,10.0,30.0,,41.852608430696094,-87.7024296949017,"(41.852608430696094, -87.70242969490168)",2015-06-01
101038,06/01/2015,Completed,06/03/2015,15-02391589,Abandoned Vehicle Complaint,E23 2917,Bmw,Silver,FVI - Outcome,Vehicle was moved from original address requested,7.0,6108 N MOODY AVE,60646.0,,,39.0,16.0,10.0,,41.99241348706745,-87.7818395602482,"(41.99241348706745, -87.7818395602482)",2015-06-01
101039,06/01/2015,Completed,06/03/2015,15-02392549,Abandoned Vehicle Complaint,86209,Chevrolet,Black,FVI - Outcome,Vehicle was moved from original address requested,10.0,6245 N KEDZIE AVE,60659.0,,,50.0,24.0,2.0,,41.995152658168266,-87.70913626849085,"(41.995152658168266, -87.70913626849085)",2015-06-01
101040,06/01/2015,Completed,06/03/2015,15-02393280,Abandoned Vehicle Complaint,L454568,Honda,Black,FVI - Outcome,Return to Owner - Vehicle,14.0,7208 W SCHOOL ST,60634.0,,,29.0,16.0,17.0,,41.93991467217594,-87.80721046027134,"(41.93991467217594, -87.80721046027135)",2015-06-01
101041,06/01/2015,Completed,06/03/2015,15-02394831,Abandoned Vehicle Complaint,E83 0837,Chevrolet,Silver,FVI - Outcome,Vehicle was moved from original address requested,60.0,6611 S GREENWOOD AVE,60637.0,,,5.0,3.0,42.0,,41.77465149808719,-87.59957304930047,"(41.77465149808719, -87.59957304930049)",2015-06-01
101042,06/01/2015,Completed,06/03/2015,15-02400421,Abandoned Vehicle Complaint,5152952,Ford,Red,FVI - Outcome,Return to Owner - Vehicle,110114.0,1620 W WALLEN AVE,60626.0,,,49.0,24.0,1.0,24.0,42.00273481937501,-87.67142997750629,"(42.00273481937501, -87.67142997750629)",2015-06-01
101043,06/01/2015,Completed,06/03/2015,15-02402805,Abandoned Vehicle Complaint,V776682,Subaru,Green,FVI - Outcome,Vehicle was moved from original address requested,22.0,5819 S HARPER AVE,60637.0,,,5.0,2.0,41.0,,41.789057755685846,-87.58882559093075,"(41.78905775568585, -87.58882559093075)",2015-06-01
101090,06/03/2015,Completed - Dup,06/04/2015,15-02453396,Abandoned Vehicle Complaint,L863002,Chevrolet,Blue,FVI - Outcome,Create Work Order,30.0,6337 S TROY ST,60629.0,1156476.34098967,1862438.5985283002,17.0,8.0,66.0,3.0,41.77784564125012,-87.70174100643,"(41.77784564125012, -87.70174100643)",2015-06-03
101091,06/03/2015,Completed,06/04/2015,15-02440148,Abandoned Vehicle Complaint,M569217,Mercury,Gray,FVI - Outcome,Vehicle was moved from original address requested,20.0,4506 S TALMAN AVE,60632.0,,,15.0,9.0,58.0,,41.81170551022182,-87.69078806873728,"(41.81170551022182, -87.69078806873728)",2015-06-03
101092,06/03/2015,Completed,06/04/2015,15-02460371,Abandoned Vehicle Complaint,752 6985,Buick,Blue,FVI - Outcome,Vehicle was moved from original address requested,36.0,3531 W 63RD PL,60629.0,,,23.0,8.0,66.0,,41.777798663773105,-87.71161419060681,"(41.7777986637731, -87.7116141906068)",2015-06-03
101093,06/02/2015,Completed - Dup,06/04/2015,15-02424705,Abandoned Vehicle Complaint,S915371,Chevrolet,White,FVI - Outcome,Vehicle was moved from original address requested,10.0,4216 N HARDING AVE,60618.0,,,39.0,17.0,16.0,,41.95785685033202,-87.72666280252722,"(41.95785685033202, -87.72666280252722)",2015-06-02
101094,06/02/2015,Completed,06/04/2015,15-02409660,Abandoned Vehicle Complaint,8562203,Chevrolet,Black,FVI - Outcome,Vehicle was moved from original address requested,21.0,6337 S TROY ST,60629.0,,,17.0,8.0,66.0,3.0,41.77784564125012,-87.70174100643,"(41.77784564125012, -87.70174100643)",2015-06-02
101095,06/02/2015,Completed,06/04/2015,15-02412375,Abandoned Vehicle Complaint,R195374,Honda,White,FVI - Outcome,Return to Owner - Vehicle,,5025 N KENNISON AVE,60630.0,,,39.0,17.0,14.0,,41.97249509919335,-87.74123985152856,"(41.97249509919335, -87.74123985152856)",2015-06-02
101096,06/02/2015,Completed,06/04/2015,15-02414047,Abandoned Vehicle Complaint,H282173,Chevrolet,Burgundy,FVI - Outcome,Vehicle was moved from original address requested,21.0,5647 S KEELER AVE,60629.0,,,13.0,8.0,62.0,,41.78998526963587,-87.7278257440057,"(41.78998526963587, -87.72782574400571)",2015-06-02
101097,06/02/2015,Completed,06/04/2015,15-02415791,Abandoned Vehicle Complaint,NONE,Buick,Gray,FVI - Outcome,Vehicle was moved from original address requested,30.0,18 N LAKEFRONT DR,60602.0,,,42.0,1.0,32.0,,41.88264675128993,-87.61522600432959,"(41.88264675128993, -87.6152260043296)",2015-06-02
101098,06/02/2015,Completed,06/04/2015,15-02422732,Abandoned Vehicle Complaint,NO PLATES,Jeep/Cherokee,White,FVI - Outcome,Return to Owner - Vehicle,5.0,5503 S NORDICA AVE,60638.0,,,23.0,8.0,56.0,,41.791886631299974,-87.79757419390587,"(41.79188663129998, -87.79757419390587)",2015-06-02
101099,06/02/2015,Completed,06/04/2015,15-02424571,Abandoned Vehicle Complaint,X808505,Audi,Gray,FVI - Outcome,Vehicle was moved from original address requested,10.0,4216 N HARDING AVE,60618.0,,,39.0,17.0,16.0,,41.95785685033202,-87.72666280252722,"(41.95785685033202, -87.72666280252722)",2015-06-02
101100,06/02/2015,Completed,06/04/2015,15-02425849,Abandoned Vehicle Complaint,UNKNOWN,General Motors Corp.,Tan,FVI - Outcome,Vehicle was moved from original address requested,14.0,3855 W 57TH ST,60629.0,,,23.0,8.0,62.0,,41.789510515528,-87.72033084719263,"(41.789510515527994, -87.72033084719263)",2015-06-02
101101,06/02/2015,Completed,06/04/2015,15-02426600,Abandoned Vehicle Complaint,UNKNOWN,Kia Motors Corp,Gold,FVI - Outcome,Vehicle was moved from original address requested,7.0,6714 S KOLIN AVE,60629.0,,,13.0,8.0,65.0,,41.77078242059854,-87.73123678746437,"(41.77078242059854, -87.73123678746438)",2015-06-02
101102,06/01/2015,Completed,06/04/2015,15-02391528,Abandoned Vehicle Complaint,E519736,Mercedes,Red,FVI - Outcome,Vehicle was moved from original address requested,30.0,2512 N BOSWORTH AVE,60614.0,,,32.0,19.0,7.0,,41.92734532721824,-87.66716388269737,"(41.92734532721824, -87.66716388269737)",2015-06-01
101103,06/01/2015,Completed,06/04/2015,15-02392645,Abandoned Vehicle Complaint,5949263,Ford,Brown,FVI - Outcome,Vehicle was moved from original address requested,30.0,4400 S HOMAN AVE,60632.0,,,14.0,8.0,58.0,,41.813457143797024,-87.7092366380682,"(41.813457143797024, -87.7092366380682)",2015-06-01
101104,06/01/2015,Completed,06/04/2015,15-02392647,Abandoned Vehicle Complaint,UNKNOW,Oldsmobile,Maroon,FVI - Outcome,Vehicle was moved from original address requested,30.0,5214 S KILDARE AVE,60632.0,,,23.0,8.0,57.0,,41.798163735633885,-87.7308054607637,"(41.79816373563389, -87.7308054607637)",2015-06-01
101105,06/01/2015,Completed,06/04/2015,15-02398738,Abandoned Vehicle Complaint,S103048,Toyota,Red,FVI - Outcome,Vehicle was moved from original address requested,60.0,5224 S KILBOURN AVE,60632.0,,,23.0,8.0,57.0,,41.797808706702476,-87.73568836908919,"(41.79780870670248, -87.73568836908919)",2015-06-01
101106,06/01/2015,Completed,06/04/2015,15-02400975,Abandoned Vehicle Complaint,X60 1118,Honda,Black,FVI - Outcome,Vehicle was moved from original address requested,15.0,3707 W MARQUETTE RD,60629.0,,,13.0,8.0,65.0,,41.771371528463334,-87.7155705895817,"(41.771371528463334, -87.7155705895817)",2015-06-01
101107,06/01/2015,Completed,06/04/2015,15-02403448,Abandoned Vehicle Complaint,643 3636,Honda,Red,FVI - Outcome,Return to Owner - Vehicle,30.0,6507 N MOZART ST,60645.0,,,50.0,24.0,2.0,,41.99962575706642,-87.70077613119881,"(41.999625757066426, -87.70077613119881)",2015-06-01
101146,06/05/2015,Completed,06/05/2015,15-02484363,Abandoned Vehicle Complaint,367092D,Ford,White,FVI - Outcome,Vehicle was moved from original address requested,10.0,3000 N OCTAVIA AVE,60707.0,,,29.0,25.0,17.0,,41.934554832379405,-87.80921605597473,"(41.934554832379405, -87.80921605597474)",2015-06-05
101147,06/05/2015,Completed,06/05/2015,15-02486099,Abandoned Vehicle Complaint,CAN'T SEE FROM WINDOW,(Unlisted Make),White,FVI - Outcome,Vehicle was moved from original address requested,4.0,4733 W 63RD ST,60629.0,,,13.0,8.0,64.0,3.0,41.778333231440314,-87.74112834132774,"(41.77833323144031, -87.74112834132775)",2015-06-05
101148,06/04/2015,Completed - Dup,06/05/2015,15-02465931,Abandoned Vehicle Complaint,V333621,Chevrolet,Gray,FVI - Outcome,Create Work Order,30.0,10634 S WOOD ST,60643.0,1166240.72033443,1834025.09002208,19.0,22.0,72.0,,41.69996432764993,-87.66705111704219,"(41.69996432764993, -87.6670511170422)",2015-06-04
101149,06/04/2015,Completed - Dup,06/05/2015,15-02471400,Abandoned Vehicle Complaint,613MUB,Nissan,Green,FVI - Outcome,Create Work Order,21.0,5745 S RICHMOND ST,60629.0,1157692.99698899,1866401.84787775,16.0,8.0,63.0,,41.78865576463984,-87.69717236088684,"(41.78865576463984, -87.69717236088684)",2015-06-04
101150,06/04/2015,Completed - Dup,06/05/2015,15-02471582,Abandoned Vehicle Complaint,V51 8477,Suzuki,Gray,FVI - Outcome,Create Work Order,14.0,3552 W CARMEN AVE,60625.0,1151702.16416768,1933654.18000593,39.0,17.0,13.0,,41.97392891484957,-87.71806889734668,"(41.97392891484957, -87.71806889734668)",2015-06-04
101151,06/04/2015,Completed - Dup,06/05/2015,15-02477301,Abandoned Vehicle Complaint,V333621,Chevrolet,Gray,FVI - Outcome,Create Work Order,25.0,10636 S WOOD ST,60643.0,1166241.02033443,1834015.79002208,19.0,22.0,72.0,,41.69990842819808,-87.6670491713548,"(41.69990842819808, -87.66704917135482)",2015-06-04
101152,06/04/2015,Completed,06/05/2015,15-02464819,Abandoned Vehicle Complaint,DEG5959,Chevrolet,Black,FVI - Outcome,Return to Owner - Vehicle,14.0,3112 S PRAIRIE AVE,60616.0,,,3.0,2.0,35.0,,41.83794686497564,-87.62077257869491,"(41.837946864975635, -87.62077257869491)",2015-06-04
101153,06/04/2015,Completed,06/05/2015,15-02465680,Abandoned Vehicle Complaint,642 XFC WISCONSIN,Ford,Silver,FVI - Outcome,Vehicle was moved from original address requested,60.0,3818 W 27TH ST,60623.0,,,22.0,10.0,30.0,25.0,41.842576756920465,-87.72051064221736,"(41.84257675692046, -87.72051064221738)",2015-06-04
101154,06/04/2015,Completed,06/05/2015,15-02471840,Abandoned Vehicle Complaint,X738030,Chevrolet,Gray,FVI - Outcome,Vehicle was moved from original address requested,20.0,6350 S UNIVERSITY AVE,60637.0,,,20.0,3.0,42.0,,41.77912759961807,-87.59755471983325,"(41.77912759961807, -87.59755471983327)",2015-06-04
101155,06/04/2015,Completed,06/05/2015,15-02473070,Abandoned Vehicle Complaint,AJZ7338,Hyundai,White,FVI - Outcome,Vehicle was moved from original address requested,10.0,14 N STATE ST,60602.0,,,42.0,1.0,32.0,1.0,41.882360207612976,-87.62798922395605,"(41.88236020761298, -87.62798922395605)",2015-06-04
101156,06/04/2015,Completed,06/05/2015,15-02474583,Abandoned Vehicle Complaint,V82 9337,(Unlisted Make),Green,FVI - Outcome,Vehicle was moved from original address requested,15.0,1608 W LE MOYNE ST,60622.0,,,2.0,14.0,24.0,33.0,41.90921609737315,-87.6680866175448,"(41.909216097373154, -87.66808661754479)",2015-06-04
101157,06/03/2015,Completed - Dup,06/05/2015,15-02451601,Abandoned Vehicle Complaint,K781758,Dodge,Gray,FVI - Outcome,Create Work Order,30.0,5325 W WINONA ST,60630.0,1139918.56072907,1933736.10842178,45.0,16.0,11.0,,41.97415972099997,-87.76128189944326,"(41.974159720999964, -87.76128189944326)",2015-06-03
101158,06/03/2015,Completed - Dup,06/05/2015,15-02458145,Abandoned Vehicle Complaint,V333621,Chevrolet,Gray,FVI - Outcome,Create Work Order,23.0,10636 S WOOD ST,60643.0,1166241.02033443,1834015.79002208,19.0,22.0,72.0,,41.69990842819808,-87.6670491713548,"(41.69990842819808, -87.66704917135482)",2015-06-03
101159,06/03/2015,Completed,06/05/2015,15-02436332,Abandoned Vehicle Complaint,R44 1375,Honda,Blue,FVI - Outcome,Vehicle was moved from original address requested,5.0,8221 S KOMENSKY AVE,60652.0,,,18.0,8.0,70.0,,41.7434686401149,-87.72225414019351,"(41.7434686401149, -87.72225414019351)",2015-06-03
101160,06/02/2015,Completed,06/05/2015,15-02418721,Abandoned Vehicle Complaint,NO PLATE,Ford,Blue,FVI - Outcome,Vehicle was moved from original address requested,30.0,6654 S STATE ST,60637.0,,,20.0,3.0,69.0,,41.77330818349324,-87.62528892180114,"(41.77330818349324, -87.62528892180114)",2015-06-02
101161,06/02/2015,Completed,06/05/2015,15-02419043,Abandoned Vehicle Complaint,390873TA,(Homemade Trailer),Brown,FVI - Outcome,Vehicle was moved from original address requested,7.0,6441 S ST LAWRENCE AVE,60637.0,,,20.0,3.0,42.0,,41.77729155978498,-87.61058593750374,"(41.77729155978498, -87.61058593750373)",2015-06-02
101162,06/02/2015,Completed,06/05/2015,15-02419872,Abandoned Vehicle Complaint,NO PLATES,Chevrolet,White,FVI - Outcome,Return to Owner - Vehicle,30.0,2051 W CULLERTON ST,60608.0,,,25.0,12.0,31.0,,41.85478762462013,-87.67793966235922,"(41.85478762462013, -87.67793966235922)",2015-06-02
101163,06/02/2015,Completed,06/05/2015,15-02419877,Abandoned Vehicle Complaint,NO PLATES,Chevrolet,Black,FVI - Outcome,Return to Owner - Vehicle,30.0,2053 W CULLERTON ST,60608.0,,,25.0,12.0,31.0,,41.854786616770575,-87.67801565129506,"(41.85478661677057, -87.67801565129504)",2015-06-02
101164,06/02/2015,Completed,06/05/2015,15-02419983,Abandoned Vehicle Complaint,NONE,Chevrolet,White,FVI - Outcome,Return to Owner - Vehicle,6.0,2049 W CULLERTON ST,60608.0,,,25.0,12.0,31.0,,41.8547886324194,-87.67786367342165,"(41.8547886324194, -87.67786367342165)",2015-06-02
101165,06/02/2015,Completed,06/05/2015,15-02429288,Abandoned Vehicle Complaint,N672272,Toyota,White,FVI - Outcome,Vehicle was moved from original address requested,14.0,9834 S BEVERLY AVE,60643.0,,,21.0,22.0,73.0,69.0,41.71484077445817,-87.66020154293992,"(41.71484077445817, -87.6602015429399)",2015-06-02
101166,06/01/2015,Completed,06/05/2015,15-02389722,Abandoned Vehicle Complaint,PLP,Ford,White,FVI - Outcome,Vehicle was moved from original address requested,10.0,5149 W DAKIN ST,60641.0,,,45.0,16.0,15.0,,41.952250379684095,-87.75661278902348,"(41.95225037968409, -87.75661278902349)",2015-06-01
101167,06/01/2015,Completed,06/05/2015,15-02392520,Abandoned Vehicle Complaint,8793174,Legacy Unknown,Red,FVI - Outcome,Vehicle was moved from original address requested,21.0,946 N WASHTENAW AVE,60622.0,,,26.0,12.0,24.0,,41.89890718174882,-87.69446470720553,"(41.89890718174881, -87.69446470720553)",2015-06-01
101168,06/01/2015,Completed,06/05/2015,15-02392764,Abandoned Vehicle Complaint,V687644,Cadillac,Black,FVI - Outcome,Vehicle was moved from original address requested,10.0,80 E 80TH ST,60619.0,,,6.0,6.0,44.0,,41.749287637227795,-87.62141781138412,"(41.7492876372278, -87.62141781138412)",2015-06-01
101169,06/05/2015,Completed - Dup,06/08/2015,15-02492960,Abandoned Vehicle Complaint,H285753,Lincoln,White,FVI - Outcome,Create Work Order,35.0,4153 N KIMBALL AVE,60618.0,1152974.1169,1927577.069925,33.0,17.0,16.0,,41.957284606546025,-87.71287146024933,"(41.95728460654602, -87.71287146024933)",2015-06-05
101170,06/01/2015,Completed,06/05/2015,15-02395033,Abandoned Vehicle Complaint,R69 0254,Cadillac,Beige,FVI - Outcome,Vehicle was moved from original address requested,90.0,8602 W FOSTER AVE,60656.0,,,41.0,16.0,76.0,,41.97389177049929,-87.8417028217216,"(41.9738917704993, -87.8417028217216)",2015-06-01
101171,06/01/2015,Completed,06/05/2015,15-02398925,Abandoned Vehicle Complaint,UNKNWN,(Unlisted Make),Unknown,FVI - Outcome,Vehicle was moved from original address requested,20.0,6617 S ST LAWRENCE AVE,60637.0,,,20.0,3.0,42.0,,41.77433394478419,-87.61051795108696,"(41.77433394478419, -87.61051795108696)",2015-06-01
101179,06/07/2015,Completed - Dup,06/08/2015,15-02535508,Abandoned Vehicle Complaint,V829337,Chrysler,Green,FVI - Outcome,Create Work Order,30.0,1514 N ASHLAND AVE,60622.0,1165446.16001269,1910280.19009049,2.0,14.0,24.0,33.0,41.90921562833664,-87.66779743560471,"(41.90921562833664, -87.66779743560471)",2015-06-07
101180,06/07/2015,Completed - Dup,06/08/2015,15-02536645,Abandoned Vehicle Complaint,V333621,Chevrolet,Gray,FVI - Outcome,Create Work Order,30.0,10636 S WOOD ST,60643.0,1166241.02033443,1834015.79002208,19.0,22.0,72.0,,41.69990842819808,-87.6670491713548,"(41.69990842819808, -87.66704917135482)",2015-06-07
101181,06/07/2015,Completed - Dup,06/08/2015,15-02542195,Abandoned Vehicle Complaint,X320963,Ford,Green,FVI - Outcome,Create Work Order,19.0,6226 W CORNELIA AVE,60634.0,1134258.18479523,1922621.99081038,36.0,16.0,17.0,,41.94398414553884,-87.78240511046191,"(41.94398414553884, -87.78240511046191)",2015-06-07
101182,06/07/2015,Completed - Dup,06/08/2015,15-02542735,Abandoned Vehicle Complaint,Y72 7833,(Unlisted Make),Blue,FVI - Outcome,Create Work Order,14.0,4418 N SPRINGFIELD AVE,60625.0,1149597.07267262,1929080.39428493,35.0,17.0,14.0,,41.9615414164593,-87.72554315053856,"(41.9615414164593, -87.72554315053856)",2015-06-07
101183,06/07/2015,Completed - Dup,06/08/2015,15-02546522,Abandoned Vehicle Complaint,118S739 (TEMP PLATE),Ford,White,FVI - Outcome,Create Work Order,21.0,3837 W WILSON AVE,60625.0,1149862.03969792,1930291.00922775,35.0,17.0,14.0,,41.96452272225867,-87.72455547029669,"(41.96452272225867, -87.72455547029669)",2015-06-07
101184,06/07/2015,Completed,06/08/2015,15-02537672,Abandoned Vehicle Complaint,NO PLATE,Pontiac,Gold,FVI - Outcome,Vehicle was moved from original address requested,31.0,13429 S BALTIMORE AVE,60633.0,,,10.0,4.0,55.0,,41.650969323926454,-87.5470143678092,"(41.65096932392645, -87.5470143678092)",2015-06-07
101185,06/08/2015,Completed - Dup,06/08/2015,15-02559658,Abandoned Vehicle Complaint,V333621,Chevrolet,Gray,FVI - Outcome,Create Work Order,32.0,10636 S WOOD ST,60643.0,1166241.02033443,1834015.79002208,19.0,22.0,72.0,,41.69990842819808,-87.6670491713548,"(41.69990842819808, -87.66704917135482)",2015-06-08
101186,06/08/2015,Completed - Dup,06/08/2015,15-02563571,Abandoned Vehicle Complaint,V 72 3089,Lexus,Black,FVI - Outcome,Create Work Order,17.0,6851 W GEORGE ST,60634.0,1130152.35743024,1918515.8547057,36.0,25.0,18.0,,41.93256740539282,-87.79759572348772,"(41.93256740539281, -87.79759572348772)",2015-06-08
101187,06/06/2015,Completed - Dup,06/08/2015,15-02513031,Abandoned Vehicle Complaint,V333621,Chevrolet,Gray,FVI - Outcome,Create Work Order,28.0,10636 S WOOD ST,60643.0,1166241.02033443,1834015.79002208,19.0,22.0,72.0,,41.69990842819808,-87.6670491713548,"(41.69990842819808, -87.66704917135482)",2015-06-06
101188,06/06/2015,Completed - Dup,06/08/2015,15-02515315,Abandoned Vehicle Complaint,V36 3297,Ford,White,FVI - Outcome,Create Work Order,15.0,9502 S GREENWOOD AVE,60628.0,1185206.42998198,1842190.85077205,8.0,5.0,50.0,51.0,41.7220048400813,-87.59735316645428,"(41.722004840081304, -87.59735316645428)",2015-06-06
101189,06/06/2015,Completed,06/08/2015,15-02508442,Abandoned Vehicle Complaint,UNKNOWN,Nissan,Black,FVI - Outcome,Vehicle was moved from original address requested,180.0,5334 S SEELEY AVE,60609.0,,,16.0,9.0,61.0,,41.796538674542475,-87.67573900648925,"(41.79653867454248, -87.67573900648927)",2015-06-06
101190,06/05/2015,Completed,06/08/2015,15-02487094,Abandoned Vehicle Complaint,E706351,Mitsubishi,White,FVI - Outcome,Vehicle was moved from original address requested,14.0,5515 S SAWYER AVE,60629.0,,,14.0,8.0,63.0,,41.79301259248973,-87.70461898209555,"(41.793012592489724, -87.70461898209554)",2015-06-05
101191,06/05/2015,Completed,06/08/2015,15-02488486,Abandoned Vehicle Complaint,NO PLATE,Pontiac,Gold,FVI - Outcome,Vehicle was moved from original address requested,30.0,13301 S BALTIMORE AVE,60633.0,,,10.0,4.0,55.0,,41.65358680237146,-87.54700347255768,"(41.65358680237145, -87.54700347255768)",2015-06-05
101192,06/04/2015,Completed,06/08/2015,15-02464862,Abandoned Vehicle Complaint,70528,Ford,White,FVI - Outcome,Vehicle was moved from original address requested,7.0,5216 S MASSASOIT AVE,60638.0,,,14.0,8.0,56.0,,41.79762777267453,-87.76625632988049,"(41.79762777267453, -87.76625632988048)",2015-06-04
101193,06/04/2015,Completed,06/08/2015,15-02474778,Abandoned Vehicle Complaint,E481820,General Motors Corp.,White,FVI - Outcome,Return to Owner - Vehicle,60.0,3009 E 90TH ST,60617.0,,,10.0,4.0,46.0,5.0,41.73179792738125,-87.55086919767609,"(41.731797927381244, -87.55086919767608)",2015-06-04
101194,06/03/2015,Completed,06/08/2015,15-02439163,Abandoned Vehicle Complaint,V128532,Legacy Unknown,Green,FVI - Outcome,Vehicle was moved from original address requested,20.0,10525 S AVENUE F,60617.0,,,10.0,4.0,52.0,,41.70377129631567,-87.53030529024478,"(41.70377129631567, -87.5303052902448)",2015-06-03
101195,06/03/2015,Completed,06/08/2015,15-02439639,Abandoned Vehicle Complaint,K735962,Jeep - Year Greater 1988,Blue,FVI - Outcome,Vehicle was moved from original address requested,7.0,2017 W TOUHY AVE,60645.0,,,49.0,24.0,1.0,,42.0124151561784,-87.6808981257806,"(42.0124151561784, -87.68089812578059)",2015-06-03
101196,06/03/2015,Completed,06/08/2015,15-02441903,Abandoned Vehicle Complaint,0000,Nissan,Black,FVI - Outcome,Vehicle was moved from original address requested,20.0,2338 W CORNELIA AVE,60618.0,,,47.0,19.0,5.0,38.0,41.94503869361283,-87.68730701132911,"(41.94503869361283, -87.68730701132912)",2015-06-03
101197,06/03/2015,Completed,06/08/2015,15-02443443,Abandoned Vehicle Complaint,L776256,Buick,White,FVI - Outcome,Vehicle was moved from original address requested,14.0,2000 W WILSON AVE,60625.0,,,47.0,19.0,4.0,,41.965204857356646,-87.67916642321134,"(41.965204857356646, -87.67916642321134)",2015-06-03
101198,06/03/2015,Completed,06/08/2015,15-02444635,Abandoned Vehicle Complaint,N12520,Ford,White,FVI - Outcome,Vehicle was moved from original address requested,13.0,2707 W JARLATH ST,60645.0,,,50.0,24.0,2.0,,42.01291237830129,-87.69768110845112,"(42.01291237830129, -87.69768110845112)",2015-06-03
101199,06/03/2015,Completed,06/08/2015,15-02446241,Abandoned Vehicle Complaint,4930697,Ford,Purple,FVI - Outcome,Vehicle was moved from original address requested,20.0,6221 S MOZART ST,60629.0,,,16.0,8.0,66.0,3.0,41.78026612207801,-87.69449881638303,"(41.78026612207801, -87.69449881638305)",2015-06-03
101200,06/03/2015,Completed,06/08/2015,15-02446275,Abandoned Vehicle Complaint,Z10990,Chevrolet,Purple,FVI - Outcome,Vehicle was moved from original address requested,30.0,6219 S MOZART ST,60629.0,,,16.0,8.0,66.0,3.0,41.780322673761795,-87.69450014487008,"(41.780322673761795, -87.69450014487008)",2015-06-03
101201,06/03/2015,Completed,06/08/2015,15-02446326,Abandoned Vehicle Complaint,17995X,General Motors Corp.,Silver,FVI - Outcome,Vehicle was moved from original address requested,20.0,6217 S MOZART ST,60629.0,,,16.0,8.0,66.0,3.0,41.78037922544501,-87.69450147335883,"(41.78037922544501, -87.69450147335881)",2015-06-03
101202,06/03/2015,Completed,06/08/2015,15-02449188,Abandoned Vehicle Complaint,0,(Unlisted Make),Blue,FVI - Outcome,Vehicle was moved from original address requested,10.0,13036 S AVENUE N,60633.0,,,10.0,4.0,55.0,,41.65800620570829,-87.53882703666689,"(41.65800620570829, -87.53882703666689)",2015-06-03
101203,06/03/2015,Completed,06/08/2015,15-02450205,Abandoned Vehicle Complaint,70212,Chevrolet,Maroon,FVI - Outcome,Vehicle was moved from original address requested,9.0,5323 N BELL AVE,60625.0,,,40.0,20.0,4.0,,41.9784900004322,-87.68544623009336,"(41.978490000432195, -87.68544623009336)",2015-06-03
101204,06/03/2015,Completed,06/08/2015,15-02450432,Abandoned Vehicle Complaint,H830432,Chevrolet,Black,FVI - Outcome,Vehicle was moved from original address requested,14.0,4733 N MAPLEWOOD AVE,60625.0,,,40.0,19.0,4.0,21.0,41.96772472975105,-87.6923990256985,"(41.96772472975105, -87.6923990256985)",2015-06-03
101205,06/03/2015,Completed,06/08/2015,15-02452420,Abandoned Vehicle Complaint,RVL9999,Mitsubishi,Gray,FVI - Outcome,Vehicle was moved from original address requested,14.0,13159 S MUSKEGON AVE,60633.0,,,10.0,4.0,55.0,,41.65561494119909,-87.55427957851673,"(41.65561494119909, -87.55427957851673)",2015-06-03
101206,06/03/2015,Completed,06/08/2015,15-02452705,Abandoned Vehicle Complaint,992R774,Chevrolet,Red,FVI - Outcome,Vehicle was moved from original address requested,14.0,5317 S ARTESIAN AVE,60632.0,,,14.0,9.0,63.0,,41.79696971887517,-87.6851960111516,"(41.796969718875175, -87.6851960111516)",2015-06-03
101207,06/03/2015,Completed,06/08/2015,15-02453592,Abandoned Vehicle Complaint,NO PLATES,Pontiac,Red,FVI - Outcome,Vehicle was moved from original address requested,60.0,6214 S ROCKWELL ST,60629.0,,,16.0,8.0,66.0,3.0,41.78052156001402,-87.68870485584509,"(41.78052156001402, -87.68870485584509)",2015-06-03
101208,06/03/2015,Completed,06/08/2015,15-02457726,Abandoned Vehicle Complaint,?,Audi,Gray,FVI - Outcome,Vehicle was moved from original address requested,22.0,4940 N HAMILTON AVE,60625.0,,,40.0,20.0,4.0,,41.971738732416775,-87.68310643319245,"(41.971738732416775, -87.68310643319246)",2015-06-03
101209,06/03/2015,Completed,06/08/2015,15-02458096,Abandoned Vehicle Complaint,V31 2088,Ford,Red,FVI - Outcome,Vehicle was moved from original address requested,10.0,6313 N FRANCISCO AVE,60659.0,,,50.0,24.0,2.0,43.0,41.996159018285226,-87.70186935549711,"(41.996159018285226, -87.70186935549711)",2015-06-03
101210,06/02/2015,Completed,06/08/2015,15-02407984,Abandoned Vehicle Complaint,V765206,Mercury,Gray,FVI - Outcome,Return to Owner - Vehicle,60.0,5617 S MORGAN ST,60621.0,,,16.0,7.0,68.0,,41.79187596904149,-87.6498104815827,"(41.791875969041484, -87.6498104815827)",2015-06-02
101211,06/02/2015,Completed,06/08/2015,15-02417604,Abandoned Vehicle Complaint,NLP,Pontiac,Blue,FVI - Outcome,Vehicle was moved from original address requested,14.0,3915 W SCHOOL ST,60618.0,,,30.0,17.0,21.0,,41.94082862405065,-87.72540201440235,"(41.94082862405066, -87.72540201440235)",2015-06-02
101212,06/02/2015,Completed,06/08/2015,15-02421986,Abandoned Vehicle Complaint,V826108,Volkswagen,White,FVI - Outcome,Vehicle was moved from original address requested,7.0,3600 N SPRINGFIELD AVE,60618.0,,,30.0,17.0,16.0,,41.946493888701454,-87.7251035922806,"(41.94649388870145, -87.7251035922806)",2015-06-02
101213,06/02/2015,Completed,06/08/2015,15-02422028,Abandoned Vehicle Complaint,S215056,Chevrolet,Blue,FVI - Outcome,Vehicle was moved from original address requested,7.0,3602 N SPRINGFIELD AVE,60618.0,,,30.0,17.0,16.0,,41.946550394431185,-87.72510514150594,"(41.94655039443119, -87.72510514150594)",2015-06-02
101214,06/02/2015,Completed,06/08/2015,15-02426876,Abandoned Vehicle Complaint,FSC3149,Honda,Blue,FVI - Outcome,Vehicle was moved from original address requested,14.0,4510 N GREENVIEW AVE,60640.0,,,47.0,19.0,3.0,,41.96380470081906,-87.66791318214504,"(41.96380470081906, -87.66791318214504)",2015-06-02
101215,06/02/2015,Completed,06/08/2015,15-02429148,Abandoned Vehicle Complaint,L607448,Nissan,Red,FVI - Outcome,Vehicle was moved from original address requested,15.0,6227 S MOZART ST,60629.0,,,16.0,8.0,66.0,3.0,41.780097222987536,-87.69449338212839,"(41.780097222987536, -87.69449338212839)",2015-06-02
101216,06/02/2015,Completed,06/08/2015,15-02434935,Abandoned Vehicle Complaint,ILLINOIS P355989,(Unlisted Make),Silver,FVI - Outcome,Vehicle was moved from original address requested,14.0,4836 N MAGNOLIA AVE,60640.0,,,47.0,20.0,3.0,31.0,41.970048756214055,-87.66121815204167,"(41.970048756214055, -87.66121815204166)",2015-06-02
101218,06/01/2015,Completed,06/08/2015,15-02385931,Abandoned Vehicle Complaint,N805659,Toyota,White,FVI - Outcome,Vehicle was moved from original address requested,30.0,2037 W CORNELIA AVE,60618.0,,,32.0,19.0,5.0,,41.94491283638909,-87.67994091869483,"(41.94491283638909, -87.67994091869481)",2015-06-01
101219,06/01/2015,Completed,06/08/2015,15-02386591,Abandoned Vehicle Complaint,N/LP,Pontiac,Gray,FVI - Outcome,Vehicle was moved from original address requested,60.0,4825 W WRIGHTWOOD AVE,60639.0,,,31.0,25.0,19.0,,41.92778607031497,-87.74748747118755,"(41.92778607031497, -87.74748747118757)",2015-06-01
101220,06/01/2015,Completed,06/08/2015,15-02390346,Abandoned Vehicle Complaint,UNKNOWN,Ford,Gray,FVI - Outcome,Vehicle was moved from original address requested,10.0,11520 S AVENUE L,60617.0,,,10.0,4.0,52.0,,41.685724768296666,-87.53661921015627,"(41.685724768296666, -87.53661921015627)",2015-06-01
101221,06/01/2015,Completed,06/08/2015,15-02394799,Abandoned Vehicle Complaint,NO PLATES,(Unlisted Manufacturer),Black,FVI - Outcome,Vehicle was moved from original address requested,40.0,9539 S EWING AVE,60617.0,,,10.0,4.0,52.0,,41.721987831157435,-87.53558714446304,"(41.721987831157435, -87.53558714446305)",2015-06-01
101222,06/01/2015,Completed,06/08/2015,15-02394802,Abandoned Vehicle Complaint,N90 8596,Honda,Black,FVI - Outcome,Vehicle was moved from original address requested,21.0,2552 N LOCKWOOD AVE,60639.0,,,31.0,25.0,19.0,,41.92752333668871,-87.75887982360123,"(41.92752333668871, -87.75887982360122)",2015-06-01
101223,06/01/2015,Completed,06/08/2015,15-02395324,Abandoned Vehicle Complaint,BZ5544,"(Homemade Motorcycle, Moped.Etc.)",Black,FVI - Outcome,Vehicle was moved from original address requested,20.0,1642 N WHIPPLE ST,60647.0,,,26.0,14.0,23.0,,41.91143117125815,-87.70356187743549,"(41.91143117125816, -87.70356187743548)",2015-06-01
101251,06/09/2015,Completed - Dup,06/09/2015,15-02584697,Abandoned Vehicle Complaint,R727198,Honda,Black,FVI - Outcome,Create Work Order,20.0,3420 W PARKER AVE,60647.0,1153109.37997805,1918078.79999049,35.0,14.0,22.0,,41.931164136394734,-87.71316123080652,"(41.931164136394734, -87.71316123080653)",2015-06-09
101252,06/09/2015,Completed - Dup,06/09/2015,15-02584881,Abandoned Vehicle Complaint,E27 8659,Chevrolet,Burgundy,FVI - Outcome,Create Work Order,8.0,440 N HAMLIN AVE,60624.0,1150978.66890851,1902666.99581156,37.0,11.0,23.0,,41.889158828111604,-87.72116054129299,"(41.8891588281116, -87.72116054129299)",2015-06-09
101253,06/09/2015,Completed - Dup,06/09/2015,15-02585633,Abandoned Vehicle Complaint,V333621,Chevrolet,Gray,FVI - Outcome,Create Work Order,33.0,10636 S WOOD ST,60643.0,1166241.02033443,1834015.79002208,19.0,22.0,72.0,,41.69990842819808,-87.6670491713548,"(41.69990842819808, -87.66704917135482)",2015-06-09
101254,06/09/2015,Completed - Dup,06/09/2015,15-02587520,Abandoned Vehicle Complaint,9680158,Mercury,Black,FVI - Outcome,Create Work Order,25.0,6128 S RHODES AVE,60637.0,1180961.43662361,1864498.53208238,20.0,3.0,42.0,,41.78306578493947,-87.6122349060598,"(41.783065784939474, -87.6122349060598)",2015-06-09
101255,06/09/2015,Completed - Dup,06/09/2015,15-02588155,Abandoned Vehicle Complaint,V 72 3089,Lexus,Black,FVI - Outcome,Create Work Order,18.0,6851 W GEORGE ST,60634.0,1130152.35743024,1918515.8547057,36.0,25.0,18.0,,41.93256740539282,-87.79759572348772,"(41.93256740539281, -87.79759572348772)",2015-06-09
101256,06/08/2015,Completed - Dup,06/09/2015,15-02568530,Abandoned Vehicle Complaint,P48 9235,"(Assembled From Parts,Homemade)",Blue,FVI - Outcome,Create Work Order,14.0,3608 W CARMEN AVE,60625.0,1151394.8004231001,1933646.79997017,39.0,17.0,13.0,,41.97392016440385,-87.71883215221163,"(41.97392016440385, -87.71883215221162)",2015-06-08
101257,06/08/2015,Completed - Dup,06/09/2015,15-02569318,Abandoned Vehicle Complaint,2192496,Chevrolet,Black,FVI - Outcome,Create Work Order,62.0,1028 N TRUMBULL AVE,60651.0,1153190.35637621,1906612.66002401,27.0,11.0,23.0,,41.89999575532314,-87.71295051731006,"(41.89999575532314, -87.71295051731006)",2015-06-08
101258,06/08/2015,Completed - Dup,06/09/2015,15-02569389,Abandoned Vehicle Complaint,NO PLATES,Honda,Green,FVI - Outcome,Create Work Order,18.0,1028 N TRUMBULL AVE,60651.0,1153190.35637621,1906612.66002401,27.0,11.0,23.0,,41.89999575532314,-87.71295051731006,"(41.89999575532314, -87.71295051731006)",2015-06-08
101259,06/08/2015,Completed - Dup,06/09/2015,15-02569407,Abandoned Vehicle Complaint,UNKNOWN,Toyota,Orange,FVI - Outcome,Create Work Order,18.0,1028 N TRUMBULL AVE,60651.0,1153190.35637621,1906612.66002401,27.0,11.0,23.0,,41.89999575532314,-87.71295051731006,"(41.89999575532314, -87.71295051731006)",2015-06-08
101260,06/08/2015,Completed - Dup,06/09/2015,15-02573369,Abandoned Vehicle Complaint,K154511,Volkswagen,White,FVI - Outcome,Vehicle was moved from original address requested,30.0,5520 S HALSTED ST,60621.0,,,20.0,7.0,68.0,,41.79327188569643,-87.64527967975046,"(41.793271885696434, -87.64527967975046)",2015-06-08
101261,06/08/2015,Completed - Dup,06/09/2015,15-02574568,Abandoned Vehicle Complaint,L725320,Saab,Black,FVI - Outcome,Create Work Order,9.0,6503 S WOODLAWN AVE,60637.0,1185334.20073304,1862128.02470045,20.0,3.0,42.0,,41.77673568024119,-87.5959672530959,"(41.77673568024119, -87.5959672530959)",2015-06-08
101262,06/08/2015,Completed,06/09/2015,15-02563741,Abandoned Vehicle Complaint,.,(Unlisted Make),Multi-Color,FVI - Outcome,Vehicle was moved from original address requested,0.0,6345 S MAPLEWOOD AVE,60629.0,,,16.0,8.0,66.0,3.0,41.77782968367623,-87.68711872501045,"(41.77782968367623, -87.68711872501045)",2015-06-08
101263,06/08/2015,Completed,06/09/2015,15-02564780,Abandoned Vehicle Complaint,DON'T HAVE..,Chevrolet,Black,FVI - Outcome,Vehicle was moved from original address requested,30.0,1028 N TRUMBULL AVE,60651.0,,,27.0,11.0,23.0,,41.89999575532314,-87.71295051731006,"(41.89999575532314, -87.71295051731006)",2015-06-08
101264,06/08/2015,Completed,06/09/2015,15-02569849,Abandoned Vehicle Complaint,,Pontiac,Burgundy,FVI - Outcome,Vehicle was moved from original address requested,7.0,440 N HAMLIN AVE,60624.0,,,37.0,11.0,23.0,,41.889158828111604,-87.72116054129299,"(41.8891588281116, -87.72116054129299)",2015-06-08
101265,06/08/2015,Completed,06/09/2015,15-02573368,Abandoned Vehicle Complaint,R379104,Pontiac,Silver,FVI - Outcome,Vehicle was moved from original address requested,30.0,5520 S HALSTED ST,60621.0,,,20.0,7.0,68.0,,41.79327188569643,-87.64527967975046,"(41.793271885696434, -87.64527967975046)",2015-06-08
101266,06/06/2015,Completed,06/09/2015,15-02521654,Abandoned Vehicle Complaint,9680158,Mercury,Black,FVI - Outcome,Return to Owner - Vehicle,25.0,6128 S RHODES AVE,60637.0,,,20.0,3.0,42.0,,41.78306578493947,-87.6122349060598,"(41.783065784939474, -87.6122349060598)",2015-06-06
101267,06/06/2015,Completed,06/09/2015,15-02522018,Abandoned Vehicle Complaint,R255493,Chrysler,Gray,FVI - Outcome,Vehicle was moved from original address requested,60.0,1675 W FARWELL AVE,60626.0,,,49.0,24.0,1.0,24.0,42.0064596574929,-87.67279476157213,"(42.0064596574929, -87.67279476157213)",2015-06-06
101268,06/06/2015,Completed,06/09/2015,15-02524493,Abandoned Vehicle Complaint,,Toyota,Red,FVI - Outcome,Vehicle was moved from original address requested,10.0,5936 W ADAMS BLVD,60644.0,,,29.0,15.0,25.0,,41.877745379191865,-87.7728582719006,"(41.87774537919187, -87.77285827190059)",2015-06-06
101269,06/06/2015,Completed,06/09/2015,15-02527560,Abandoned Vehicle Complaint,S65908,Ford,Gray,FVI - Outcome,Vehicle was moved from original address requested,60.0,6101 N PAULINA ST,60660.0,,,40.0,24.0,77.0,,41.99293926140978,-87.67168995068786,"(41.99293926140978, -87.67168995068788)",2015-06-06
101270,06/06/2015,Completed,06/09/2015,15-02528548,Abandoned Vehicle Complaint,E644450,Pontiac,Black,FVI - Outcome,Return to Owner - Vehicle,60.0,11355 S PRAIRIE AVE,60628.0,,,9.0,5.0,49.0,,41.68751042324406,-87.61672242476419,"(41.68751042324406, -87.61672242476418)",2015-06-06
101271,06/07/2015,Completed,06/09/2015,15-02551306,Abandoned Vehicle Complaint,1288890,Ford,Blue,FVI - Outcome,Vehicle was moved from original address requested,7.0,1434 N LINDER AVE,60651.0,,,37.0,25.0,25.0,,41.90682914343226,-87.76348263363127,"(41.90682914343226, -87.76348263363127)",2015-06-07
101272,06/05/2015,Completed,06/09/2015,15-02504712,Abandoned Vehicle Complaint,L116306,Volkswagen,Black,FVI - Outcome,Vehicle was moved from original address requested,1.0,1455 W WEBSTER AVE,60614.0,,,2.0,18.0,7.0,,41.92149751090147,-87.66536795689626,"(41.92149751090147, -87.66536795689626)",2015-06-05
101273,06/05/2015,Completed,06/09/2015,15-02506479,Abandoned Vehicle Complaint,L725320,Saab,Black,FVI - Outcome,Vehicle was moved from original address requested,10.0,6503 S WOODLAWN AVE,60637.0,,,20.0,3.0,42.0,,41.77673568024119,-87.5959672530959,"(41.77673568024119, -87.5959672530959)",2015-06-05
101274,06/06/2015,Completed,06/09/2015,15-02508792,Abandoned Vehicle Complaint,V608808,Chrysler,Gray,FVI - Outcome,Return to Owner - Vehicle,60.0,5526 S MICHIGAN AVE,60637.0,,,20.0,2.0,40.0,,41.793609005515975,-87.6225855804523,"(41.79360900551598, -87.6225855804523)",2015-06-06
101275,06/06/2015,Completed,06/09/2015,15-02510889,Abandoned Vehicle Complaint,595 6744,Chevrolet,Silver,FVI - Outcome,Vehicle was moved from original address requested,90.0,1519 W JONQUIL TER,60626.0,,,49.0,24.0,1.0,19.0,42.02103019483704,-87.66907361283188,"(42.02103019483704, -87.66907361283187)",2015-06-06
101276,06/06/2015,Completed,06/09/2015,15-02517933,Abandoned Vehicle Complaint,,Chevrolet,White,FVI - Outcome,Vehicle was moved from original address requested,60.0,517 N SPRINGFIELD AVE,60624.0,,,37.0,11.0,23.0,,41.89043530765533,-87.72335269400537,"(41.89043530765533, -87.72335269400538)",2015-06-06
101277,06/05/2015,Completed,06/09/2015,15-02486638,Abandoned Vehicle Complaint,NONE,Chevrolet,Black,FVI - Outcome,Vehicle was moved from original address requested,2.0,8956 S EMERALD AVE,60620.0,,,21.0,22.0,71.0,,41.7308829907951,-87.64240304962317,"(41.7308829907951, -87.64240304962316)",2015-06-05
101278,06/05/2015,Completed,06/09/2015,15-02489027,Abandoned Vehicle Complaint,FADED TEMP PLATE,Chrysler,Green,FVI - Outcome,Vehicle was moved from original address requested,21.0,4343 W GLADYS AVE,60624.0,,,28.0,11.0,26.0,,41.875955393055854,-87.73458361732139,"(41.875955393055854, -87.73458361732139)",2015-06-05
101279,06/05/2015,Completed,06/09/2015,15-02490040,Abandoned Vehicle Complaint,,Chevrolet,Cream,FVI - Outcome,Vehicle was moved from original address requested,30.0,1252 N SPRINGFIELD AVE,60651.0,,,37.0,25.0,23.0,,41.9042402264737,-87.72406295546313,"(41.9042402264737, -87.72406295546313)",2015-06-05
101280,06/05/2015,Completed,06/09/2015,15-02491246,Abandoned Vehicle Complaint,,Chevrolet,White,FVI - Outcome,Vehicle was moved from original address requested,30.0,5101 W CRYSTAL ST,60651.0,,,37.0,25.0,25.0,,41.90307079154726,-87.75346595900804,"(41.90307079154726, -87.75346595900805)",2015-06-05
101281,06/05/2015,Completed,06/09/2015,15-02501623,Abandoned Vehicle Complaint,576 5554,Ford,Tan,FVI - Outcome,Vehicle was moved from original address requested,10.0,9519 S HOYNE AVE,60643.0,,,19.0,22.0,72.0,4.0,41.72044662343328,-87.67462945838625,"(41.720446623433276, -87.67462945838625)",2015-06-05
101282,06/05/2015,Completed,06/09/2015,15-02501872,Abandoned Vehicle Complaint,E759020,Bmw,Silver,FVI - Outcome,Return to Owner - Vehicle,10.0,1332 N GREENVIEW AVE,60642.0,,,2.0,14.0,24.0,33.0,41.906122330054714,-87.66527478984358,"(41.90612233005471, -87.66527478984358)",2015-06-05
101283,06/05/2015,Completed,06/09/2015,15-02502135,Abandoned Vehicle Complaint,UNKNOWN,(Unlisted Make),Gray,FVI - Outcome,Vehicle was moved from original address requested,14.0,3242 N OKETO AVE,60634.0,,,29.0,16.0,17.0,,41.939196120060735,-87.81153947416908,"(41.939196120060735, -87.81153947416908)",2015-06-05
101284,06/04/2015,Completed,06/09/2015,15-02464035,Abandoned Vehicle Complaint,1212992,Dodge,White,FVI - Outcome,Vehicle was moved from original address requested,1.0,2912 W 47TH ST,60632.0,,,15.0,9.0,58.0,,41.808338973499204,-87.69722051467461,"(41.8083389734992, -87.69722051467461)",2015-06-04
101285,06/04/2015,Completed,06/09/2015,15-02465698,Abandoned Vehicle Complaint,UNKNOWN,Jeep/Cherokee,Red,FVI - Outcome,Vehicle was moved from original address requested,21.0,9854 S INGLESIDE AVE,60628.0,,,8.0,5.0,50.0,,41.71503638784296,-87.60075335643657,"(41.715036387842964, -87.60075335643658)",2015-06-04
101286,06/04/2015,Completed,06/09/2015,15-02465702,Abandoned Vehicle Complaint,V133054,Chrysler,Brown,FVI - Outcome,Vehicle was moved from original address requested,14.0,11404 S DR MARTIN LUTHER KING JR DR,60628.0,,,9.0,5.0,49.0,,41.687088838646545,-87.61335389857047,"(41.68708883864655, -87.61335389857045)",2015-06-04
101287,06/04/2015,Completed,06/09/2015,15-02471183,Abandoned Vehicle Complaint,V51 8477,Suzuki,Gray,FVI - Outcome,Vehicle was moved from original address requested,14.0,3552 W CARMEN AVE,60625.0,,,39.0,17.0,13.0,,41.97392891484957,-87.71806889734668,"(41.97392891484957, -87.71806889734668)",2015-06-04
101288,06/04/2015,Completed,06/09/2015,15-02479356,Abandoned Vehicle Complaint,UNK,Toyota,White,FVI - Outcome,Return to Owner - Vehicle,30.0,4213 N KEDVALE AVE,60641.0,,,39.0,17.0,16.0,,41.957696605674585,-87.73082225137945,"(41.957696605674585, -87.73082225137945)",2015-06-04
101289,06/02/2015,Completed,06/09/2015,15-02410546,Abandoned Vehicle Complaint,E607967,Legacy Unknown,Gray,FVI - Outcome,Vehicle was moved from original address requested,110.0,10111 S OGLESBY AVE,60617.0,,,7.0,4.0,51.0,,41.71132421850096,-87.56561892124925,"(41.711324218500955, -87.56561892124927)",2015-06-02
101290,06/02/2015,Completed,06/09/2015,15-02411112,Abandoned Vehicle Complaint,NONE,Legacy Unknown,Gold,FVI - Outcome,Vehicle was moved from original address requested,7.0,3843 N BERNARD ST,60618.0,,,35.0,17.0,16.0,,41.95147895428799,-87.71390107768875,"(41.951478954287985, -87.71390107768875)",2015-06-02
101291,06/02/2015,Completed,06/09/2015,15-02411233,Abandoned Vehicle Complaint,NONE,General Motors Corp.,Black,FVI - Outcome,Vehicle was moved from original address requested,7.0,2053 N KILBOURN AVE,60639.0,,,36.0,25.0,20.0,,41.918587741623824,-87.73868431751842,"(41.91858774162382, -87.73868431751842)",2015-06-02
101292,06/02/2015,Completed,06/09/2015,15-02411557,Abandoned Vehicle Complaint,V184353,Honda,Purple,FVI - Outcome,Vehicle was moved from original address requested,7.0,2900 N LAKE SHORE DR,60657.0,,,44.0,19.0,6.0,,41.93440298707838,-87.63680583708285,"(41.93440298707838, -87.63680583708285)",2015-06-02
101293,06/02/2015,Completed,06/09/2015,15-02418012,Abandoned Vehicle Complaint,N222872,Nissan,Black,FVI - Outcome,Vehicle was moved from original address requested,365.0,1631 N MONTICELLO AVE,60647.0,,,26.0,25.0,23.0,,41.91092324807914,-87.71764963248172,"(41.91092324807914, -87.71764963248172)",2015-06-02
101294,06/02/2015,Completed,06/09/2015,15-02419061,Abandoned Vehicle Complaint,Y722308,Infiniti/M30,Black,FVI - Outcome,Vehicle was moved from original address requested,7.0,321 W 111TH ST,60628.0,,,34.0,5.0,49.0,,41.692379439570715,-87.63117596349844,"(41.69237943957071, -87.63117596349844)",2015-06-02
101295,06/02/2015,Completed,06/09/2015,15-02420165,Abandoned Vehicle Complaint,R426478,Pontiac,Red,FVI - Outcome,Vehicle was moved from original address requested,8.0,3313 N PONTIAC AVE,60634.0,,,38.0,16.0,17.0,,41.93967403563353,-87.83472856220024,"(41.93967403563353, -87.83472856220024)",2015-06-02
101296,06/02/2015,Completed,06/09/2015,15-02422376,Abandoned Vehicle Complaint,H890865,Honda,Beige,FVI - Outcome,Vehicle was moved from original address requested,14.0,2414 W FLETCHER ST,60618.0,,,33.0,19.0,5.0,,41.93862207935144,-87.68868934269888,"(41.93862207935144, -87.68868934269888)",2015-06-02
101297,06/02/2015,Completed,06/09/2015,15-02428573,Abandoned Vehicle Complaint,V28 2842,Ford,Gray,FVI - Outcome,Vehicle was moved from original address requested,7.0,4067 W WAVELAND AVE,60641.0,,,45.0,17.0,16.0,,41.948058457897595,-87.73007754448307,"(41.94805845789759, -87.73007754448307)",2015-06-02
101298,06/02/2015,Completed,06/09/2015,15-02428733,Abandoned Vehicle Complaint,H2OGS,Honda,Black,FVI - Outcome,Vehicle was moved from original address requested,7.0,4065 W WAVELAND AVE,60641.0,1148491.91682229,1924281.53893056,45.0,17.0,16.0,,41.94805918710864,-87.73000281369278,"(41.94805918710864, -87.73000281369278)",2015-06-02
101299,06/02/2015,Completed,06/09/2015,15-02428748,Abandoned Vehicle Complaint,H26 9075,Mitsubishi,Black,FVI - Outcome,Vehicle was moved from original address requested,7.0,4069 W WAVELAND AVE,60641.0,1148456.31682229,1924280.83893056,45.0,17.0,16.0,,41.948057728637856,-87.7301522752722,"(41.948057728637856, -87.7301522752722)",2015-06-02
101300,06/02/2015,Completed,06/09/2015,15-02434134,Abandoned Vehicle Complaint,UNKNOWN,Ford,White,FVI - Outcome,Vehicle was moved from original address requested,14.0,9800 S GREENWOOD AVE,60628.0,,,8.0,5.0,50.0,,41.71660664150562,-87.59717612698341,"(41.71660664150562, -87.59717612698341)",2015-06-02
101301,06/03/2015,Completed,06/09/2015,15-02438069,Abandoned Vehicle Complaint,778R72- TEMP,Lexus,White,FVI - Outcome,Vehicle was moved from original address requested,60.0,358 E 96TH ST,60628.0,,,9.0,5.0,49.0,,41.720183617155534,-87.61416760777996,"(41.72018361715553, -87.61416760777996)",2015-06-03
101302,06/03/2015,Completed,06/09/2015,15-02441385,Abandoned Vehicle Complaint,NO PLATES!,Honda,Blue,FVI - Outcome,Return to Owner - Vehicle,0.0,3321 S DAMEN AVE,60608.0,,,12.0,9.0,59.0,,41.83339356976241,-87.67521103385273,"(41.83339356976241, -87.67521103385273)",2015-06-03
101303,06/03/2015,Completed,06/09/2015,15-02441554,Abandoned Vehicle Complaint,NO PLATES!,Honda,Blue,FVI - Outcome,Return to Owner - Vehicle,180.0,3321 S SEELEY AVE,60608.0,,,12.0,9.0,59.0,,41.83335385878842,-87.67644322661688,"(41.83335385878842, -87.67644322661688)",2015-06-03
101304,06/03/2015,Completed,06/09/2015,15-02442373,Abandoned Vehicle Complaint,V363297,Ford,White,FVI - Outcome,Vehicle was moved from original address requested,10.0,9502 S GREENWOOD AVE,60628.0,,,8.0,5.0,50.0,51.0,41.7220048400813,-87.59735316645428,"(41.722004840081304, -87.59735316645428)",2015-06-03
101305,06/03/2015,Completed,06/09/2015,15-02446105,Abandoned Vehicle Complaint,UNKNOWN,Buick,Brown,FVI - Outcome,Return to Owner - Vehicle,8.0,2635 N SPRINGFIELD AVE,60647.0,,,31.0,25.0,22.0,,41.92924978160863,-87.7243155239234,"(41.92924978160863, -87.7243155239234)",2015-06-03
101306,06/01/2015,Completed,06/09/2015,15-02385883,Abandoned Vehicle Complaint,ART406,Hyundai,White,FVI - Outcome,Vehicle was moved from original address requested,60.0,4240 N KIMBALL AVE,60618.0,,,35.0,17.0,16.0,,41.958749906023705,-87.71321336586745,"(41.9587499060237, -87.71321336586743)",2015-06-01
101307,06/01/2015,Completed,06/09/2015,15-02392146,Abandoned Vehicle Complaint,549RKR,Lexus,Gray,FVI - Outcome,Vehicle was moved from original address requested,10.0,651 E 101ST PL,60628.0,,,9.0,5.0,49.0,,41.71004775020146,-87.60693334926545,"(41.71004775020146, -87.60693334926543)",2015-06-01
101308,06/01/2015,Completed,06/09/2015,15-02397071,Abandoned Vehicle Complaint,UNKNOWN,Legacy Unknown,Black,FVI - Outcome,Vehicle was moved from original address requested,14.0,4909 W WINNEMAC AVE,60630.0,,,45.0,16.0,12.0,,41.97244647585683,-87.75073203557609,"(41.97244647585683, -87.7507320355761)",2015-06-01
101309,06/01/2015,Completed,06/09/2015,15-02397303,Abandoned Vehicle Complaint,R226751,Buick,Tan,FVI - Outcome,Vehicle was moved from original address requested,9.0,3122 N SHEFFIELD AVE,60657.0,,,44.0,19.0,6.0,17.0,41.938781850904,-87.65421331205425,"(41.938781850904, -87.65421331205425)",2015-06-01
101310,06/01/2015,Completed,06/09/2015,15-02399062,Abandoned Vehicle Complaint,UNKNOWN,Ford,White,FVI - Outcome,Vehicle was moved from original address requested,17.0,4600 N AVERS AVE,60625.0,,,35.0,17.0,14.0,,41.96472433523185,-87.72440983186098,"(41.964724335231864, -87.72440983186098)",2015-06-01
101311,06/01/2015,Completed,06/09/2015,15-02399894,Abandoned Vehicle Complaint,R727198,Honda,Black,FVI - Outcome,Vehicle was moved from original address requested,10.0,3430 W PARKER AVE,60647.0,,,35.0,14.0,22.0,,41.931158764718596,-87.71354197029595,"(41.931158764718596, -87.71354197029596)",2015-06-01
101312,06/01/2015,Completed,06/09/2015,15-02400920,Abandoned Vehicle Complaint,E712510,Lexus,Black,FVI - Outcome,Vehicle was moved from original address requested,20.0,2553 N DRAKE AVE,60647.0,,,35.0,14.0,22.0,,41.92804541944411,-87.71571269778158,"(41.92804541944411, -87.71571269778158)",2015-06-01
101313,06/01/2015,Completed,06/09/2015,15-02406708,Abandoned Vehicle Complaint,1173021,Dodge,White,FVI - Outcome,Vehicle was moved from original address requested,10.0,6839 W BYRON ST,60634.0,,,38.0,16.0,17.0,,41.95078573805228,-87.79778391802242,"(41.95078573805228, -87.79778391802242)",2015-06-01
101318,06/10/2015,Completed - Dup,06/10/2015,15-02605977,Abandoned Vehicle Complaint,V723311,Buick,Silver,FVI - Outcome,Create Work Order,30.0,3301 N NARRAGANSETT AVE,60634.0,1133125.24449059,1921268.1232845,36.0,16.0,17.0,,41.940202029710456,-87.78598775081717,"(41.940202029710456, -87.78598775081716)",2015-06-10
101319,06/10/2015,Completed - Dup,06/10/2015,15-02609110,Abandoned Vehicle Complaint,UNKNOWN,Buick,Brown,FVI - Outcome,Create Work Order,10.0,7654 S WINCHESTER AVE,60620.0,1164685.04640374,1853903.89081948,17.0,6.0,71.0,,41.75409255810701,-87.67217551890577,"(41.754092558107004, -87.67217551890576)",2015-06-10
101320,06/10/2015,Completed - Dup,06/10/2015,15-02609909,Abandoned Vehicle Complaint,.,Cadillac,White,FVI - Outcome,Create Work Order,60.0,6835 S HONORE ST,60636.0,1165196.83250315,1859352.26789359,17.0,7.0,67.0,,41.769254399606005,-87.66985933644797,"(41.76925439960601, -87.66985933644797)",2015-06-10
101321,06/10/2015,Completed - Dup,06/10/2015,15-02610280,Abandoned Vehicle Complaint,S465383,Volkswagen,Silver,FVI - Outcome,Create Work Order,60.0,3417 W PARKER AVE,60647.0,1153129.57997805,1918079.39999049,35.0,14.0,22.0,,41.930946773793934,-87.71300348678403,"(41.93094677379394, -87.71300348678403)",2015-06-10
101322,06/09/2015,Completed - Dup,06/10/2015,15-02596282,Abandoned Vehicle Complaint,N66 8012,Acura,Beige,FVI - Outcome,Create Work Order,15.0,5720 S MELVINA AVE,60638.0,1136027.7513247,1865976.81838555,13.0,8.0,56.0,,41.78811224281747,-87.77691881287016,"(41.78811224281747, -87.77691881287015)",2015-06-09
101323,06/09/2015,Completed - Dup,06/10/2015,15-02597426,Abandoned Vehicle Complaint,3621ZS,Ford,Red,FVI - Outcome,Create Work Order,21.0,7432 S OGLESBY AVE,60649.0,1193162.22418701,1856139.33321385,7.0,3.0,43.0,49.0,41.75979688683737,-87.56775199798052,"(41.75979688683737, -87.56775199798052)",2015-06-09
101324,06/09/2015,Completed - Dup,06/10/2015,15-02598752,Abandoned Vehicle Complaint,1098691,Ford,White,FVI - Outcome,Create Work Order,180.0,2136 W 51ST PL,60609.0,1163026.04270607,1870506.41490814,16.0,9.0,61.0,,41.80040760855682,-87.67837354603212,"(41.80040760855681, -87.67837354603212)",2015-06-09
101325,06/09/2015,Completed - Dup,06/10/2015,15-02601144,Abandoned Vehicle Complaint,186 VUN,Pontiac,White,FVI - Outcome,Create Work Order,35.0,9121 S WOODLAWN AVE,60619.0,1185804.83997973,1844749.33998662,8.0,4.0,47.0,,41.72885442073582,-87.5947962804488,"(41.72885442073582, -87.5947962804488)",2015-06-09
101326,06/09/2015,Completed,06/10/2015,15-02585581,Abandoned Vehicle Complaint,E351407,Chevrolet,Green,FVI - Outcome,Vehicle was moved from original address requested,60.0,853 E 83RD ST,60619.0,,,8.0,6.0,44.0,,41.74389323037636,-87.60288680787977,"(41.74389323037636, -87.60288680787977)",2015-06-09
101327,06/09/2015,Completed,06/10/2015,15-02586055,Abandoned Vehicle Complaint,0000000,(Unlisted Make),Unknown,FVI - Outcome,Vehicle was moved from original address requested,30.0,8500 S SOUTH CHICAGO AVE,60617.0,,,8.0,4.0,45.0,50.0,41.740635212912466,-87.5706914272197,"(41.74063521291247, -87.57069142721971)",2015-06-09
101328,06/09/2015,Completed,06/10/2015,15-02586725,Abandoned Vehicle Complaint,K914740,Mercedes,Gray,FVI - Outcome,Vehicle was moved from original address requested,-120.0,7022 S CONSTANCE AVE,60649.0,,,5.0,3.0,43.0,42.0,41.76726771888745,-87.58015971534267,"(41.76726771888745, -87.58015971534267)",2015-06-09
101329,06/09/2015,Completed,06/10/2015,15-02588751,Abandoned Vehicle Complaint,K539690,Audi,Blue,FVI - Outcome,Vehicle was moved from original address requested,30.0,2014 W NORWOOD ST,60659.0,,,40.0,24.0,2.0,,41.99198456167637,-87.68052357035972,"(41.99198456167637, -87.68052357035974)",2015-06-09
101330,06/09/2015,Completed,06/10/2015,15-02589402,Abandoned Vehicle Complaint,V159844,Pontiac,Silver,FVI - Outcome,Vehicle was moved from original address requested,14.0,7658 N ROGERS AVE,60626.0,,,49.0,24.0,1.0,,42.02076030274309,-87.66558945565737,"(42.02076030274309, -87.66558945565738)",2015-06-09
101331,06/09/2015,Completed,06/10/2015,15-02592629,Abandoned Vehicle Complaint,S67 8134,Toyota,Blue,FVI - Outcome,Vehicle was moved from original address requested,10.0,6522 N GREENVIEW AVE,60626.0,,,40.0,24.0,1.0,,42.00064948233091,-87.66817728268602,"(42.00064948233091, -87.66817728268602)",2015-06-09
101332,06/09/2015,Completed,06/10/2015,15-02593382,Abandoned Vehicle Complaint,E351407,Chevrolet,Green,FVI - Outcome,Vehicle was moved from original address requested,90.0,855 E 83RD ST,60619.0,,,8.0,6.0,44.0,,41.743894216275045,-87.60280259849286,"(41.74389421627505, -87.60280259849284)",2015-06-09
101333,06/07/2015,Completed,06/10/2015,15-02536954,Abandoned Vehicle Complaint,A606768,Volkswagen,Gold,FVI - Outcome,Vehicle was moved from original address requested,21.0,4550 W SUNNYSIDE AVE,60630.0,,,39.0,17.0,16.0,,41.96271542447001,-87.74260209032511,"(41.962715424470005, -87.74260209032511)",2015-06-07
101334,06/07/2015,Completed,06/10/2015,15-02540476,Abandoned Vehicle Complaint,V598408,Chevrolet,Burgundy,FVI - Outcome,Vehicle was moved from original address requested,35.0,3546 W 60TH ST,60629.0,,,23.0,8.0,66.0,,41.784397159305975,-87.71241311522662,"(41.784397159305975, -87.71241311522662)",2015-06-07
101335,06/07/2015,Completed,06/10/2015,15-02545245,Abandoned Vehicle Complaint,B185572,Infiniti/Q45,White,FVI - Outcome,Vehicle was moved from original address requested,14.0,2559 W DEVON AVE,60659.0,,,50.0,24.0,2.0,43.0,41.99753780310087,-87.69469961388576,"(41.99753780310087, -87.69469961388576)",2015-06-07
101336,06/07/2015,Completed,06/10/2015,15-02550475,Abandoned Vehicle Complaint,NONE IT IS A TRUCK,(Unlisted Make),White,FVI - Outcome,Vehicle was moved from original address requested,30.0,5212 S ARCHER AVE,60632.0,,,14.0,8.0,57.0,,41.800018489108346,-87.73506930693974,"(41.80001848910834, -87.73506930693974)",2015-06-07
101337,06/08/2015,Completed,06/10/2015,15-02556409,Abandoned Vehicle Complaint,596P925,Ford,Beige,FVI - Outcome,Vehicle was moved from original address requested,300.0,7011 S EAST END AVE,60649.0,,,5.0,3.0,43.0,42.0,41.76757101661932,-87.58267426812954,"(41.76757101661932, -87.58267426812955)",2015-06-08
101338,06/08/2015,Completed,06/10/2015,15-02559102,Abandoned Vehicle Complaint,642 XFC WISCONSIN,Ford,Silver,FVI - Outcome,Vehicle was moved from original address requested,60.0,3818 W 27TH ST,60623.0,,,22.0,10.0,30.0,25.0,41.842576756920465,-87.72051064221736,"(41.84257675692046, -87.72051064221738)",2015-06-08
101339,06/08/2015,Completed,06/10/2015,15-02564725,Abandoned Vehicle Complaint,Y490089,Volvo,Blue,FVI - Outcome,Vehicle was moved from original address requested,30.0,1621 E 74TH PL,60649.0,,,8.0,3.0,43.0,42.0,41.759580449383286,-87.58489397530924,"(41.75958044938329, -87.58489397530924)",2015-06-08
101340,06/08/2015,Completed,06/10/2015,15-02564793,Abandoned Vehicle Complaint,1184570,(Unlisted Make),Black,FVI - Outcome,Return to Owner - Vehicle,150.0,1752 W AUGUSTA BLVD,60622.0,,,1.0,12.0,24.0,,41.89974863655277,-87.67188576744104,"(41.89974863655277, -87.67188576744105)",2015-06-08
101341,06/08/2015,Completed,06/10/2015,15-02564960,Abandoned Vehicle Complaint,V769692,Bmw,Silver,FVI - Outcome,Vehicle was moved from original address requested,14.0,5148 S RIDGEWAY AVE,60632.0,,,23.0,8.0,62.0,,41.79917560327147,-87.71734910985106,"(41.79917560327148, -87.71734910985106)",2015-06-08
101342,06/08/2015,Completed,06/10/2015,15-02568240,Abandoned Vehicle Complaint,.,Nissan,Burgundy,FVI - Outcome,Return to Owner - Vehicle,180.0,6933 S JEFFERY BLVD,60649.0,,,5.0,3.0,43.0,,41.76880860417421,-87.57622507961314,"(41.76880860417421, -87.57622507961312)",2015-06-08
101343,06/08/2015,Completed,06/10/2015,15-02569218,Abandoned Vehicle Complaint,9445634,Chevrolet,Green,FVI - Outcome,Vehicle was moved from original address requested,93.0,6141 S MONITOR AVE,60638.0,,,13.0,8.0,64.0,,41.78037732626148,-87.76777761400923,"(41.78037732626148, -87.76777761400922)",2015-06-08
101344,06/08/2015,Completed,06/10/2015,15-02570324,Abandoned Vehicle Complaint,E239830,Saturn,Blue,FVI - Outcome,Return to Owner - Vehicle,45.0,3720 S EMERALD AVE,60609.0,,,11.0,9.0,60.0,,41.82645881870854,-87.64493036550805,"(41.82645881870854, -87.64493036550805)",2015-06-08
101345,06/08/2015,Completed,06/10/2015,15-02570776,Abandoned Vehicle Complaint,001240210,Chrysler,Multi-Color,FVI - Outcome,Vehicle was moved from original address requested,77.0,8522 S DREXEL AVE,60619.0,,,8.0,6.0,44.0,,41.73960825772265,-87.60262481162577,"(41.73960825772266, -87.60262481162577)",2015-06-08
101346,06/08/2015,Completed,06/10/2015,15-02573558,Abandoned Vehicle Complaint,1586524,Dodge,White,FVI - Outcome,Vehicle was moved from original address requested,7.0,2419 W WASHBURNE AVE,60608.0,,,28.0,10.0,28.0,,41.865294225368,-87.68672742682988,"(41.865294225368, -87.68672742682988)",2015-06-08
101347,06/06/2015,Completed - Dup,06/10/2015,15-02515551,Abandoned Vehicle Complaint,V 13 4404,Pontiac,Gray,FVI - Outcome,Vehicle was moved from original address requested,35.0,1315 E 48TH ST,60615.0,,,4.0,2.0,39.0,,41.80774190716464,-87.59458515832306,"(41.80774190716464, -87.59458515832306)",2015-06-06
101348,06/06/2015,Completed,06/10/2015,15-02515530,Abandoned Vehicle Complaint,NONE,Hyundai,Black,FVI - Outcome,Vehicle was moved from original address requested,35.0,1315 E 48TH ST,60615.0,,,4.0,2.0,39.0,,41.80774190716464,-87.59458515832306,"(41.80774190716464, -87.59458515832306)",2015-06-06
101349,06/06/2015,Completed,06/10/2015,15-02519152,Abandoned Vehicle Complaint,E528306,Oldsmobile,Burgundy,FVI - Outcome,Vehicle was moved from original address requested,21.0,3250 W 65TH PL,60629.0,,,17.0,8.0,66.0,,41.77449630559311,-87.70503246327202,"(41.77449630559311, -87.70503246327202)",2015-06-06
101350,06/06/2015,Completed,06/10/2015,15-02519852,Abandoned Vehicle Complaint,R48 9414,Volkswagen,Gray,FVI - Outcome,Vehicle was moved from original address requested,14.0,5051 S KILPATRICK AVE,60632.0,,,14.0,8.0,56.0,,41.80067453695757,-87.74037470743727,"(41.80067453695757, -87.74037470743727)",2015-06-06
101351,06/05/2015,Completed,06/10/2015,15-02485629,Abandoned Vehicle Complaint,K783367,Honda,White,FVI - Outcome,Vehicle was moved from original address requested,10.0,3900 W CORTLAND ST,60647.0,,,26.0,25.0,20.0,,41.915482204119634,-87.72412267054506,"(41.91548220411963, -87.72412267054507)",2015-06-05
101352,06/05/2015,Completed,06/10/2015,15-02489191,Abandoned Vehicle Complaint,S11 1652,(Unlisted Make),White,FVI - Outcome,Vehicle was moved from original address requested,-42.0,1327 E 71ST ST,60619.0,,,8.0,3.0,43.0,42.0,41.765902181114335,-87.59221625349484,"(41.765902181114335, -87.59221625349484)",2015-06-05
101353,06/05/2015,Completed,06/10/2015,15-02489884,Abandoned Vehicle Complaint,6267647,Chevrolet,Gray,FVI - Outcome,Vehicle was moved from original address requested,21.0,4835 S KEELER AVE,60632.0,,,14.0,8.0,57.0,,41.80492691608728,-87.7282520729869,"(41.80492691608728, -87.7282520729869)",2015-06-05
101354,06/05/2015,Completed,06/10/2015,15-02492213,Abandoned Vehicle Complaint,186VUN,Pontiac,White,FVI - Outcome,Return to Owner - Vehicle,40.0,9121 S WOODLAWN AVE,60619.0,,,8.0,4.0,47.0,,41.72885442073582,-87.5947962804488,"(41.72885442073582, -87.5947962804488)",2015-06-05
101355,06/05/2015,Completed,06/10/2015,15-02493630,Abandoned Vehicle Complaint,UNK,Nissan,Black,FVI - Outcome,Vehicle was moved from original address requested,366.0,2426 S HAMLIN AVE,60623.0,,,22.0,10.0,30.0,,41.84715767837734,-87.71990221996352,"(41.84715767837734, -87.71990221996352)",2015-06-05
101356,06/05/2015,Completed,06/10/2015,15-02494096,Abandoned Vehicle Complaint,7267724,Isuzu,Gray,FVI - Outcome,Vehicle was moved from original address requested,16.0,1219 N MOZART DR,60622.0,,,26.0,14.0,24.0,,41.90341204069462,-87.69810761093699,"(41.90341204069462, -87.69810761093699)",2015-06-05
101357,06/05/2015,Completed,06/10/2015,15-02498488,Abandoned Vehicle Complaint,4540182,Ford,Silver,FVI - Outcome,Return to Owner - Vehicle,7.0,4207 S ELLIS AVE,60653.0,,,4.0,2.0,36.0,,41.81776785168115,-87.60172693468998,"(41.81776785168115, -87.60172693468999)",2015-06-05
101358,06/05/2015,Completed,06/10/2015,15-02498511,Abandoned Vehicle Complaint,5618818,,Green,FVI - Outcome,Return to Owner - Vehicle,7.0,4211 S ELLIS AVE,60653.0,,,4.0,2.0,36.0,,41.81764796984483,-87.6017244152721,"(41.81764796984483, -87.60172441527209)",2015-06-05
101359,06/05/2015,Completed,06/10/2015,15-02499578,Abandoned Vehicle Complaint,NO PLATES,Dodge,Gray,FVI - Outcome,Return to Owner - Vehicle,60.0,10152 S YATES AVE,60617.0,,,7.0,4.0,51.0,,41.7101544840883,-87.56468703699767,"(41.7101544840883, -87.56468703699765)",2015-06-05
101360,06/03/2015,Completed,06/10/2015,15-02454092,Abandoned Vehicle Complaint,A985954,Cadillac,Black,FVI - Outcome,Vehicle was moved from original address requested,90.0,6829 S CRANDON AVE,60649.0,,,5.0,3.0,43.0,,41.770987281729205,-87.56976061298691,"(41.7709872817292, -87.5697606129869)",2015-06-03
101361,06/03/2015,Completed,06/10/2015,15-02459039,Abandoned Vehicle Complaint,E637927,Honda,Black,FVI - Outcome,Vehicle was moved from original address requested,1.0,7599 N OCONTO AVE,60631.0,,,41.0,16.0,9.0,,42.018847084344394,-87.80762200721355,"(42.01884708434439, -87.80762200721354)",2015-06-03
101362,06/04/2015,Completed,06/10/2015,15-02463112,Abandoned Vehicle Complaint,N743591,Nissan,Green,FVI - Outcome,Vehicle was moved from original address requested,20.0,6249 W NEWPORT AVE,60634.0,,,36.0,16.0,17.0,,41.94283665110628,-87.78319266820185,"(41.94283665110628, -87.78319266820185)",2015-06-04
101363,06/04/2015,Completed,06/10/2015,15-02463893,Abandoned Vehicle Complaint,V780980,Hyundai,Gray,FVI - Outcome,Return to Owner - Vehicle,60.0,4822 W DRUMMOND PL,60639.0,,,31.0,25.0,19.0,,41.92891324569216,-87.74745242388904,"(41.92891324569216, -87.74745242388904)",2015-06-04
101364,06/04/2015,Completed,06/10/2015,15-02464606,Abandoned Vehicle Complaint,L74 4134,Chrysler,Black,FVI - Outcome,Vehicle was moved from original address requested,30.0,2815 N MENARD AVE,60634.0,,,30.0,25.0,19.0,,41.93169903322738,-87.7709739463941,"(41.93169903322738, -87.7709739463941)",2015-06-04
101365,06/04/2015,Completed,06/10/2015,15-02467915,Abandoned Vehicle Complaint,E530375,Mazda,Green,FVI - Outcome,Vehicle was moved from original address requested,15.0,1648 W NELSON ST,60657.0,,,32.0,19.0,6.0,27.0,41.93704607843976,-87.67049484953426,"(41.93704607843976, -87.67049484953426)",2015-06-04
101366,06/04/2015,Completed,06/10/2015,15-02468001,Abandoned Vehicle Complaint,CU BABE1,Honda,Black,FVI - Outcome,Vehicle was moved from original address requested,22.0,1940 N LOWELL AVE,60639.0,,,35.0,25.0,20.0,,41.9164552803806,-87.73522484786764,"(41.9164552803806, -87.73522484786764)",2015-06-04
101367,06/04/2015,Completed,06/10/2015,15-02468647,Abandoned Vehicle Complaint,V511038,Toyota,Silver,FVI - Outcome,Vehicle was moved from original address requested,30.0,3705 N SPRINGFIELD AVE,60618.0,,,30.0,17.0,16.0,,41.94841634694877,-87.72486641688809,"(41.94841634694877, -87.7248664168881)",2015-06-04
101368,06/04/2015,Completed,06/10/2015,15-02468669,Abandoned Vehicle Complaint,V198704,Ford,Maroon,FVI - Outcome,Vehicle was moved from original address requested,14.0,3718 N SPRINGFIELD AVE,60618.0,,,30.0,17.0,16.0,,41.9488193161331,-87.72517423419089,"(41.94881931613309, -87.72517423419087)",2015-06-04
101369,06/04/2015,Completed,06/10/2015,15-02468741,Abandoned Vehicle Complaint,K375627,Volvo,Blue,FVI - Outcome,Vehicle was moved from original address requested,30.0,1605 E 91ST ST,60617.0,,,8.0,4.0,48.0,50.0,41.72952564353556,-87.58483417538643,"(41.72952564353556, -87.58483417538642)",2015-06-04
101370,06/04/2015,Completed,06/10/2015,15-02468841,Abandoned Vehicle Complaint,2178400,Buick,Blue,FVI - Outcome,Return to Owner - Vehicle,60.0,2707 N LARAMIE AVE,60639.0,,,31.0,25.0,19.0,,41.92984029473928,-87.75621406151069,"(41.92984029473928, -87.75621406151068)",2015-06-04
101371,06/04/2015,Completed,06/10/2015,15-02468906,Abandoned Vehicle Complaint,1697003,Ford,Beige,FVI - Outcome,Vehicle was moved from original address requested,14.0,4924 W BELDEN AVE,60639.0,,,36.0,25.0,19.0,,41.92249238032908,-87.74972492834104,"(41.92249238032908, -87.74972492834104)",2015-06-04
101372,06/04/2015,Completed,06/10/2015,15-02469638,Abandoned Vehicle Complaint,S715803,Cadillac,Black,FVI - Outcome,Vehicle was moved from original address requested,30.0,2318 N WOLCOTT AVE,60614.0,,,32.0,14.0,22.0,,41.922722365078286,-87.67591704653036,"(41.922722365078286, -87.67591704653036)",2015-06-04
101373,06/04/2015,Completed,06/10/2015,15-02469684,Abandoned Vehicle Complaint,7556830,Buick,Multi-Color,FVI - Outcome,Vehicle was moved from original address requested,30.0,3252 N WOLCOTT AVE,60657.0,,,32.0,19.0,5.0,,41.94119020340143,-87.67612350658291,"(41.94119020340143, -87.67612350658291)",2015-06-04
101374,06/04/2015,Completed,06/10/2015,15-02469927,Abandoned Vehicle Complaint,156MWS,Dodge,White,FVI - Outcome,Vehicle was moved from original address requested,30.0,221 W 24TH PL,60616.0,,,11.0,9.0,34.0,,41.84812904716584,-87.63277778788456,"(41.84812904716584, -87.63277778788456)",2015-06-04
101375,06/04/2015,Completed,06/10/2015,15-02470096,Abandoned Vehicle Complaint,V733287,Honda,Brown,FVI - Outcome,Vehicle was moved from original address requested,60.0,3019 N MENARD AVE,60634.0,,,30.0,25.0,19.0,,41.93546505592833,-87.771104317247,"(41.935465055928326, -87.77110431724698)",2015-06-04
101376,06/04/2015,Completed,06/10/2015,15-02470930,Abandoned Vehicle Complaint,9999999,(Unlisted Make),Yellow,FVI - Outcome,Vehicle was moved from original address requested,4.0,3051 N KILBOURN AVE,60641.0,,,31.0,25.0,20.0,,41.93678850037108,-87.73927683631752,"(41.93678850037108, -87.73927683631752)",2015-06-04
101377,06/04/2015,Completed,06/10/2015,15-02470964,Abandoned Vehicle Complaint,E726223,Suzuki,Gray,FVI - Outcome,Vehicle was moved from original address requested,14.0,1619 E 91ST PL,60617.0,,,8.0,4.0,48.0,50.0,41.72862306518857,-87.58423436394726,"(41.728623065188565, -87.58423436394725)",2015-06-04
101378,06/04/2015,Completed,06/10/2015,15-02472526,Abandoned Vehicle Complaint,WLS286,Pontiac,Green,FVI - Outcome,Vehicle was moved from original address requested,14.0,4415 S UNION AVE,60609.0,,,11.0,9.0,61.0,,41.81393492065546,-87.64310264152068,"(41.81393492065546, -87.64310264152068)",2015-06-04
101379,06/04/2015,Completed,06/10/2015,15-02473640,Abandoned Vehicle Complaint,338909,(Unlisted Make),Yellow,FVI - Outcome,Vehicle was moved from original address requested,14.0,3770 N ORIOLE AVE,60634.0,,,38.0,16.0,17.0,,41.948446208267995,-87.81704039411154,"(41.948446208267995, -87.81704039411154)",2015-06-04
101380,06/04/2015,Completed,06/10/2015,15-02474407,Abandoned Vehicle Complaint,?,Chevrolet,Silver,FVI - Outcome,Vehicle was moved from original address requested,33.0,2012 N RICHMOND ST,60647.0,,,1.0,14.0,22.0,,41.917890846996286,-87.70015260653031,"(41.917890846996286, -87.70015260653031)",2015-06-04
101381,06/04/2015,Completed,06/10/2015,15-02475624,Abandoned Vehicle Complaint,A484006,Jeep/Cherokee,Black,FVI - Outcome,Vehicle was moved from original address requested,9.0,2807 N MOZART ST,60618.0,,,33.0,14.0,21.0,,41.932321340576614,-87.69870516126517,"(41.932321340576614, -87.69870516126517)",2015-06-04
101382,06/02/2015,Completed,06/10/2015,15-02422123,Abandoned Vehicle Complaint,22144T,Legacy Unknown,White,FVI - Outcome,Vehicle was moved from original address requested,5.0,7439 S MARYLAND AVE,60619.0,,,8.0,3.0,69.0,51.0,41.75925669872407,-87.60401467766876,"(41.75925669872407, -87.60401467766876)",2015-06-02
101383,06/02/2015,Completed,06/10/2015,15-02422124,Abandoned Vehicle Complaint,1089750,Legacy Unknown,White,FVI - Outcome,Vehicle was moved from original address requested,5.0,7437 S MARYLAND AVE,60619.0,,,8.0,3.0,69.0,51.0,41.759313800302756,-87.60401614467176,"(41.759313800302756, -87.60401614467176)",2015-06-02
101384,06/02/2015,Completed,06/10/2015,15-02425126,Abandoned Vehicle Complaint,3582804,Ford,Blue,FVI - Outcome,Vehicle was moved from original address requested,30.0,9237 S MERRILL AVE,60617.0,,,7.0,4.0,48.0,,41.72687905473804,-87.57167109884941,"(41.72687905473804, -87.5716710988494)",2015-06-02
101385,06/02/2015,Completed,06/10/2015,15-02426590,Abandoned Vehicle Complaint,7379242,Honda,Black,FVI - Outcome,Vehicle was moved from original address requested,90.0,4941 N AUSTIN AVE,60630.0,,,45.0,16.0,11.0,,41.971467720317634,-87.77811654584501,"(41.97146772031763, -87.77811654584501)",2015-06-02
101386,06/02/2015,Completed,06/10/2015,15-02429559,Abandoned Vehicle Complaint,NO PLATES,Nissan,Black,FVI - Outcome,Vehicle was moved from original address requested,7.0,4032 N HAMLIN AVE,60618.0,,,45.0,17.0,16.0,,41.95470521516768,-87.7228838447393,"(41.95470521516768, -87.72288384473931)",2015-06-02
101387,06/02/2015,Completed,06/10/2015,15-02430632,Abandoned Vehicle Complaint,1824160,Cadillac,Brown,FVI - Outcome,Vehicle was moved from original address requested,10.0,1547 W CORNELIA AVE,60657.0,,,44.0,19.0,6.0,27.0,41.945064889877656,-87.66824654427748,"(41.94506488987766, -87.66824654427747)",2015-06-02
101388,06/03/2015,Completed,06/10/2015,15-02436122,Abandoned Vehicle Complaint,8463437,Pontiac,Silver,FVI - Outcome,Vehicle was moved from original address requested,14.0,1314 W GEORGE ST,60657.0,,,32.0,19.0,6.0,27.0,41.93443699050031,-87.66179080532858,"(41.93443699050031, -87.66179080532858)",2015-06-03
101389,06/03/2015,Completed,06/10/2015,15-02440370,Abandoned Vehicle Complaint,E699638,Chevrolet,Green,FVI - Outcome,Vehicle was moved from original address requested,-200.0,2752 N SPAULDING AVE,60647.0,,,35.0,14.0,22.0,,41.93158310425659,-87.71008168044159,"(41.93158310425659, -87.7100816804416)",2015-06-03
101390,06/03/2015,Completed,06/10/2015,15-02440619,Abandoned Vehicle Complaint,H752616,Chevrolet,Blue,FVI - Outcome,Vehicle was moved from original address requested,20.0,3826 N HAMLIN AVE,60618.0,,,45.0,17.0,16.0,,41.95090551198005,-87.72277899774963,"(41.950905511980054, -87.72277899774963)",2015-06-03
101391,06/03/2015,Completed,06/10/2015,15-02441386,Abandoned Vehicle Complaint,FPJ9621  NEW YORK,Chevrolet,Yellow,FVI - Outcome,Vehicle was moved from original address requested,10.0,2235 N DAYTON ST,60614.0,,,43.0,18.0,7.0,,41.92285092707481,-87.64973818455951,"(41.922850927074805, -87.64973818455952)",2015-06-03
101392,06/03/2015,Completed,06/10/2015,15-02443800,Abandoned Vehicle Complaint,NONE,Mercury,Gold,FVI - Outcome,Vehicle was moved from original address requested,360.0,908 E 80TH ST,60619.0,,,8.0,6.0,44.0,51.0,41.74959968783102,-87.60231399768993,"(41.74959968783102, -87.60231399768993)",2015-06-03
101393,06/03/2015,Completed,06/10/2015,15-02447564,Abandoned Vehicle Complaint,1059249,Dodge,Burgundy,FVI - Outcome,Vehicle was moved from original address requested,21.0,5024 W PENSACOLA AVE,60641.0,,,45.0,16.0,15.0,,41.9598528195159,-87.75296866690216,"(41.95985281951591, -87.75296866690216)",2015-06-03
101394,06/03/2015,Completed,06/10/2015,15-02447794,Abandoned Vehicle Complaint,118S7398,Legacy Unknown,White,FVI - Outcome,Vehicle was moved from original address requested,30.0,3839 W WILSON AVE,60625.0,,,35.0,17.0,14.0,,41.96452198200495,-87.72463405156857,"(41.96452198200495, -87.72463405156856)",2015-06-03
101395,06/03/2015,Completed,06/10/2015,15-02448988,Abandoned Vehicle Complaint,18490X,Chevrolet,Red,FVI - Outcome,Vehicle was moved from original address requested,60.0,2513 E 85TH ST,60617.0,,,7.0,4.0,46.0,,41.740759103153295,-87.56306722962763,"(41.7407591031533, -87.56306722962763)",2015-06-03
101396,06/03/2015,Completed,06/10/2015,15-02449839,Abandoned Vehicle Complaint,?,(Unlisted Make),Silver,FVI - Outcome,Vehicle was moved from original address requested,7.0,5616 W MONTROSE AVE,60634.0,,,38.0,16.0,15.0,,41.96058503243348,-87.76793863414038,"(41.96058503243348, -87.76793863414038)",2015-06-03
101397,06/03/2015,Completed,06/10/2015,15-02451347,Abandoned Vehicle Complaint,N799853,Chevrolet,White,FVI - Outcome,Vehicle was moved from original address requested,90.0,5225 N AUSTIN AVE,60630.0,,,45.0,16.0,11.0,,41.976432671596406,-87.77801607937813,"(41.97643267159641, -87.77801607937813)",2015-06-03
101398,06/03/2015,Completed,06/10/2015,15-02452197,Abandoned Vehicle Complaint,6053810,Honda,Silver,FVI - Outcome,Vehicle was moved from original address requested,7.0,5600 N ORIOLE AVE,60631.0,,,41.0,16.0,10.0,,41.98159608311021,-87.81700064474474,"(41.981596083110205, -87.81700064474474)",2015-06-03
101399,06/03/2015,Completed,06/10/2015,15-02452714,Abandoned Vehicle Complaint,IL 87397,Chevrolet,Gold,FVI - Outcome,Vehicle was moved from original address requested,15.0,3813 N DRAKE AVE,60618.0,,,35.0,17.0,16.0,,41.9505882156184,-87.71635127126059,"(41.9505882156184, -87.7163512712606)",2015-06-03
101411,06/11/2015,Completed - Dup,06/11/2015,15-02629095,Abandoned Vehicle Complaint,V771896,General Motors Corp.,Black,FVI - Outcome,Create Work Order,21.0,618 N MONTICELLO AVE,60624.0,1151941.41726807,1903876.51813123,27.0,11.0,23.0,,41.89239699887273,-87.7175897443488,"(41.89239699887273, -87.7175897443488)",2015-06-11
101412,06/11/2015,Completed - Dup,06/11/2015,15-02637296,Abandoned Vehicle Complaint,E644450,Pontiac,Black,FVI - Outcome,Create Work Order,30.0,11355 S PRAIRIE AVE,60628.0,1179939.1050989,1829708.32771273,9.0,5.0,49.0,,41.68751042324406,-87.61672242476419,"(41.68751042324406, -87.61672242476418)",2015-06-11
101413,06/11/2015,Completed - Dup,06/11/2015,15-02638610,Abandoned Vehicle Complaint,UNKNOWN,Honda,White,FVI - Outcome,Create Work Order,30.0,4215 N KEDVALE AVE,60641.0,1148091.18357076,1927693.10790856,39.0,17.0,16.0,,41.95775326799668,-87.73082396671329,"(41.95775326799668, -87.73082396671329)",2015-06-11
101414,06/11/2015,Completed - Dup,06/11/2015,15-02639404,Abandoned Vehicle Complaint,E950100,Jaguar,Gray,FVI - Outcome,Create Work Order,14.0,5210 S CARPENTER ST,60609.0,1170197.68331295,1870259.01707998,20.0,9.0,61.0,,41.7992910342765,-87.65151256217943,"(41.7992910342765, -87.65151256217943)",2015-06-11
101415,06/11/2015,Completed,06/11/2015,15-02630603,Abandoned Vehicle Complaint,DBN8217,Chevrolet,Burgundy,FVI - Outcome,Return to Owner - Vehicle,7.0,2416 S LAWNDALE AVE,60623.0,,,22.0,10.0,30.0,,41.8474631763674,-87.71746335657589,"(41.8474631763674, -87.71746335657589)",2015-06-11
101416,06/11/2015,Completed,06/11/2015,15-02632503,Abandoned Vehicle Complaint,TEMP PLATE,Oldsmobile,White,FVI - Outcome,Vehicle was moved from original address requested,20.0,4336 S PRAIRIE AVE,60653.0,,,3.0,2.0,38.0,,41.81548259263907,-87.61990910753792,"(41.81548259263907, -87.61990910753792)",2015-06-11
101417,06/10/2015,Completed - Dup,06/11/2015,15-02621821,Abandoned Vehicle Complaint,V159819,Saturn,Gold,FVI - Outcome,Create Work Order,21.0,2055 N KILBOURN AVE,60639.0,1146055.63097988,1913282.25790263,36.0,25.0,20.0,,41.9186445387664,-87.7386860592317,"(41.918644538766394, -87.7386860592317)",2015-06-10
101418,06/10/2015,Completed,06/11/2015,15-02606926,Abandoned Vehicle Complaint,NONE,Ford,White,FVI - Outcome,Vehicle was moved from original address requested,8.0,604 N LARAMIE AVE,60644.0,,,37.0,15.0,25.0,,41.89144717502508,-87.7556187316647,"(41.89144717502508, -87.75561873166468)",2015-06-10
101419,06/10/2015,Completed,06/11/2015,15-02610938,Abandoned Vehicle Complaint,8774064,Chrysler,Gray,FVI - Outcome,Return to Owner - Vehicle,200.0,6847 W 64TH PL,60638.0,,,23.0,8.0,64.0,,41.7746580125564,-87.79280432919523,"(41.7746580125564, -87.79280432919523)",2015-06-10
101420,06/10/2015,Completed,06/11/2015,15-02610968,Abandoned Vehicle Complaint,S101157,Pontiac,Black,FVI - Outcome,Return to Owner - Vehicle,360.0,1524 N LEAMINGTON AVE,60651.0,,,37.0,25.0,25.0,,41.90846615348549,-87.75484177984943,"(41.908466153485485, -87.75484177984944)",2015-06-10
101421,06/10/2015,Completed,06/11/2015,15-02612866,Abandoned Vehicle Complaint,N808844,Dodge,White,FVI - Outcome,Vehicle was moved from original address requested,14.0,5700 N CHRISTIANA AVE,60659.0,,,39.0,17.0,13.0,,41.98492868637997,-87.71273952001245,"(41.98492868637998, -87.71273952001246)",2015-06-10
101422,06/10/2015,Completed,06/11/2015,15-02615765,Abandoned Vehicle Complaint,,Cadillac,White,FVI - Outcome,Vehicle was moved from original address requested,30.0,1230 N LOCKWOOD AVE,60651.0,,,37.0,25.0,25.0,,41.90308125704193,-87.75841571327076,"(41.903081257041926, -87.75841571327076)",2015-06-10
101423,06/10/2015,Completed,06/11/2015,15-02616891,Abandoned Vehicle Complaint,NONE,,White,FVI - Outcome,Vehicle was moved from original address requested,28.0,1800 W FARRAGUT AVE,60640.0,,,40.0,20.0,4.0,,41.977105421980774,-87.67517329227528,"(41.977105421980774, -87.67517329227528)",2015-06-10
101424,06/10/2015,Completed,06/11/2015,15-02617490,Abandoned Vehicle Complaint,R484709,Nissan,Beige,FVI - Outcome,Vehicle was moved from original address requested,35.0,1401 W NORTH SHORE AVE,60626.0,,,49.0,24.0,1.0,,42.00351287332144,-87.66573930249832,"(42.00351287332144, -87.66573930249831)",2015-06-10
101425,06/10/2015,Completed - Dup,06/11/2015,15-02617214,Abandoned Vehicle Complaint,0,Dodge,Burgundy,FVI - Outcome,Create Work Order,7.0,5024 W PENSACOLA AVE,60641.0,1142387.87812626,1928461.73398841,45.0,16.0,15.0,,41.9598528195159,-87.75296866690216,"(41.95985281951591, -87.75296866690216)",2015-06-10
101426,06/10/2015,Completed - Dup,06/11/2015,15-02619561,Abandoned Vehicle Complaint,N799853,Chevrolet,White,FVI - Outcome,Create Work Order,7.0,5227 N AUSTIN AVE,60630.0,1135207.06652668,1934392.8499933,45.0,16.0,11.0,,41.976488888840045,-87.77801499985216,"(41.976488888840045, -87.77801499985215)",2015-06-10
101427,06/10/2015,Completed - Dup,06/11/2015,15-02621815,Abandoned Vehicle Complaint,P126797,Toyota,Blue,FVI - Outcome,Create Work Order,21.0,2053 N KILBOURN AVE,60639.0,1146056.03097988,1913268.75790263,36.0,25.0,20.0,,41.918587741623824,-87.73868431751842,"(41.91858774162382, -87.73868431751842)",2015-06-10
101428,06/09/2015,Completed,06/11/2015,15-02581956,Abandoned Vehicle Complaint,NONE,Legacy Unknown,White,FVI - Outcome,Vehicle was moved from original address requested,14.0,3833 S GILES AVE,60653.0,,,3.0,2.0,35.0,,41.824632556553794,-87.61905029364065,"(41.8246325565538, -87.61905029364065)",2015-06-09
101429,06/09/2015,Completed,06/11/2015,15-02584921,Abandoned Vehicle Complaint,A WILSON 2,Chevrolet,Gold,FVI - Outcome,Vehicle was moved from original address requested,4.0,1251 W 116TH ST,60643.0,,,34.0,5.0,53.0,,41.682995164632075,-87.65385138274675,"(41.68299516463207, -87.65385138274675)",2015-06-09
101430,06/09/2015,Completed,06/11/2015,15-02587571,Abandoned Vehicle Complaint,29518V,"Monon Trailer, Div. Of Evans Products Co.",Red,FVI - Outcome,Vehicle was moved from original address requested,7.0,1637 N MOODY AVE,60639.0,,,29.0,25.0,25.0,,41.910325998980106,-87.7787575994228,"(41.9103259989801, -87.7787575994228)",2015-06-09
101431,06/09/2015,Completed,06/11/2015,15-02589861,Abandoned Vehicle Complaint,CAN'T SEE,,Unknown,FVI - Outcome,Return to Owner - Vehicle,30.0,4841 W SUPERIOR ST,60644.0,,,37.0,15.0,25.0,,41.89393106399315,-87.74741577275606,"(41.89393106399315, -87.74741577275607)",2015-06-09
101432,06/09/2015,Completed,06/11/2015,15-02592123,Abandoned Vehicle Complaint,UNKNOWN,Chrysler,White,FVI - Outcome,Vehicle was moved from original address requested,21.0,3345 W HARRISON ST,60624.0,,,24.0,11.0,27.0,,41.87352520357837,-87.71017999711924,"(41.873525203578374, -87.71017999711924)",2015-06-09
101433,06/09/2015,Completed,06/11/2015,15-02592140,Abandoned Vehicle Complaint,UNKNOWN,Nissan,Black,FVI - Outcome,Vehicle was moved from original address requested,30.0,3345 W HARRISON ST,60624.0,,,24.0,11.0,27.0,,41.87352520357837,-87.71017999711924,"(41.873525203578374, -87.71017999711924)",2015-06-09
101434,06/09/2015,Completed,06/11/2015,15-02592187,Abandoned Vehicle Complaint,UNKNOWN,Legacy Unknown,Beige,FVI - Outcome,Vehicle was moved from original address requested,21.0,3345 W HARRISON ST,60624.0,,,24.0,11.0,27.0,,41.87352520357837,-87.71017999711924,"(41.873525203578374, -87.71017999711924)",2015-06-09
101435,06/09/2015,Completed,06/11/2015,15-02594264,Abandoned Vehicle Complaint,NO PLATE,Toyota,Black,FVI - Outcome,Return to Owner - Vehicle,16.0,3957 W HURON ST,60624.0,,,37.0,11.0,23.0,,41.893425099951365,-87.72576570773815,"(41.893425099951365, -87.72576570773815)",2015-06-09
101436,06/09/2015,Completed,06/11/2015,15-02594277,Abandoned Vehicle Complaint,NO PLATES,Buick,Black,FVI - Outcome,Vehicle was moved from original address requested,16.0,3959 W ERIE ST,60624.0,,,37.0,11.0,23.0,,41.892796014925324,-87.72578857198269,"(41.892796014925324, -87.72578857198268)",2015-06-09
101437,06/09/2015,Completed,06/11/2015,15-02596606,Abandoned Vehicle Complaint,NONE,Ford,Red,FVI - Outcome,Vehicle was moved from original address requested,14.0,6709 N TALMAN AVE,60645.0,,,50.0,24.0,2.0,,42.00340386178546,-87.69598540999482,"(42.00340386178545, -87.69598540999482)",2015-06-09
101438,06/09/2015,Completed,06/11/2015,15-02596612,Abandoned Vehicle Complaint,970CST,Chevrolet,Blue,FVI - Outcome,Vehicle was moved from original address requested,14.0,6707 N TALMAN AVE,60645.0,1157442.29129497,1944404.90970449,50.0,24.0,2.0,,42.00334697944746,-87.69598385544975,"(42.00334697944746, -87.69598385544975)",2015-06-09
101439,06/08/2015,Completed,06/11/2015,15-02560868,Abandoned Vehicle Complaint,S241961,Chevrolet,Gray,FVI - Outcome,Return to Owner - Vehicle,15.0,11611 S VINCENNES AVE,60643.0,,,34.0,22.0,75.0,,41.683043346794,-87.6685051726149,"(41.683043346793994, -87.66850517261491)",2015-06-08
101440,06/08/2015,Completed,06/11/2015,15-02567529,Abandoned Vehicle Complaint,Y913890,Chrysler,Red,FVI - Outcome,Return to Owner - Vehicle,14.0,1833 S DRAKE AVE,60623.0,,,24.0,10.0,29.0,,41.856157353588706,-87.71376331684515,"(41.85615735358871, -87.71376331684516)",2015-06-08
101441,06/08/2015,Completed,06/11/2015,15-02573371,Abandoned Vehicle Complaint,P824624,Pontiac,Red,FVI - Outcome,Vehicle was moved from original address requested,30.0,5520 S HALSTED ST,60621.0,,,20.0,7.0,68.0,,41.79327188569643,-87.64527967975046,"(41.793271885696434, -87.64527967975046)",2015-06-08
101442,06/06/2015,Completed,06/11/2015,15-02510887,Abandoned Vehicle Complaint,NONE,Jeep/Cherokee,Black,FVI - Outcome,Vehicle was moved from original address requested,9.0,1814 N DRAKE AVE,60647.0,,,1.0,14.0,22.0,,41.91413205932461,-87.71520462588256,"(41.91413205932461, -87.71520462588256)",2015-06-06
101443,06/06/2015,Completed,06/11/2015,15-02515094,Abandoned Vehicle Complaint,DON'T HAVE,Nissan,Tan,FVI - Outcome,Return to Owner - Vehicle,90.0,1624 S HARDING AVE,60623.0,,,24.0,10.0,29.0,,41.858109264082884,-87.7238351947605,"(41.858109264082884, -87.7238351947605)",2015-06-06
101444,06/06/2015,Completed,06/11/2015,15-02515964,Abandoned Vehicle Complaint,93 CP,Ford,White,FVI - Outcome,Vehicle was moved from original address requested,9.0,3601 S DAMEN AVE,60609.0,,,12.0,9.0,59.0,,41.82847883622358,-87.67508768321156,"(41.82847883622358, -87.67508768321154)",2015-06-06
101445,06/06/2015,Completed,06/11/2015,15-02518901,Abandoned Vehicle Complaint,822 DGS,Volvo,White,FVI - Outcome,Vehicle was moved from original address requested,3.0,2633 N SACRAMENTO AVE,60647.0,,,32.0,14.0,22.0,,41.92965118235074,-87.70230830033829,"(41.929651182350746, -87.7023083003383)",2015-06-06
101446,06/06/2015,Completed,06/11/2015,15-02520497,Abandoned Vehicle Complaint,C582379,Mitsubishi,Silver,FVI - Outcome,Vehicle was moved from original address requested,15.0,1659 W HADDON AVE,60622.0,,,1.0,12.0,24.0,,41.90212882206451,-87.66976405193087,"(41.90212882206451, -87.66976405193088)",2015-06-06
101447,06/06/2015,Completed,06/11/2015,15-02529597,Abandoned Vehicle Complaint,V745044,Ford,White,FVI - Outcome,Vehicle was moved from original address requested,30.0,1531 W PEARSON ST,60642.0,,,1.0,12.0,24.0,29.0,41.897408752647685,-87.66621146138965,"(41.89740875264769, -87.66621146138965)",2015-06-06
101448,06/05/2015,Completed,06/11/2015,15-02489269,Abandoned Vehicle Complaint,,"(Assembled From Parts,Homemade)",Brown,FVI - Outcome,Return to Owner - Vehicle,350.0,5350 N LOCKWOOD AVE,60630.0,,,45.0,16.0,11.0,,41.97888416351164,-87.75912081493642,"(41.97888416351164, -87.75912081493644)",2015-06-05
101449,06/05/2015,Completed,06/11/2015,15-02491380,Abandoned Vehicle Complaint,V25 45245,Isuzu,White,FVI - Outcome,Vehicle was moved from original address requested,4.0,1244 W 115TH ST,60643.0,,,34.0,22.0,75.0,,41.68503717185828,-87.65366099957147,"(41.68503717185829, -87.65366099957147)",2015-06-05
