Creation Date,Status,Completion Date,Service Request Number,Type of Service Request,Location of Trees,Street Address,ZIP Code,X Coordinate,Y Coordinate,Ward,Police District,Community Area,Latitude,Longitude,Location,date
04/01/2011,Completed - Dup,02/01/2012,11-00561180,Tree Trim,Parkway,5706 S PARKSIDE AVE,60638.0,1139681.33403313,1866192.71556743,23.0,8.0,56.0,41.78893234437576,-87.76338159707736,"(41.78893234437576, -87.76338159707736)",2011-04-01
04/01/2011,Completed - Dup,02/01/2012,11-00561297,Tree Trim,Parkway,5706 S PARKSIDE AVE,60638.0,1139681.33403313,1866192.71556743,23.0,8.0,56.0,41.78893234437576,-87.76338159707736,"(41.78893234437576, -87.76338159707736)",2011-04-01
04/01/2011,Completed - Dup,03/27/2013,11-00565113,Tree Trim,Parkway,5461 N MARMORA AVE,60630.0,1135878.70159732,1935937.20309135,45.0,16.0,11.0,41.98038887688281,-87.77566297394434,"(41.98038887688281, -87.77566297394435)",2011-04-01
04/01/2011,Completed - Dup,05/23/2011,11-00563271,Tree Trim,Parkway,1815 N HUDSON AVE,60614.0,1172970.19128489,1912370.70896617,43.0,18.0,7.0,41.9149779720104,-87.63995520755967,"(41.9149779720104, -87.63995520755965)",2011-04-01
04/01/2011,Completed - Dup,08/16/2011,11-00563837,Tree Trim,Parkway,4601 S LAWLER AVE,60638.0,1143465.92461392,1873657.33792674,23.0,8.0,56.0,41.8093467908396,-87.74931859605854,"(41.80934679083959, -87.74931859605853)",2011-04-01
04/01/2011,Completed - Dup,09/01/2011,11-00562973,Tree Trim,Parkway,5723 W LELAND AVE,60630.0,1137334.93600073,1930673.08636979,45.0,16.0,15.0,41.96591753374727,-87.77043459062027,"(41.965917533747266, -87.77043459062027)",2011-04-01
04/01/2011,Completed - Dup,09/15/2011,11-00566299,Tree Trim,Parkway,5226 S INGLESIDE AVE,60615.0,1183425.03848805,1870727.87333312,4.0,21.0,41.0,41.800469473889926,-87.60284753059516,"(41.800469473889926, -87.60284753059516)",2011-04-01
04/01/2011,Completed - Dup,10/11/2011,11-00566943,Tree Trim,Parkway,8001 S SAWYER AVE,60652.0,1156104.49956954,1851369.54781136,18.0,8.0,70.0,41.74794075703465,-87.70356073838067,"(41.74794075703465, -87.70356073838069)",2011-04-01
04/01/2011,Completed - Dup,10/17/2012,11-00559864,Tree Trim,Parkway,6829 S HERMITAGE AVE,60636.0,1165857.34121228,1859406.81352858,17.0,7.0,67.0,41.769794685292474,-87.66759512718113,"(41.769794685292474, -87.66759512718113)",2011-04-01
04/01/2011,Completed - Dup,11/14/2012,11-00564575,Tree Trim,Parkway,11201 S ABERDEEN ST,60643.0,1170991.4857043002,1830522.32538708,34.0,22.0,75.0,41.69042096160581,-87.64961661975573,"(41.69042096160581, -87.64961661975573)",2011-04-01
04/01/2011,Completed - Dup,12/10/2012,11-00559861,Tree Trim,Parkway,7101 N HIAWATHA AVE,60646.0,1134674.26653259,1946499.32451382,41.0,16.0,12.0,42.00939364193962,-87.77984145498822,"(42.009393641939624, -87.77984145498822)",2011-04-01
04/01/2011,Completed,01/20/2012,11-00560455,Tree Trim,Parkway,10333 S RHODES AVE,60628.0,1181740.03932459,1836438.89001457,9.0,5.0,49.0,41.706415958803355,-87.61008397649657,"(41.706415958803355, -87.61008397649657)",2011-04-01
04/01/2011,Completed,01/24/2012,11-00566271,Tree Trim,Parkway,5053 W CORNELIA AVE,60641.0,1142035.72400309,1922797.49338582,38.0,16.0,15.0,41.94422015982157,-87.75334644505452,"(41.94422015982157, -87.75334644505452)",2011-04-01
04/01/2011,Completed,01/25/2012,11-00564227,Tree Trim,,3616 N OCTAVIA AVE,60634.0,1126775.40838249,1923149.41570357,36.0,16.0,17.0,41.945455520578925,-87.80942983936123,"(41.94545552057892, -87.80942983936124)",2011-04-01
04/01/2011,Completed,02/17/2012,11-00567130,Tree Trim,Parkway,1033 W ARMITAGE AVE,60614.0,1168974.81000205,1913472.1504913997,32.0,18.0,7.0,41.918088087052496,-87.65460163476507,"(41.918088087052496, -87.65460163476507)",2011-04-01
04/01/2011,Completed,02/18/2013,11-00564811,Tree Trim,Parkway,3461 N ORIOLE AVE,60634.0,1124808.74257399,1922068.88201312,36.0,16.0,17.0,41.942523160956796,-87.81668268126897,"(41.9425231609568, -87.81668268126897)",2011-04-01
04/01/2011,Completed,03/21/2013,11-00564217,Tree Trim,Parkway,8212 S YATES BLVD,60617.0,1193608.94648821,1850987.4958286998,7.0,4.0,46.0,41.746056926215275,-87.56614641278375,"(41.74605692621527, -87.56614641278377)",2011-04-01
04/01/2011,Completed,03/25/2013,11-00558409,Tree Trim,Parkway,3301 S EMERALD AVE,60616.0,1171838.81346762,1882996.7193916999,11.0,9.0,60.0,41.83439872087339,-87.64497718503088,"(41.83439872087338, -87.64497718503087)",2011-04-01
04/01/2011,Completed,04/01/2011,11-00564490,Tree Trim,,3651 S UNION AVE,60609.0,1172233.23171659,1880674.09879325,11.0,9.0,60.0,41.82801655858281,-87.64359839634778,"(41.82801655858281, -87.64359839634778)",2011-04-01
04/01/2011,Completed,04/01/2011,11-00564666,Tree Trim,,1133 W 18TH ST,60608.0,1169173.58012663,1891570.49676971,25.0,12.0,31.0,41.857984122205046,-87.65450791107884,"(41.85798412220505, -87.65450791107884)",2011-04-01
04/01/2011,Completed,04/01/2011,11-00564706,Tree Trim,,11457 S DR MARTIN LUTHER KING JR DR,60628.0,1180961.22108821,1828930.80289695,9.0,5.0,49.0,41.68583065552832,-87.61316583821512,"(41.68583065552832, -87.61316583821512)",2011-04-01
04/01/2011,Completed,04/01/2011,11-00564709,Tree Trim,,11451 S DR MARTIN LUTHER KING JR DR,60628.0,1180960.52108821,1828951.90289695,9.0,5.0,49.0,41.685888572976324,-87.6131677550365,"(41.68588857297633, -87.61316775503651)",2011-04-01
04/01/2011,Completed,04/01/2011,11-00564710,Tree Trim,,11452 S DR MARTIN LUTHER KING JR DR,60628.0,1180960.62108821,1828948.40289695,9.0,5.0,49.0,41.6858789661864,-87.61316749606877,"(41.685878966186394, -87.61316749606877)",2011-04-01
04/01/2011,Completed,04/01/2011,11-00564711,Tree Trim,,11453 S DR MARTIN LUTHER KING JR DR,60628.0,1180960.72108821,1828944.90289695,9.0,5.0,49.0,41.68586935939644,-87.6131672371011,"(41.68586935939644, -87.6131672371011)",2011-04-01
04/01/2011,Completed,04/01/2011,11-00564715,Tree Trim,,11439 S DR MARTIN LUTHER KING JR DR,60628.0,1180957.32108821,1829046.30289695,9.0,5.0,49.0,41.68614769335427,-87.6131765806365,"(41.68614769335427, -87.6131765806365)",2011-04-01
04/01/2011,Completed,04/01/2011,11-00564721,Tree Trim,,11431 S DR MARTIN LUTHER KING JR DR,60628.0,1180954.62108821,1829130.10289695,9.0,5.0,49.0,41.68637771435112,-87.61318390028063,"(41.68637771435112, -87.61318390028063)",2011-04-01
04/01/2011,Completed,04/01/2011,11-00564723,Tree Trim,,11429 S DR MARTIN LUTHER KING JR DR,60628.0,1180953.92108821,1829151.10289695,9.0,5.0,49.0,41.68643535737946,-87.61318582018777,"(41.68643535737946, -87.61318582018777)",2011-04-01
04/01/2011,Completed,04/01/2011,11-00564724,Tree Trim,,11422 S DR MARTIN LUTHER KING JR DR,60628.0,1180951.51079805,1829224.47001299,9.0,5.0,49.0,41.686636742410776,-87.61319239858051,"(41.68663674241078, -87.61319239858052)",2011-04-01
04/01/2011,Completed,04/01/2011,11-00564727,Tree Trim,,11323 S DR MARTIN LUTHER KING JR DR,60628.0,1180928.06480288,1829967.45430392,9.0,5.0,49.0,41.68867613380435,-87.61325549439775,"(41.68867613380435, -87.61325549439775)",2011-04-01
04/01/2011,Completed,04/01/2011,11-00564728,Tree Trim,,11315 S DR MARTIN LUTHER KING JR DR,60628.0,1180926.36480288,1830021.45430392,9.0,5.0,49.0,41.68882435637996,-87.61326006547989,"(41.68882435637996, -87.61326006547989)",2011-04-01
04/01/2011,Completed,04/01/2011,11-00564729,Tree Trim,,11254 S DR MARTIN LUTHER KING JR DR,60628.0,1180914.26480288,1830422.45430392,9.0,5.0,49.0,41.68992503410644,-87.61329209187227,"(41.68992503410644, -87.61329209187228)",2011-04-01
04/01/2011,Completed,04/01/2011,11-00564731,Tree Trim,,11251 S DR MARTIN LUTHER KING JR DR,60628.0,1180913.66480288,1830442.35430392,9.0,5.0,49.0,41.689979656251595,-87.61329367949884,"(41.68997965625159, -87.61329367949885)",2011-04-01
04/01/2011,Completed,04/01/2011,11-00564735,Tree Trim,,11247 S DR MARTIN LUTHER KING JR DR,60628.0,1180912.85523407,1830469.02976733,9.0,5.0,49.0,41.69005287602194,-87.61329582701948,"(41.69005287602194, -87.61329582701948)",2011-04-01
04/01/2011,Completed,04/01/2011,11-00564736,Tree Trim,,11241 S DR MARTIN LUTHER KING JR DR,60628.0,1180911.65523407,1830509.02976733,9.0,5.0,49.0,41.69016266913722,-87.61329899616396,"(41.69016266913723, -87.61329899616396)",2011-04-01
04/01/2011,Completed,04/01/2011,11-00564738,Tree Trim,,11242 S DR MARTIN LUTHER KING JR DR,60628.0,1180911.85523407,1830502.32976733,9.0,5.0,49.0,41.69014427881351,-87.61329846899271,"(41.690144278813506, -87.6132984689927)",2011-04-01
04/01/2011,Completed,04/01/2011,11-00564740,Tree Trim,,11244 S DR MARTIN LUTHER KING JR DR,60628.0,1180912.25523407,1830489.02976733,9.0,5.0,49.0,41.69010777257984,-87.61329741159071,"(41.69010777257984, -87.6132974115907)",2011-04-01
04/01/2011,Completed,04/01/2011,11-00564744,Tree Trim,,11238 S DR MARTIN LUTHER KING JR DR,60628.0,1180911.05523407,1830529.02976733,9.0,5.0,49.0,41.690217565694105,-87.61330058073924,"(41.690217565694105, -87.61330058073924)",2011-04-01
04/01/2011,Completed,04/01/2011,11-00564745,Tree Trim,,11228 S DR MARTIN LUTHER KING JR DR,60628.0,1180909.05523407,1830595.62976733,9.0,5.0,49.0,41.69040037127057,-87.61330586471165,"(41.69040037127057, -87.61330586471165)",2011-04-01
04/01/2011,Completed,04/01/2011,11-00564748,Tree Trim,,11224 S DR MARTIN LUTHER KING JR DR,60628.0,1180908.25523407,1830622.32976733,9.0,5.0,49.0,41.69047365814792,-87.61330797647085,"(41.690473658147916, -87.61330797647086)",2011-04-01
04/01/2011,Completed,04/01/2011,11-00564750,Tree Trim,,11222 S DR MARTIN LUTHER KING JR DR,60628.0,1180907.85523407,1830635.62976733,9.0,5.0,49.0,41.690510164379255,-87.61330903388192,"(41.690510164379255, -87.6133090338819)",2011-04-01
04/01/2011,Completed,04/01/2011,11-00564751,Tree Trim,,11204 S DR MARTIN LUTHER KING JR DR,60628.0,1180904.25523407,1830755.52976733,9.0,5.0,49.0,41.690839269278825,-87.61331854450167,"(41.69083926927883, -87.61331854450167)",2011-04-01
04/01/2011,Completed,04/01/2011,11-00564752,Tree Trim,,11221 S DR MARTIN LUTHER KING JR DR,60628.0,1180907.65523407,1830642.32976733,9.0,5.0,49.0,41.69052855470182,-87.61330956105768,"(41.69052855470182, -87.61330956105769)",2011-04-01
04/01/2011,Completed,04/01/2011,11-00564754,Tree Trim,,11104 S DR MARTIN LUTHER KING JR DR,60628.0,1180883.44576997,1831420.27198893,9.0,5.0,49.0,41.69266389163367,-87.6133743880707,"(41.69266389163367, -87.61337438807071)",2011-04-01
04/01/2011,Completed,04/01/2011,11-00564756,Tree Trim,,11108 S DR MARTIN LUTHER KING JR DR,60628.0,1180884.34576997,1831393.47198893,9.0,5.0,49.0,41.692590328076705,-87.6133719131452,"(41.6925903280767, -87.6133719131452)",2011-04-01
04/01/2011,Completed,04/01/2011,11-00564757,Tree Trim,,11116 S DR MARTIN LUTHER KING JR DR,60628.0,1180886.04576997,1831339.67198893,9.0,5.0,49.0,41.69244265442581,-87.61336733554134,"(41.69244265442581, -87.61336733554135)",2011-04-01
04/01/2011,Completed,04/01/2011,11-00564758,Tree Trim,,11128 S DR MARTIN LUTHER KING JR DR,60628.0,1180888.54576997,1831259.07198893,9.0,5.0,49.0,41.69222141950309,-87.61336064916199,"(41.692221419503085, -87.61336064916198)",2011-04-01
04/01/2011,Completed,04/01/2011,11-00564763,Tree Trim,,11130 S DR MARTIN LUTHER KING JR DR,60628.0,1180888.94576997,1831245.67198893,9.0,5.0,49.0,41.6921846388687,-87.61335959476747,"(41.6921846388687, -87.61335959476747)",2011-04-01
04/01/2011,Completed,04/01/2011,11-00564765,Tree Trim,,11134 S DR MARTIN LUTHER KING JR DR,60628.0,1180889.74576997,1831218.77198893,9.0,5.0,49.0,41.69211080318536,-87.61335748904129,"(41.69211080318536, -87.61335748904129)",2011-04-01
04/01/2011,Completed,04/01/2011,11-00564768,Tree Trim,,11136 S DR MARTIN LUTHER KING JR DR,60628.0,1180890.24576997,1831205.37198893,9.0,5.0,49.0,41.6920740202566,-87.61335606853805,"(41.6920740202566, -87.61335606853804)",2011-04-01
04/01/2011,Completed,04/01/2011,11-00564771,Tree Trim,,11142 S DR MARTIN LUTHER KING JR DR,60628.0,1180891.44576997,1831165.07198893,9.0,5.0,49.0,41.691963403936036,-87.61335290842888,"(41.69196340393604, -87.61335290842887)",2011-04-01
04/01/2011,Completed,04/01/2011,11-00564773,Tree Trim,,11152 S DR MARTIN LUTHER KING JR DR,60628.0,1180893.55523407,1831097.92976733,9.0,5.0,49.0,41.69177910796697,-87.61334724009151,"(41.69177910796698, -87.61334724009151)",2011-04-01
04/01/2011,Completed,04/01/2011,11-00564775,Tree Trim,,11156 S DR MARTIN LUTHER KING JR DR,60628.0,1180894.45523407,1831071.02976733,9.0,5.0,49.0,41.69170526998476,-87.61334476827679,"(41.69170526998476, -87.61334476827678)",2011-04-01
04/01/2011,Completed,04/01/2011,11-00564777,Tree Trim,,11158 S DR MARTIN LUTHER KING JR DR,60628.0,1180894.85523407,1831057.62976733,9.0,5.0,49.0,41.691668489347094,-87.61334371389559,"(41.69166848934709, -87.6133437138956)",2011-04-01
04/01/2011,Completed,04/01/2011,11-00564781,Tree Trim,,11201 S DR MARTIN LUTHER KING JR DR,60628.0,1180903.65523407,1830775.52976733,9.0,5.0,49.0,41.69089416582927,-87.61332012910208,"(41.69089416582927, -87.61332012910208)",2011-04-01
04/01/2011,Completed,04/01/2011,11-00565043,Tree Trim,,6037 N FAIRFIELD AVE,60659.0,1156911.0495253,1939988.45881004,50.0,24.0,2.0,41.991103903006014,-87.69820259909292,"(41.991103903006014, -87.69820259909292)",2011-04-01
04/01/2011,Completed,04/01/2011,11-00565046,Tree Trim,,6024 N WHIPPLE ST,60659.0,1154930.22892431,1939950.91278974,50.0,24.0,2.0,41.99104095539471,-87.70548960124512,"(41.99104095539471, -87.70548960124512)",2011-04-01
04/01/2011,Completed,04/01/2011,11-00565585,Tree Trim,,3338 N RAVENSWOOD AVE,60657.0,1163637.96739216,1922306.05992592,32.0,19.0,5.0,41.942443090857395,-87.67395984340051,"(41.9424430908574, -87.67395984340052)",2011-04-01
04/01/2011,Completed,04/01/2011,11-00565587,Tree Trim,,3342 N RAVENSWOOD AVE,60657.0,1163638.06739216,1922326.15992592,32.0,19.0,5.0,41.94249824422855,-87.67395890757697,"(41.94249824422855, -87.67395890757699)",2011-04-01
04/01/2011,Completed,04/02/2013,11-00563182,Tree Trim,Parkway,5416 W HENDERSON ST,60641.0,1139665.60173091,1921743.59376663,38.0,16.0,15.0,41.94137183131064,-87.7620839060792,"(41.94137183131064, -87.76208390607918)",2011-04-01
04/01/2011,Completed,05/02/2011,11-00561565,Tree Trim,Parkway,10120 S OGLESBY AVE,60617.0,1193825.8142942,1838333.8100327,10.0,4.0,51.0,41.711328745695454,-87.56576523116493,"(41.711328745695454, -87.56576523116493)",2011-04-01
04/01/2011,Completed,05/02/2011,11-00561656,Tree Trim,Parkway,1940 E 93RD ST,60617.0,1190842.86778372,1843690.89681084,8.0,4.0,48.0,41.72610159451265,-87.57651683933624,"(41.72610159451265, -87.57651683933624)",2011-04-01
04/01/2011,Completed,05/04/2011,11-00567498,Tree Trim,Alley,5021 S KEDVALE AVE,60632.0,1149550.37938079,1870940.35779058,14.0,8.0,57.0,41.8017753673496,-87.72707188348909,"(41.8017753673496, -87.7270718834891)",2011-04-01
04/01/2011,Completed,05/10/2012,11-00559487,Tree Trim,Parkway,11230 S GREEN ST,60643.0,1172657.75702266,1830371.81637387,34.0,22.0,75.0,41.689971486498635,-87.64352073598465,"(41.68997148649863, -87.64352073598465)",2011-04-01
04/01/2011,Completed,05/11/2011,11-00565087,Tree Trim,Parkway,5625 W 52ND ST,60638.0,1139639.36020598,1869577.57576717,23.0,8.0,56.0,41.798221744101724,-87.76345322990045,"(41.79822174410173, -87.76345322990045)",2011-04-01
04/01/2011,Completed,05/12/2011,11-00560512,Tree Trim,Parkway,2258 W 24TH ST,60608.0,1161588.13010578,1888035.73663027,25.0,10.0,31.0,41.84844557655095,-87.68244948516069,"(41.84844557655095, -87.68244948516069)",2011-04-01
04/01/2011,Completed,07/10/2012,11-00564454,Tree Trim,Parkway,1638 W WINONA ST,60640.0,1164477.21949477,1934262.6351088001,47.0,20.0,3.0,41.97523470506281,-87.67053531047439,"(41.97523470506281, -87.67053531047439)",2011-04-01
04/01/2011,Completed,08/25/2011,11-00564234,Tree Trim,,2853 W MCLEAN AVE,60647.0,1156887.65642298,1913538.56842559,35.0,14.0,22.0,41.918524258733896,-87.69900876341106,"(41.918524258733896, -87.69900876341107)",2011-04-01
04/01/2011,Completed,11/05/2012,11-00564240,Tree Trim,,1447 W BELLE PLAINE AVE,60613.0,1165807.7288731001,1927323.42757783,47.0,19.0,6.0,41.956164902743225,-87.6658413860928,"(41.95616490274323, -87.6658413860928)",2011-04-01
04/01/2011,Completed,11/22/2011,11-00565328,Tree Trim,Parkway,4722 N LAVERGNE AVE,60630.0,1142177.6700732,1931039.86460907,45.0,16.0,15.0,41.966835318920324,-87.752619415317,"(41.966835318920324, -87.752619415317)",2011-04-01
04/01/2011,Completed,11/22/2011,11-00567311,Tree Trim,Parkway,1527 N MOHAWK ST,60610.0,1172375.41667659,1910574.22977174,43.0,18.0,8.0,41.910061517046216,-87.64219350322941,"(41.91006151704622, -87.64219350322941)",2011-04-01
04/01/2011,Completed,11/27/2012,11-00564477,Tree Trim,Parkway,5258 N MCVICKER AVE,60630.0,1134820.69028653,1934596.54502944,45.0,16.0,11.0,41.97672882611249,-87.77958589706863,"(41.976728826112485, -87.77958589706864)",2011-04-01
04/01/2011,Completed,12/30/2011,11-00565009,Tree Trim,Parkway,5050 N NASHVILLE AVE,60656.0,1131569.76338842,1932852.36827178,41.0,16.0,10.0,41.971999678732736,-87.79158173366316,"(41.971999678732736, -87.79158173366315)",2011-04-01
04/02/2011,Completed - Dup,03/11/2013,11-00578980,Tree Trim,Parkway,8211 S MARSHFIELD AVE,60620.0,1166770.6032001998,1850260.00767474,21.0,6.0,71.0,41.74467514691074,-87.66450816356532,"(41.744675146910744, -87.66450816356532)",2011-04-02
04/02/2011,Completed - Dup,07/10/2012,11-00578413,Tree Trim,Parkway,6819 S RIDGELAND AVE,60649.0,1189041.55747107,1860102.73481269,5.0,3.0,43.0,41.7711804725629,-87.58259053726968,"(41.771180472562904, -87.58259053726968)",2011-04-02
04/02/2011,Completed - Dup,08/31/2012,11-00580105,Tree Trim,Parkway,8561 S VERNON AVE,60619.0,1180850.81826901,1848326.56163399,6.0,6.0,44.0,41.73905765216933,-87.61297597197505,"(41.73905765216933, -87.61297597197503)",2011-04-02
04/02/2011,Completed - Dup,10/26/2011,11-00578188,Tree Trim,Parkway,10522 S LEAVITT ST,60643.0,1163573.38433272,1834828.20562173,19.0,22.0,72.0,41.702395406892656,-87.67665457763809,"(41.702395406892656, -87.67665457763809)",2011-04-02
04/02/2011,Completed - Dup,11/16/2011,11-00582494,Tree Trim,Parkway,5645 N GLENWOOD AVE,60660.0,1165958.7299793998,1937724.31000851,48.0,20.0,77.0,41.98470206473147,-87.66498798515534,"(41.984702064731465, -87.66498798515535)",2011-04-02
04/02/2011,Completed - Dup,12/11/2012,11-00579337,Tree Trim,Parkway,6631 N SIOUX AVE,60646.0,1139082.80323201,1943574.19037043,41.0,16.0,12.0,42.00128750984683,-87.7636924474131,"(42.001287509846826, -87.7636924474131)",2011-04-02
04/02/2011,Completed,02/13/2013,11-00580025,Tree Trim,Parkway,3800 N CLARK ST,60613.0,1167517.98301479,1925470.19322907,44.0,19.0,6.0,41.95104282643847,-87.65960766131785,"(41.95104282643847, -87.65960766131784)",2011-04-02
04/02/2011,Completed,03/12/2012,11-00582501,Tree Trim,Parkway,5558 S CALIFORNIA AVE,60629.0,1158655.62022833,1867671.63312444,16.0,8.0,63.0,41.792624461198095,-87.6937683277453,"(41.79262446119809, -87.69376832774529)",2011-04-02
04/02/2011,Completed,04/02/2012,11-00579381,Tree Trim,Parkway,6556 S INGLESIDE AVE,60637.0,1183685.00037974,1861736.03950691,20.0,3.0,42.0,41.775789042798046,-87.60217461034958,"(41.77578904279805, -87.60217461034958)",2011-04-02
04/02/2011,Completed,04/29/2011,11-00585159,Tree Trim,Parkway,7435 N CALIFORNIA AVE,60645.0,1156453.29868798,1949293.65722704,50.0,24.0,2.0,42.01664702760133,-87.69963299535543,"(42.01664702760133, -87.69963299535543)",2011-04-02
04/02/2011,Completed,12/21/2011,11-00583760,Tree Trim,Parkway,2638 W CULLERTON ST,60608.0,1159086.00751288,1890306.96987162,28.0,10.0,30.0,41.854729756919646,-87.69157016509493,"(41.854729756919646, -87.69157016509493)",2011-04-02
04/03/2011,Completed - Dup,03/26/2012,11-00600822,Tree Trim,Parkway,6313 N TROY ST,60659.0,1154211.9711091002,1941707.70178571,50.0,24.0,2.0,41.99587608740876,-87.7080843646517,"(41.99587608740876, -87.7080843646517)",2011-04-03
04/03/2011,Completed - Dup,03/26/2012,11-00600825,Tree Trim,Parkway,6311 N TROY ST,60659.0,1154212.5711091002,1941694.70178571,50.0,24.0,2.0,41.99584040278147,-87.70808250670005,"(41.99584040278147, -87.70808250670007)",2011-04-03
04/03/2011,Completed - Dup,05/17/2011,11-00601422,Tree Trim,Parkway,3447 N MARSHFIELD AVE,60657.0,1164708.85610483,1922951.72549782,32.0,19.0,6.0,41.94419215851831,-87.67000548450159,"(41.94419215851831, -87.67000548450159)",2011-04-03
04/03/2011,Completed,01/16/2013,11-00598656,Tree Trim,Parkway,12910 S COMMERCIAL AVE,60633.0,1198088.45522578,1819963.91233035,10.0,4.0,55.0,41.66081453769185,-87.55076588087276,"(41.660814537691834, -87.55076588087277)",2011-04-03
04/03/2011,Completed,02/28/2012,11-00594367,Tree Trim,Parkway,104 S MASON AVE,60644.0,1136849.64660958,1898967.39252808,29.0,15.0,25.0,41.87892223505978,-87.77298070560238,"(41.87892223505978, -87.77298070560238)",2011-04-03
04/03/2011,Completed,02/28/2012,11-00594370,Tree Trim,Parkway,100 S MASON AVE,60644.0,1136849.04660958,1898987.19252808,29.0,15.0,25.0,41.87897657968007,-87.7729824340546,"(41.87897657968007, -87.77298243405461)",2011-04-03
04/03/2011,Completed,03/20/2012,11-00595675,Tree Trim,Vacant Lot,6456 S ST LAWRENCE AVE,60637.0,1181344.25122316,1862332.63091426,20.0,3.0,42.0,41.777480438186295,-87.61073711029077,"(41.777480438186295, -87.61073711029078)",2011-04-03
04/03/2011,Completed,05/05/2011,11-00595489,Tree Trim,Parkway,5740 S LA SALLE ST,60621.0,1176280.27560563,1866802.1184935002,20.0,2.0,68.0,41.789860445268246,-87.6291673414415,"(41.789860445268246, -87.6291673414415)",2011-04-03
04/03/2011,Completed,05/24/2012,11-00598375,Tree Trim,Parkway,6131 N MEADE AVE,60646.0,1134574.87998532,1940394.93661756,45.0,16.0,10.0,41.9926444775019,-87.7803521914612,"(41.9926444775019, -87.7803521914612)",2011-04-03
04/03/2011,Completed,09/05/2012,11-00593283,Tree Trim,Parkway,5753 S WINCHESTER AVE,60636.0,1164339.74672265,1866507.68321622,15.0,7.0,67.0,41.7893125052572,-87.67295809512028,"(41.7893125052572, -87.67295809512028)",2011-04-03
04/03/2011,Completed,12/22/2011,11-00594624,Tree Trim,Parkway,2500 S CHRISTIANA AVE,60623.0,1154429.10571125,1887192.48676938,22.0,10.0,30.0,41.8462774913216,-87.70874621101825,"(41.8462774913216, -87.70874621101827)",2011-04-03
04/04/2011,Completed - Dup,01/04/2012,11-00611226,Tree Trim,Parkway,4311 N AVERS AVE,60618.0,1149950.0444702,1928374.93560353,39.0,17.0,16.0,41.95937445265196,-87.72411090455374,"(41.95937445265195, -87.72411090455373)",2011-04-04
04/04/2011,Completed - Dup,01/19/2012,11-00619755,Tree Trim,Parkway,10441 S HOXIE AVE,60617.0,1195186.24340364,1836276.67717489,10.0,4.0,51.0,41.70565038467769,-87.5608506988019,"(41.70565038467769, -87.5608506988019)",2011-04-04
04/04/2011,Completed - Dup,02/13/2012,11-00612380,Tree Trim,Parkway,6124 W WARWICK AVE,60634.0,1134873.27951278,1924297.46689582,38.0,16.0,17.0,41.9484662153476,-87.77963724251045,"(41.9484662153476, -87.77963724251046)",2011-04-04
04/04/2011,Completed - Dup,03/16/2012,11-00611232,Tree Trim,Parkway,3856 N OCTAVIA AVE,60634.0,1126723.03363196,1924760.72092543,36.0,16.0,17.0,41.949878011417034,-87.80958616286924,"(41.94987801141703, -87.80958616286925)",2011-04-04
04/04/2011,Completed - Dup,04/10/2012,11-00612496,Tree Trim,Parkway,6639 N RICHMOND ST,60645.0,1155467.48750935,1943896.2146214,50.0,24.0,2.0,42.001856211407336,-87.70340666653341,"(42.001856211407336, -87.7034066665334)",2011-04-04
04/04/2011,Completed - Dup,04/11/2011,11-00610387,Tree Trim,Parkway,4347 W DEVON AVE,60646.0,1146170.42502229,1942150.53428293,39.0,17.0,12.0,41.99724855790644,-87.73765435150301,"(41.99724855790644, -87.73765435150302)",2011-04-04
04/04/2011,Completed - Dup,04/19/2011,11-00620781,Tree Trim,Parkway,6424 S NARRAGANSETT AVE,60638.0,1134863.43508348,1861140.15639293,23.0,8.0,64.0,41.775153473476294,-87.78116653064856,"(41.775153473476294, -87.78116653064856)",2011-04-04
04/04/2011,Completed - Dup,04/21/2011,11-00613473,Tree Trim,Parkway,5133 S SAYRE AVE,60638.0,1130591.73511426,1869656.13990711,23.0,8.0,56.0,41.79859714618047,-87.79663154492174,"(41.79859714618047, -87.79663154492175)",2011-04-04
04/04/2011,Completed - Dup,05/02/2011,11-00610603,Tree Trim,Parkway,5301 N LUDLAM AVE,60630.0,1139088.50798469,1935019.52599875,45.0,16.0,11.0,41.97781274387786,-87.76388072333198,"(41.97781274387786, -87.76388072333198)",2011-04-04
04/04/2011,Completed - Dup,05/05/2011,11-00611136,Tree Trim,Parkway,7019 S INDIANA AVE,60637.0,1178808.15382263,1858523.11889296,6.0,3.0,69.0,41.76708484109051,-87.62015018100881,"(41.76708484109051, -87.62015018100881)",2011-04-04
04/04/2011,Completed - Dup,05/06/2011,11-00611095,Tree Trim,Parkway,5301 S GREENWOOD AVE,60615.0,1184275.6356843,1870348.23940892,4.0,21.0,41.0,41.79940784989458,-87.59974004481974,"(41.79940784989458, -87.59974004481974)",2011-04-04
04/04/2011,Completed - Dup,05/13/2011,11-00611721,Tree Trim,Vacant Lot,244 W 103RD ST,60628.0,1176370.72002713,1836638.52122594,9.0,5.0,49.0,41.70708584152509,-87.629740113008,"(41.707085841525085, -87.629740113008)",2011-04-04
04/04/2011,Completed - Dup,08/16/2011,11-00615061,Tree Trim,Parkway,2659 W BALMORAL AVE,60625.0,1157643.13577547,1935761.99390108,40.0,20.0,4.0,41.97949136272227,-87.69562554401129,"(41.97949136272227, -87.6956255440113)",2011-04-04
04/04/2011,Completed - Dup,09/26/2011,11-00611233,Tree Trim,Parkway,917 S BELL AVE,60612.0,1161524.8917306003,1895927.5374736,25.0,12.0,28.0,41.87010277002901,-87.68246200843949,"(41.870102770029014, -87.68246200843949)",2011-04-04
04/04/2011,Completed - Dup,10/24/2011,11-03215605,Tree Trim,,3356 N KILPATRICK AVE,60641.0,1144591.29988641,1921906.45271572,30.0,17.0,15.0,41.94172722931229,-87.74397568369511,"(41.941727229312285, -87.74397568369511)",2011-04-04
04/04/2011,Completed - Dup,11/25/2011,11-00612032,Tree Trim,Parkway,5248 S HAMLIN AVE,60632.0,1151927.93470515,1869543.88741884,23.0,8.0,62.0,41.797896899897964,-87.71838899833202,"(41.79789689989796, -87.71838899833202)",2011-04-04
04/04/2011,Completed - Dup,12/07/2012,11-00613829,Tree Trim,Parkway,3637 N LEAVITT ST,60618.0,1161048.57438118,1924122.2253840999,47.0,19.0,5.0,41.94748101634365,-87.68342642540175,"(41.94748101634365, -87.68342642540175)",2011-04-04
04/04/2011,Completed - Dup,12/07/2012,11-00614185,Tree Trim,,6330 S ALBANY AVE,60629.0,1156807.99311906,1862494.54038577,15.0,8.0,66.0,41.77845529502671,-87.70068306610523,"(41.77845529502671, -87.70068306610523)",2011-04-04
04/04/2011,Completed - Dup,12/10/2012,11-00615601,Tree Trim,Parkway,5328 W ARGYLE ST,60630.0,1139930.34221493,1932749.63119089,45.0,16.0,11.0,41.97156856527492,-87.76084062776846,"(41.97156856527492, -87.76084062776847)",2011-04-04
04/04/2011,Completed - Dup,12/16/2011,11-00609039,Tree Trim,Parkway,3631 N OVERHILL AVE,60634.0,1123997.2677994,1923396.14991959,36.0,16.0,17.0,41.946178731808295,-87.8196360604393,"(41.9461787318083, -87.8196360604393)",2011-04-04
04/04/2011,Completed,01/17/2012,11-00608107,Tree Trim,Parkway,103 E 68TH ST,60637.0,1178348.38598782,1859958.79206886,20.0,3.0,69.0,41.77103493080842,-87.62179187152857,"(41.771034930808426, -87.62179187152856)",2011-04-04
04/04/2011,Completed,01/17/2012,11-00608188,Tree Trim,Parkway,115 E 68TH ST,60637.0,1178400.58598782,1859960.59206886,20.0,3.0,69.0,41.771038684961454,-87.62160047220043,"(41.77103868496145, -87.62160047220044)",2011-04-04
04/04/2011,Completed,01/17/2012,11-00612308,Tree Trim,Parkway,1544 W BIRCHWOOD AVE,60626.0,1164725.52397149,1949904.81841856,49.0,24.0,1.0,42.01815197635315,-87.66917606284659,"(42.01815197635315, -87.6691760628466)",2011-04-04
04/04/2011,Completed,01/23/2013,11-00616533,Tree Trim,Parkway,1849 W LUNT AVE,60626.0,1162647.44977247,1946529.43359537,49.0,24.0,1.0,42.008933840214866,-87.6769182187454,"(42.008933840214866, -87.67691821874541)",2011-04-04
04/04/2011,Completed,01/28/2013,11-00611413,Tree Trim,Parkway,4853 W WABANSIA AVE,60639.0,1143656.82592083,1910860.60507341,37.0,25.0,25.0,41.91143389959196,-87.74768759161243,"(41.911433899591955, -87.74768759161243)",2011-04-04
04/04/2011,Completed,01/28/2013,11-00611415,Tree Trim,Parkway,4855 W WABANSIA AVE,60639.0,1143638.52592083,1910860.20507341,37.0,25.0,25.0,41.91143314481077,-87.74775483073972,"(41.91143314481077, -87.74775483073974)",2011-04-04
04/04/2011,Completed,02/03/2012,11-00611912,Tree Trim,Parkway,120 E 104TH ST,60628.0,1179005.73012278,1836043.51362681,9.0,5.0,49.0,41.705393574392204,-87.6201088210334,"(41.7053935743922, -87.6201088210334)",2011-04-04
04/04/2011,Completed,03/06/2012,11-00608712,Tree Trim,Parkway,3657 S MICHIGAN AVE,60653.0,1177795.62048259,1880803.52997428,3.0,2.0,35.0,41.82824736929479,-87.62318683319616,"(41.8282473692948, -87.62318683319617)",2011-04-04
04/04/2011,Completed,03/20/2012,11-00611229,Tree Trim,Parkway,3856 N OAKLEY AVE,60618.0,1160347.43728667,1925561.08679842,47.0,19.0,5.0,41.951443893766886,-87.68596367942537,"(41.95144389376688, -87.68596367942537)",2011-04-04
04/04/2011,Completed,03/20/2013,11-00610628,Tree Trim,Parkway,4941 S HERMITAGE AVE,60609.0,1165513.77290787,1871910.62441171,16.0,9.0,61.0,41.804114001851374,-87.66850009294531,"(41.804114001851374, -87.66850009294531)",2011-04-04
04/04/2011,Completed,03/21/2012,11-00612545,Tree Trim,Parkway,6957 N OLEANDER AVE,60631.0,1125108.6789733,1945598.37987629,41.0,16.0,9.0,42.00708567891647,-87.81505703142403,"(42.00708567891647, -87.81505703142403)",2011-04-04
04/04/2011,Completed,03/22/2013,11-00617065,Tree Trim,Parkway,1919 W ROSCOE ST,60657.0,1162945.80872508,1922591.46856795,32.0,19.0,5.0,41.94324084977147,-87.67649579993717,"(41.94324084977147, -87.67649579993717)",2011-04-04
04/04/2011,Completed,04/02/2012,11-00611765,Tree Trim,Parkway,12157 S MICHIGAN AVE,60628.0,1179032.95956559,1824296.70297819,9.0,5.0,53.0,41.67315801215069,-87.62036513026663,"(41.67315801215069, -87.62036513026663)",2011-04-04
04/04/2011,Completed,04/04/2011,11-00616189,Tree Trim,,3642 S WOOD ST,60609.0,1164947.39123223,1880554.40606928,11.0,9.0,59.0,41.82784551469506,-87.67033272097522,"(41.82784551469506, -87.67033272097522)",2011-04-04
04/04/2011,Completed,04/04/2011,11-00616620,Tree Trim,,8241 W CORNELIA AVE,60634.0,1120420.62062531,1922190.91373115,36.0,16.0,17.0,41.942929475555744,-87.83280884317841,"(41.94292947555574, -87.8328088431784)",2011-04-04
04/04/2011,Completed,04/04/2011,11-00616629,Tree Trim,,3548 N OLEANDER AVE,60634.0,1125120.84259171,1922667.22740505,36.0,16.0,17.0,41.944159926796274,-87.81552225771875,"(41.94415992679627, -87.81552225771875)",2011-04-04
04/04/2011,Completed,04/04/2011,11-00616748,Tree Trim,,10208 S OAKLEY AVE,60643.0,1162627.80299923,1836887.16727434,19.0,22.0,72.0,41.70806528315251,-87.68005986752605,"(41.70806528315251, -87.68005986752605)",2011-04-04
04/04/2011,Completed,04/04/2011,11-00617374,Tree Trim,,1414 N LAWLER AVE,60651.0,1142444.92993077,1908935.67229384,37.0,25.0,25.0,41.90617429175731,-87.75218767361756,"(41.90617429175731, -87.75218767361757)",2011-04-04
04/04/2011,Completed,04/20/2011,11-00606515,Tree Trim,Parkway,4418 N ROCKWELL ST,60625.0,1158244.60752381,1929337.08999387,47.0,19.0,4.0,41.961848790343076,-87.69359001486971,"(41.96184879034308, -87.69359001486971)",2011-04-04
04/04/2011,Completed,04/21/2011,11-00611674,Tree Trim,Parkway,6170 N MEADE AVE,60646.0,1134572.71352362,1940715.70002723,45.0,16.0,10.0,41.99352471749413,-87.78035254158425,"(41.99352471749413, -87.78035254158424)",2011-04-04
04/04/2011,Completed,04/25/2011,11-00614123,Tree Trim,Parkway,10554 S CENTRAL PARK AVE,60655.0,1154213.99180438,1834298.93013004,19.0,22.0,74.0,41.701133704716575,-87.71094049652193,"(41.70113370471658, -87.71094049652193)",2011-04-04
04/04/2011,Completed,04/25/2011,11-00614832,Tree Trim,Parkway,10348 S CAMPBELL AVE,60655.0,1161534.74010446,1835942.57700454,19.0,22.0,72.0,41.705495850529495,-87.684088825981,"(41.705495850529495, -87.68408882598098)",2011-04-04
04/04/2011,Completed,04/25/2011,11-00615148,Tree Trim,Parkway,1454 W 107TH ST,60643.0,1168351.4248207,1833787.40743425,19.0,22.0,72.0,41.69943797937221,-87.65918846951452,"(41.69943797937221, -87.65918846951452)",2011-04-04
04/04/2011,Completed,04/26/2011,11-00614253,Tree Trim,Parkway,5918 N HERMITAGE AVE,60660.0,1163732.65960247,1939200.59780047,40.0,20.0,77.0,41.9888004198445,-87.67313334206787,"(41.9888004198445, -87.67313334206787)",2011-04-04
04/04/2011,Completed,05/02/2011,11-00611099,Tree Trim,Parkway,3025 N NATCHEZ AVE,60634.0,1132556.32657184,1919407.74227405,36.0,25.0,19.0,41.93508902156253,-87.78826835076521,"(41.93508902156253, -87.7882683507652)",2011-04-04
04/04/2011,Completed,05/02/2011,11-00611121,Tree Trim,Parkway,3023 N NATCHEZ AVE,60634.0,1132556.72657184,1919394.34227405,36.0,25.0,19.0,41.93505224344243,-87.78826719381986,"(41.93505224344243, -87.78826719381988)",2011-04-04
04/04/2011,Completed,05/03/2012,11-00616074,Tree Trim,Parkway,6969 N WOLCOTT AVE,60626.0,1162345.19407229,1946287.0295748,49.0,24.0,1.0,42.00827503180118,-87.67803712793975,"(42.00827503180118, -87.67803712793973)",2011-04-04
04/04/2011,Completed,05/04/2011,11-00613570,Tree Trim,Parkway,2424 W HOLLYWOOD AVE,60659.0,1159020.63430405,1937774.10277165,40.0,20.0,2.0,41.98498442492172,-87.69050413173633,"(41.98498442492172, -87.69050413173633)",2011-04-04
04/04/2011,Completed,05/04/2011,11-00616692,Tree Trim,Parkway,5606 N NEWARK AVE,60631.0,1130625.93960348,1936850.06297054,41.0,16.0,10.0,41.982986069120564,-87.79495999920348,"(41.982986069120564, -87.7949599992035)",2011-04-04
04/04/2011,Completed,05/05/2011,11-00612220,Tree Trim,Parkway,3335 S LEAVITT ST,60608.0,1162228.87289562,1882529.7405696998,12.0,9.0,59.0,41.83332318939432,-87.68025156827466,"(41.83332318939432, -87.68025156827466)",2011-04-04
04/04/2011,Completed,05/05/2011,11-00614948,Tree Trim,Parkway,6338 W DIVERSEY AVE,60639.0,1133559.9147788999,1917930.11832234,29.0,25.0,19.0,41.931016684299415,-87.78461481667387,"(41.931016684299415, -87.78461481667387)",2011-04-04
04/04/2011,Completed,05/10/2011,11-00617769,Tree Trim,Parkway,1912 N FREMONT ST,60614.0,1169995.15242969,1912813.11937936,43.0,18.0,7.0,41.91625745032785,-87.65087212947702,"(41.916257450327834, -87.65087212947701)",2011-04-04
04/04/2011,Completed,05/16/2011,11-00612544,Tree Trim,Parkway,4517 S UNION AVE,60609.0,1172386.42296769,1874929.31786861,11.0,9.0,61.0,41.81224895728457,-87.64320564499386,"(41.81224895728457, -87.64320564499386)",2011-04-04
04/04/2011,Completed,05/18/2012,11-00616112,Tree Trim,Parkway,2643 W 83RD PL,60652.0,1160195.97479577,1849171.19011889,18.0,8.0,70.0,41.74182496467709,-87.68862850484945,"(41.74182496467709, -87.68862850484945)",2011-04-04
04/04/2011,Completed,05/24/2011,11-00617765,Tree Trim,Parkway,1916 N FREMONT ST,60614.0,1169994.05242969,1912844.71937936,43.0,18.0,7.0,41.916344186435005,-87.65087524695797,"(41.91634418643501, -87.65087524695797)",2011-04-04
04/04/2011,Completed,07/13/2012,11-00615637,Tree Trim,Parkway,4443 N DOVER ST,60640.0,1166020.96971309,1929611.25422384,46.0,23.0,3.0,41.96243823199953,-87.66499186572607,"(41.962438231999535, -87.66499186572608)",2011-04-04
04/04/2011,Completed,08/25/2011,11-00616606,Tree Trim,Parkway,817 W LILL AVE,60614.0,1170338.67003315,1917156.91000108,43.0,19.0,7.0,41.92816952017393,-87.64948280407646,"(41.92816952017393, -87.64948280407647)",2011-04-04
04/04/2011,Completed,10/12/2012,11-00614364,Tree Trim,Parkway,3637 W 81ST ST,60652.0,1153519.70001624,1850637.17999727,18.0,8.0,70.0,41.74598254126297,-87.71305172016086,"(41.74598254126297, -87.71305172016088)",2011-04-04
04/04/2011,Completed,10/24/2012,11-00612578,Tree Trim,Parkway,3552 W 76TH PL,60652.0,1154057.14609878,1853647.30991189,18.0,8.0,70.0,41.75423218899904,-87.71100260546612,"(41.75423218899904, -87.71100260546612)",2011-04-04
04/04/2011,Completed,10/25/2011,11-00611883,Tree Trim,Parkway,3016 S SPRINGFIELD AVE,60623.0,1150851.65548517,1884320.20137593,22.0,10.0,30.0,41.838466220742546,-87.72195038839367,"(41.83846622074255, -87.72195038839367)",2011-04-04
04/04/2011,Completed,12/06/2011,11-00612237,Tree Trim,Parkway,531 W 43RD PL,60609.0,1173388.44209218,1876076.08138377,11.0,9.0,61.0,41.81537364615374,-87.63949630541781,"(41.81537364615374, -87.63949630541781)",2011-04-04
04/04/2011,Completed,12/06/2011,11-00614728,Tree Trim,Parkway,3602 S WOLCOTT AVE,60609.0,1164274.87001815,1880808.41297416,11.0,9.0,59.0,41.828556752703335,-87.67279295896753,"(41.828556752703335, -87.67279295896753)",2011-04-04
04/04/2011,Completed,12/07/2011,11-00612668,Tree Trim,Parkway,1141 N MENARD AVE,60651.0,1137480.07966601,1907018.49482231,29.0,15.0,25.0,41.90100417568296,-87.77047191695655,"(41.90100417568295, -87.77047191695657)",2011-04-04
04/04/2011,Completed,12/14/2011,11-00618760,Tree Trim,Parkway,2131 W CHARLESTON ST,60647.0,1161803.96622883,1914105.21790456,32.0,14.0,22.0,41.91997797801137,-87.68092998538886,"(41.91997797801137, -87.68092998538886)",2011-04-04
04/05/2011,Completed - Dup,01/17/2012,11-00631544,Tree Trim,Parkway,7501 W ROSCOE ST,60634.0,1125476.32072444,1921663.52060424,36.0,16.0,17.0,41.941399731788906,-87.814237989022,"(41.941399731788906, -87.81423798902202)",2011-04-05
04/05/2011,Completed - Dup,01/22/2013,11-00633316,Tree Trim,Parkway,5742 W SEMINOLE ST,60646.0,1136824.25621594,1937532.92558503,45.0,16.0,11.0,41.98475072936247,-87.77214705953367,"(41.98475072936247, -87.77214705953367)",2011-04-05
04/05/2011,Completed - Dup,02/22/2012,11-00635666,Tree Trim,Parkway,1415 W 71ST PL,60636.0,1168080.83999368,1857335.86881791,17.0,7.0,67.0,41.76406422601336,-87.65950421070437,"(41.76406422601336, -87.65950421070436)",2011-04-05
04/05/2011,Completed - Dup,04/25/2011,11-00634826,Tree Trim,Parkway,5477 N MONITOR AVE,60630.0,1136210.37617478,1935995.53562452,45.0,16.0,11.0,41.98054301444696,-87.77444177487007,"(41.98054301444696, -87.77444177487006)",2011-04-05
04/05/2011,Completed - Dup,05/02/2011,11-00640497,Tree Trim,Parkway,3245 N PARIS AVE,60634.0,1121184.6501889,1920558.47511167,36.0,16.0,17.0,41.93843757412984,-87.8300358199885,"(41.938437574129836, -87.8300358199885)",2011-04-05
04/05/2011,Completed - Dup,05/08/2012,11-00633921,Tree Trim,Parkway,2819 N MONT CLARE AVE,60634.0,1128267.3281164,1917937.73782023,36.0,25.0,18.0,41.93112889400321,-87.80406424599884,"(41.93112889400321, -87.80406424599884)",2011-04-05
04/05/2011,Completed - Dup,08/05/2011,11-00636009,Tree Trim,Parkway,2256 W 50TH ST,60609.0,1162134.02069041,1871475.69871145,16.0,9.0,63.0,41.80299158170022,-87.68090756134168,"(41.80299158170022, -87.68090756134168)",2011-04-05
04/05/2011,Completed - Dup,09/02/2011,11-00630951,Tree Trim,,8400 S CONSTANCE AVE,60617.0,1189987.7549699,1849646.5005887002,8.0,4.0,45.0,41.74246494130496,-87.57945804569368,"(41.74246494130496, -87.57945804569368)",2011-04-05
04/05/2011,Completed - Dup,09/09/2011,11-00630253,Tree Trim,Parkway,1540 W HIGHLAND AVE,60660.0,1164873.75788202,1942299.03249032,40.0,24.0,77.0,41.99727839288318,-87.6688478249754,"(41.99727839288318, -87.66884782497539)",2011-04-05
04/05/2011,Completed - Dup,09/17/2012,11-00639978,Tree Trim,,9730 S WALDEN PKWY,60643.0,1165977.06997446,1839929.41001411,19.0,22.0,72.0,41.71634330623704,-87.66770850510326,"(41.71634330623704, -87.66770850510326)",2011-04-05
04/05/2011,Completed - Dup,10/11/2011,11-00632312,Tree Trim,Parkway,5506 W KAMERLING AVE,60651.0,1139224.09733166,1908439.58097392,37.0,25.0,25.0,41.90487222719344,-87.7640312644082,"(41.904872227193444, -87.7640312644082)",2011-04-05
04/05/2011,Completed - Dup,11/04/2011,11-00636134,Tree Trim,Parkway,1642 E 84TH ST,60617.0,1188671.21603294,1849610.93087256,8.0,4.0,45.0,41.74239888288889,-87.58428291400537,"(41.74239888288889, -87.58428291400537)",2011-04-05
04/05/2011,Completed - Dup,11/05/2012,11-00633850,Tree Trim,Parkway,5426 S DREXEL AVE,60615.0,1183168.14450801,1869239.57009008,5.0,21.0,41.0,41.79639143462002,-87.6038359500634,"(41.79639143462002, -87.6038359500634)",2011-04-05
04/05/2011,Completed - Dup,11/06/2012,11-00639175,Tree Trim,Parkway,11433 S ELIZABETH ST,60643.0,1170046.98531886,1828840.69590668,34.0,22.0,75.0,41.68582681444075,-87.65312309684491,"(41.68582681444075, -87.6531230968449)",2011-04-05
04/05/2011,Completed - Dup,11/13/2012,11-00631545,Tree Trim,Parkway,7824 S THROOP ST,60620.0,1169243.00148425,1852797.26997966,17.0,6.0,71.0,41.75158465069497,-87.65537570761866,"(41.75158465069498, -87.65537570761865)",2011-04-05
04/05/2011,Completed - Dup,11/17/2011,11-00638872,Tree Trim,Parkway,3118 S GILES AVE,60616.0,1178777.4500152,1884388.68001621,2.0,21.0,35.0,41.83806296215211,-87.61947532115197,"(41.83806296215211, -87.61947532115195)",2011-04-05
04/05/2011,Completed - Dup,11/26/2012,11-00627501,Tree Trim,Parkway,4649 W GRACE ST,60641.0,1144660.84998342,1924857.0499996003,38.0,17.0,15.0,41.94982261758307,-87.74364544649335,"(41.949822617583074, -87.74364544649335)",2011-04-05
04/05/2011,Completed - Dup,11/26/2012,11-00634286,Tree Trim,Parkway,6123 N CHRISTIANA AVE,60659.0,1152953.27120547,1940433.04208957,50.0,17.0,13.0,41.99240348388524,-87.7127485339183,"(41.99240348388524, -87.71274853391829)",2011-04-05
04/05/2011,Completed - Dup,12/21/2011,11-00634617,Tree Trim,Parkway,20 E 101ST PL,60628.0,1178240.68452566,1837681.38007802,9.0,5.0,49.0,41.709905457825705,-87.62286083998384,"(41.709905457825705, -87.62286083998384)",2011-04-05
04/05/2011,Completed - Dup,12/21/2012,11-00634006,Tree Trim,Parkway,1435 W ARTHUR AVE,60626.0,1165408.58698318,1943277.30746599,40.0,24.0,1.0,41.99995139634024,-87.66685239301201,"(41.999951396340236, -87.666852393012)",2011-04-05
04/05/2011,Completed,01/04/2012,11-00627785,Tree Trim,Parkway,3836 N OCTAVIA AVE,60634.0,1126727.33740544,1924626.93400553,36.0,16.0,17.0,41.94951081221004,-87.80957334768705,"(41.94951081221004, -87.80957334768705)",2011-04-05
04/05/2011,Completed,01/14/2013,11-00632826,Tree Trim,Parkway,3648 W 54TH ST,60632.0,1152879.26446654,1868558.214896,23.0,8.0,62.0,41.79517334240722,-87.71492627736393,"(41.79517334240722, -87.71492627736393)",2011-04-05
04/05/2011,Completed,01/22/2013,11-00632342,Tree Trim,,5502 W KAMERLING AVE,60651.0,1139244.19733166,1908439.98097392,37.0,25.0,25.0,41.90487295876554,-87.7639574202127,"(41.90487295876554, -87.7639574202127)",2011-04-05
04/05/2011,Completed,01/30/2012,11-00630142,Tree Trim,Parkway,2857 N GREENVIEW AVE,60657.0,1165820.24786991,1919132.69116976,32.0,19.0,6.0,41.93368885983304,-87.66602978255915,"(41.93368885983304, -87.66602978255914)",2011-04-05
04/05/2011,Completed,02/12/2013,11-00638096,Tree Trim,Parkway,5058 N NEWCASTLE AVE,60656.0,1129925.87599772,1933210.0132955,41.0,16.0,10.0,41.973009459553275,-87.79761846112049,"(41.97300945955327, -87.7976184611205)",2011-04-05
04/05/2011,Completed,02/13/2012,11-00635474,Tree Trim,Parkway,2604 N MANGO AVE,60639.0,1137608.11167469,1916729.62652401,30.0,25.0,19.0,41.92765034590407,-87.7697672516588,"(41.92765034590407, -87.7697672516588)",2011-04-05
04/05/2011,Completed,02/13/2013,11-00633427,Tree Trim,Parkway,1210 W WAVELAND AVE,60613.0,1167524.69456922,1924711.68338796,44.0,19.0,6.0,41.9489612986511,-87.65960490808857,"(41.9489612986511, -87.65960490808858)",2011-04-05
04/05/2011,Completed,02/14/2012,11-00636399,Tree Trim,Parkway,9025 S BENNETT AVE,60617.0,1190421.53776922,1845505.319913,8.0,4.0,48.0,41.731090706760845,-87.57800185604069,"(41.73109070676084, -87.57800185604069)",2011-04-05
04/05/2011,Completed,02/16/2012,11-00634029,Tree Trim,Parkway,2645 N RACINE AVE,60614.0,1167847.78479079,1917814.34011182,32.0,19.0,7.0,41.930027691826794,-87.65861684065739,"(41.930027691826794, -87.65861684065739)",2011-04-05
04/05/2011,Completed,02/21/2012,11-00635254,Tree Trim,Parkway,2227 S ST LOUIS AVE,60623.0,1153384.20011318,1888875.36549164,22.0,10.0,30.0,41.85091630128058,-87.71253633275022,"(41.85091630128058, -87.71253633275022)",2011-04-05
04/05/2011,Completed,02/21/2012,11-00636947,Tree Trim,Parkway,5825 N OKETO AVE,60631.0,1126024.55681707,1937831.24923253,41.0,16.0,10.0,41.985756661917094,-87.81186130849008,"(41.985756661917094, -87.81186130849008)",2011-04-05
04/05/2011,Completed,02/27/2013,11-00638111,Tree Trim,Parkway,5838 N MULLIGAN AVE,60646.0,1132932.18272225,1938416.04031462,45.0,16.0,10.0,41.987243160661386,-87.78644119063787,"(41.98724316066138, -87.78644119063787)",2011-04-05
04/05/2011,Completed,02/27/2013,11-00640239,Tree Trim,Parkway,4130 W HENDERSON ST,60641.0,1148164.81989765,1921941.46359474,30.0,17.0,16.0,41.94175513132585,-87.73084048311813,"(41.94175513132585, -87.73084048311812)",2011-04-05
04/05/2011,Completed,03/05/2013,11-00631425,Tree Trim,Parkway,3032 N ODELL AVE,60707.0,1126559.94001992,1919349.49879908,36.0,25.0,17.0,41.93503169467565,-87.81030705797156,"(41.935031694675644, -87.81030705797154)",2011-04-05
04/05/2011,Completed,03/08/2012,11-00638847,Tree Trim,,1520 W HOLLYWOOD AVE,60660.0,1165047.42610389,1937988.06259339,48.0,20.0,77.0,41.98544527424529,-87.6683321138118,"(41.9854452742453, -87.66833211381179)",2011-04-05
04/05/2011,Completed,04/05/2011,11-00631454,Tree Trim,Parkway,250 W 108TH ST,60628.0,1176861.98287317,1833328.58779423,34.0,5.0,49.0,41.69799188347742,-87.62804038438837,"(41.69799188347742, -87.62804038438837)",2011-04-05
04/05/2011,Completed,04/05/2011,11-00636792,Tree Trim,,6229 N KARLOV AVE,60646.0,1147901.14493115,1941042.01991852,39.0,17.0,12.0,41.99417351500278,-87.73131632011534,"(41.99417351500278, -87.73131632011535)",2011-04-05
04/05/2011,Completed,04/05/2011,11-00636823,Tree Trim,,3026 N NORDICA AVE,60634.0,1128684.56996865,1919338.52561823,36.0,25.0,18.0,41.934965749119186,-87.80249905782516,"(41.934965749119186, -87.80249905782517)",2011-04-05
04/05/2011,Completed,04/05/2011,11-00636937,Tree Trim,,4858 S LA CROSSE AVE,60638.0,1144845.69027913,1871977.76620508,23.0,8.0,56.0,41.80471194383032,-87.74430000034077,"(41.80471194383032, -87.74430000034076)",2011-04-05
04/05/2011,Completed,04/15/2011,11-00631936,Tree Trim,Parkway,4925 N TRIPP AVE,60630.0,1147160.83579307,1932392.96719554,39.0,17.0,14.0,41.970454188763405,-87.7342620419415,"(41.970454188763405, -87.73426204194152)",2011-04-05
04/05/2011,Completed,04/21/2011,11-00631204,Tree Trim,Parkway,5542 N MANGO AVE,60630.0,1136871.57000677,1936485.63629577,45.0,16.0,11.0,41.9818760283955,-87.7719982857341,"(41.9818760283955, -87.77199828573409)",2011-04-05
04/05/2011,Completed,04/25/2011,11-00633311,Tree Trim,Parkway,11114 S PEORIA ST,60643.0,1172300.50159594,1831133.56799876,34.0,22.0,75.0,41.69206969642907,-87.64480636423859,"(41.69206969642907, -87.6448063642386)",2011-04-05
04/05/2011,Completed,04/25/2011,11-00640224,Tree Trim,Parkway,8721 S CARPENTER ST,60620.0,1170839.74009353,1846984.62608005,21.0,22.0,71.0,41.73559929303456,-87.64969364341108,"(41.73559929303456, -87.64969364341108)",2011-04-05
04/05/2011,Completed,05/02/2011,11-00627792,Tree Trim,Parkway,3840 N OCTAVIA AVE,60634.0,1126726.43740544,1924653.73400553,36.0,16.0,17.0,41.94958436965484,-87.80957605401987,"(41.94958436965484, -87.80957605401987)",2011-04-05
04/05/2011,Completed,05/02/2011,11-00630807,Tree Trim,Vacant Lot,10020 S COMMERCIAL AVE,60617.0,1197834.24250154,1839006.25897374,10.0,4.0,51.0,41.71307501521407,-87.55106335845106,"(41.71307501521407, -87.55106335845107)",2011-04-05
04/05/2011,Completed,05/02/2011,11-00631637,Tree Trim,Parkway,356 E 119TH ST,60628.0,1180501.80000846,1826125.36999467,9.0,5.0,53.0,41.67814266875303,-87.61493330541815,"(41.678142668753026, -87.61493330541815)",2011-04-05
04/05/2011,Completed,05/02/2011,11-00632144,Tree Trim,Parkway,12512 S YALE AVE,60628.0,1176881.86759137,1821973.65720573,9.0,5.0,53.0,41.666831777727005,-87.62830780183691,"(41.666831777727005, -87.62830780183691)",2011-04-05
04/05/2011,Completed,05/02/2011,11-00633915,Tree Trim,Parkway,2823 N MONT CLARE AVE,60634.0,1128266.5281164,1917964.43782023,36.0,25.0,18.0,41.93120217566618,-87.80406658021789,"(41.93120217566618, -87.80406658021789)",2011-04-05
04/05/2011,Completed,05/02/2011,11-00634259,Tree Trim,Parkway,3337 N NOTTINGHAM AVE,60634.0,1128165.62028997,1921363.60369686,36.0,16.0,17.0,41.940531609962676,-87.80436033097328,"(41.940531609962676, -87.80436033097328)",2011-04-05
04/05/2011,Completed,05/02/2011,11-00639540,Tree Trim,Alley,3823 N OKETO AVE,60634.0,1126052.70369464,1924517.16971919,36.0,16.0,17.0,41.949220892195456,-87.81205571876244,"(41.94922089219545, -87.81205571876244)",2011-04-05
04/05/2011,Completed,05/06/2011,11-00635065,Tree Trim,Parkway,1450 W WEBSTER AVE,60614.0,1166151.47089594,1914733.23800517,32.0,18.0,7.0,41.92160943369119,-87.66493858967884,"(41.92160943369119, -87.66493858967885)",2011-04-05
04/05/2011,Completed,05/11/2011,11-00630648,Tree Trim,Vacant Lot,1440 N LARRABEE ST,60610.0,1172073.30397428,1909656.45232958,27.0,18.0,8.0,41.907549762086,-87.64333045630241,"(41.907549762086, -87.64333045630241)",2011-04-05
04/05/2011,Completed,05/12/2011,11-00630778,Tree Trim,Parkway,3344 N RAVENSWOOD AVE,60657.0,1163638.16739216,1922336.25992592,32.0,19.0,5.0,41.94252595706122,-87.6739582544781,"(41.942525957061214, -87.6739582544781)",2011-04-05
04/05/2011,Completed,05/22/2012,11-00631771,Tree Trim,Parkway,8003 S BENNETT AVE,60617.0,1190257.7028833,1852286.79097391,8.0,4.0,46.0,41.749703645620066,-87.57838409475306,"(41.74970364562006, -87.57838409475306)",2011-04-05
04/05/2011,Completed,06/15/2012,11-00635828,Tree Trim,Parkway,2130 W 71ST PL,60636.0,1163432.3299667,1857227.38997934,17.0,7.0,67.0,41.76386520851916,-87.67654519577562,"(41.76386520851916, -87.67654519577563)",2011-04-05
04/05/2011,Completed,06/20/2012,11-00631253,Tree Trim,Parkway,3249 N PARIS AVE,60634.0,1121183.8501889,1920583.07511167,36.0,16.0,17.0,41.938505092659284,-87.83003822944126,"(41.93850509265929, -87.83003822944127)",2011-04-05
04/05/2011,Completed,10/17/2011,11-00635607,Tree Trim,Parkway,331 W 110TH ST,60628.0,1176057.09611417,1831981.11141515,34.0,5.0,49.0,41.69431225885409,-87.63102767730308,"(41.69431225885409, -87.6310276773031)",2011-04-05
04/05/2011,Completed,10/25/2011,11-00627234,Tree Trim,Parkway,5307 S PRINCETON AVE,60609.0,1175186.29682583,1869772.57438156,3.0,9.0,37.0,41.79803619630295,-87.63308990179762,"(41.798036196302945, -87.63308990179762)",2011-04-05
04/05/2011,Completed,11/07/2011,11-00633940,Tree Trim,Parkway,7316 W BALMORAL AVE,60656.0,1126474.98896827,1934867.9779143997,41.0,16.0,10.0,41.9776176040992,-87.81027116141074,"(41.977617604099194, -87.81027116141074)",2011-04-05
04/05/2011,Completed,11/18/2011,11-00632853,Tree Trim,Parkway,816 W AGATITE AVE,60640.0,1170008.38099647,1929753.41997859,46.0,23.0,3.0,41.962742059641094,-87.65032765024458,"(41.96274205964109, -87.65032765024458)",2011-04-05
04/05/2011,Completed,11/18/2011,11-00638695,Tree Trim,Parkway,6247 N KILDARE AVE,60646.0,1146579.21799188,1941143.04270712,39.0,17.0,12.0,41.994476126243526,-87.736176392938,"(41.994476126243526, -87.736176392938)",2011-04-05
04/05/2011,Completed,11/21/2011,11-00638156,Tree Trim,Parkway,224 W HURON ST,60654.0,1174509.88439566,1905025.26349336,42.0,18.0,8.0,41.89478741002307,-87.63451845642456,"(41.89478741002307, -87.63451845642456)",2011-04-05
04/05/2011,Completed,11/30/2011,11-00637109,Tree Trim,Parkway,4133 W ADAMS ST,60624.0,1148871.5405974,1898690.32592853,28.0,11.0,26.0,41.87793806232792,-87.72884523100241,"(41.877938062327914, -87.7288452310024)",2011-04-05
04/05/2011,Completed,12/07/2011,11-00632434,Tree Trim,,3958 W HURON ST,60624.0,1149783.73709176,1904382.08782227,27.0,11.0,23.0,41.893539194820704,-87.72534777210286,"(41.8935391948207, -87.72534777210288)",2011-04-05
04/05/2011,Completed,12/19/2011,11-00629152,Tree Trim,Parkway,5636 S NEW ENGLAND AVE,60638.0,1131350.17961406,1866398.63048946,23.0,8.0,56.0,41.78964490864788,-87.79392505894079,"(41.78964490864788, -87.7939250589408)",2011-04-05
04/05/2011,Completed,12/19/2012,11-00635572,Tree Trim,Alley,8836 S BUFFALO AVE,60617.0,1199577.78172434,1847004.12061722,10.0,4.0,46.0,41.73497814202766,-87.54440964800625,"(41.73497814202766, -87.54440964800625)",2011-04-05
04/05/2011,Completed,12/26/2012,11-00633370,Tree Trim,Parkway,5848 S SAYRE AVE,60638.0,1130733.12820624,1864964.78243363,23.0,8.0,56.0,41.78572075958917,-87.79622050091156,"(41.785720759589175, -87.79622050091156)",2011-04-05
04/05/2011,Completed,12/28/2012,11-00634312,Tree Trim,Parkway,8147 S WHIPPLE ST,60652.0,1157462.61328019,1850433.23357163,18.0,8.0,70.0,41.74534397469497,-87.69860943927773,"(41.74534397469497, -87.69860943927773)",2011-04-05
04/06/2011,Completed - Dup,01/04/2012,11-00652341,Tree Trim,Parkway,8952 S ESSEX AVE,60617.0,1194387.33012149,1846066.59509349,7.0,4.0,48.0,41.73253447671563,-87.56345561196228,"(41.73253447671563, -87.56345561196228)",2011-04-06
04/06/2011,Completed - Dup,02/14/2012,11-00660975,Tree Trim,Parkway,8045 S CARPENTER ST,60620.0,1170712.73901368,1851466.92231258,21.0,6.0,71.0,41.7479020936947,-87.65002853470936,"(41.7479020936947, -87.65002853470936)",2011-04-06
04/06/2011,Completed - Dup,03/06/2012,11-00654647,Tree Trim,,6107 S KILPATRICK AVE,60629.0,1146085.92176578,1863702.47990082,13.0,8.0,64.0,41.78197982070402,-87.7399607945975,"(41.781979820704024, -87.73996079459748)",2011-04-06
04/06/2011,Completed - Dup,04/07/2011,11-00653865,Tree Trim,Parkway,3200 W BEACH AVE,60651.0,1154760.89232603,1909462.22007766,26.0,14.0,23.0,41.90738131015723,-87.7069320861306,"(41.90738131015723, -87.7069320861306)",2011-04-06
04/06/2011,Completed - Dup,04/24/2012,11-00655360,Tree Trim,Parkway,2108 W 49TH PL,60609.0,1163145.69080914,1871824.90008006,16.0,9.0,61.0,41.8039287005051,-87.67718751302108,"(41.80392870050509, -87.67718751302108)",2011-04-06
04/06/2011,Completed - Dup,04/27/2011,11-00654657,Tree Trim,,3815 W 58TH ST,60629.0,1151929.34279399,1865874.30763361,13.0,8.0,62.0,41.7878269974721,-87.71848007965065,"(41.7878269974721, -87.71848007965066)",2011-04-06
04/06/2011,Completed - Dup,05/23/2011,11-00658880,Tree Trim,Parkway,3640 S LOWE AVE,60609.0,1172562.68342428,1880757.02846643,11.0,9.0,60.0,41.8282368605632,-87.64238723280859,"(41.828236860563194, -87.64238723280859)",2011-04-06
04/06/2011,Completed - Dup,08/01/2011,11-00655775,Tree Trim,Parkway,9245 S MAY ST,60620.0,1170279.37020393,1843482.94168637,21.0,22.0,73.0,41.72600236714315,-87.6518481953932,"(41.72600236714316, -87.6518481953932)",2011-04-06
04/06/2011,Completed - Dup,09/24/2012,11-00651431,Tree Trim,Parkway,7753 S CRANDON AVE,60649.0,1192879.31571282,1854006.50842484,7.0,4.0,43.0,41.754359168306365,-87.56872157771288,"(41.75435916830637, -87.56872157771288)",2011-04-06
04/06/2011,Completed - Dup,11/02/2012,11-00654518,Tree Trim,Parkway,10047 S GREEN ST,60643.0,1172419.11563304,1838213.5508693,34.0,22.0,73.0,41.7114956461039,-87.64416467747972,"(41.7114956461039, -87.64416467747972)",2011-04-06
04/06/2011,Completed - Dup,11/09/2012,11-00654118,Tree Trim,Parkway,11600 S THROOP ST,60643.0,1169746.4656812,1827844.53662469,34.0,5.0,53.0,41.68309969371529,-87.65425198192524,"(41.683099693715285, -87.65425198192524)",2011-04-06
04/06/2011,Completed - Dup,11/30/2011,11-00655067,Tree Trim,Parkway,13101 S EBERHART AVE,60827.0,1181737.82470538,1818568.03792903,9.0,5.0,54.0,41.65737585555723,-87.61064102869545,"(41.65737585555723, -87.61064102869545)",2011-04-06
04/06/2011,Completed,01/14/2013,11-00655633,Tree Trim,,3008 S CENTRAL PARK AVE,60623.0,1152843.63871503,1884434.03462889,22.0,10.0,30.0,41.83873945237647,-87.71463774941131,"(41.83873945237648, -87.71463774941132)",2011-04-06
04/06/2011,Completed,01/15/2013,11-00663819,Tree Trim,Parkway,2415 W MORSE AVE,60645.0,1158967.38001618,1945735.37992145,50.0,24.0,2.0,42.006831562732366,-87.6904801759492,"(42.00683156273237, -87.69048017594922)",2011-04-06
04/06/2011,Completed,01/20/2012,11-00654063,Tree Trim,Parkway,9801 S DOBSON AVE,60628.0,1184942.17592334,1840199.84701632,8.0,5.0,50.0,41.71666207873167,-87.59824043579236,"(41.71666207873167, -87.59824043579238)",2011-04-06
04/06/2011,Completed,02/01/2012,11-00660651,Tree Trim,Parkway,3001 S KOSTNER AVE,60623.0,1147534.47210401,1884337.79308448,22.0,10.0,30.0,41.838578642890255,-87.7341224537546,"(41.838578642890255, -87.7341224537546)",2011-04-06
04/06/2011,Completed,02/29/2012,11-00656157,Tree Trim,Parkway,3301 S OAKLEY AVE,60608.0,1161557.1881946998,1882745.5977715,12.0,9.0,59.0,41.83392951214546,-87.68271011863486,"(41.83392951214546, -87.68271011863486)",2011-04-06
04/06/2011,Completed,03/29/2012,11-00657023,Tree Trim,Parkway,8109 S AVALON AVE,60619.0,1185953.52900363,1851475.76818911,8.0,4.0,45.0,41.74758066981645,-87.59418170233006,"(41.74758066981645, -87.59418170233006)",2011-04-06
04/06/2011,Completed,04/04/2013,11-00663031,Tree Trim,Parkway,3147 S UNION AVE,60616.0,1172144.64650489,1884024.00327557,11.0,9.0,60.0,41.83721094750208,-87.64382475342653,"(41.83721094750208, -87.64382475342653)",2011-04-06
04/06/2011,Completed,04/06/2011,11-00658417,Tree Trim,,7554 S CLYDE AVE,60649.0,1191518.97290612,1855290.00199202,8.0,4.0,43.0,41.757914249739116,-87.57366518114547,"(41.757914249739116, -87.57366518114547)",2011-04-06
04/06/2011,Completed,04/06/2011,11-00658421,Tree Trim,,7554 S CLYDE AVE,60649.0,1191518.97290612,1855290.00199202,8.0,4.0,43.0,41.757914249739116,-87.57366518114547,"(41.757914249739116, -87.57366518114547)",2011-04-06
04/06/2011,Completed,04/06/2011,11-00658422,Tree Trim,,7546 S CLYDE AVE,60649.0,1191518.23170445,1855343.58910066,8.0,4.0,43.0,41.758061315155736,-87.57366616329658,"(41.758061315155736, -87.5736661632966)",2011-04-06
04/06/2011,Completed,04/06/2011,11-00658426,Tree Trim,,7558 S CLYDE AVE,60649.0,1191519.37290612,1855263.30199202,8.0,4.0,43.0,41.75784097303781,-87.5736645792995,"(41.757840973037816, -87.5736645792995)",2011-04-06
04/06/2011,Completed,04/06/2011,11-00658428,Tree Trim,,7557 S CLYDE AVE,60649.0,1191519.27290612,1855270.00199202,8.0,4.0,43.0,41.757859360815296,-87.57366472895193,"(41.7578593608153, -87.57366472895193)",2011-04-06
04/06/2011,Completed,04/06/2011,11-00658430,Tree Trim,,7515 S CLYDE AVE,60649.0,1191515.13170445,1855550.98910066,8.0,4.0,43.0,41.75863051298439,-87.57367081223488,"(41.75863051298439, -87.57367081223488)",2011-04-06
04/06/2011,Completed,04/06/2011,11-00658433,Tree Trim,,7517 S CLYDE AVE,60649.0,1191515.33170445,1855537.58910066,8.0,4.0,43.0,41.758593737434246,-87.57367051292955,"(41.75859373743424, -87.57367051292954)",2011-04-06
04/06/2011,Completed,04/06/2011,11-00658436,Tree Trim,,7521 S CLYDE AVE,60649.0,1191515.73170445,1855510.78910066,8.0,4.0,43.0,41.75852018633324,-87.57366991431894,"(41.758520186333236, -87.57366991431894)",2011-04-06
04/06/2011,Completed,04/06/2011,11-00658444,Tree Trim,,8058 S AVALON AVE,60619.0,1185944.82900363,1851812.06818911,8.0,4.0,45.0,41.74850371583532,-87.59420299572189,"(41.74850371583532, -87.59420299572189)",2011-04-06
04/06/2011,Completed,04/06/2011,11-00658445,Tree Trim,,8048 S AVALON AVE,60619.0,1185943.02618908,1851879.27916907,8.0,4.0,45.0,41.748688191986325,-87.59420748616579,"(41.74868819198632, -87.5942074861658)",2011-04-06
04/06/2011,Completed,04/06/2011,11-00658456,Tree Trim,,11040 S DR MARTIN LUTHER KING JR DR,60628.0,1180875.51231123,1831700.5300193,9.0,5.0,49.0,41.69343314041903,-87.6133948576541,"(41.69343314041903, -87.61339485765409)",2011-04-06
04/06/2011,Completed,04/06/2011,11-00658463,Tree Trim,,11034 S DR MARTIN LUTHER KING JR DR,60628.0,1180873.71231123,1831762.4300193,9.0,5.0,49.0,41.69360304385711,-87.61339955361208,"(41.69360304385711, -87.61339955361208)",2011-04-06
04/06/2011,Completed,04/06/2011,11-00658468,Tree Trim,,11030 S DR MARTIN LUTHER KING JR DR,60628.0,1180872.61231123,1831803.7300193,9.0,5.0,49.0,41.693716401990756,-87.61340231712013,"(41.69371640199075, -87.61340231712013)",2011-04-06
04/06/2011,Completed,04/06/2011,11-00658493,Tree Trim,,11024 S DR MARTIN LUTHER KING JR DR,60628.0,1180863.89320381,1832113.19807912,9.0,5.0,49.0,41.69456582499888,-87.61342476980052,"(41.694565824998875, -87.61342476980052)",2011-04-06
04/06/2011,Completed,04/06/2011,11-00658495,Tree Trim,,6655 N MAPLEWOOD AVE,60645.0,1158114.4578155,1944083.25551394,50.0,24.0,2.0,42.00231560722195,-87.69366363309231,"(42.00231560722195, -87.69366363309231)",2011-04-06
04/06/2011,Completed,04/06/2011,11-00658498,Tree Trim,,6700 N MAPLEWOOD AVE,60645.0,1158106.7578155,1944378.15551394,50.0,24.0,2.0,42.003124981192,-87.69368385545357,"(42.003124981191995, -87.69368385545356)",2011-04-06
04/06/2011,Completed,04/06/2011,11-00658504,Tree Trim,,11016 S DR MARTIN LUTHER KING JR DR,60628.0,1180868.49320381,1831948.09807912,9.0,5.0,49.0,41.694112662344224,-87.61341298028447,"(41.694112662344224, -87.61341298028447)",2011-04-06
04/06/2011,Completed,04/06/2011,11-00658505,Tree Trim,,11014 S DR MARTIN LUTHER KING JR DR,60628.0,1180867.99320381,1831968.79807912,9.0,5.0,49.0,41.69416947746642,-87.61341417746229,"(41.694169477466424, -87.61341417746229)",2011-04-06
04/06/2011,Completed,04/06/2011,11-00658512,Tree Trim,,11008 S DR MARTIN LUTHER KING JR DR,60628.0,1180866.19320381,1832030.69807912,9.0,5.0,49.0,41.694339380882866,-87.61341887349735,"(41.694339380882866, -87.61341887349735)",2011-04-06
04/06/2011,Completed,04/06/2011,11-00658516,Tree Trim,,11000 S DR MARTIN LUTHER KING JR DR,60628.0,1180863.89320381,1832113.19807912,9.0,5.0,49.0,41.69456582499888,-87.61342476980052,"(41.694565824998875, -87.61342476980052)",2011-04-06
04/06/2011,Completed,04/06/2011,11-00658532,Tree Trim,,10950 S DR MARTIN LUTHER KING JR DR,60628.0,1180845.4549003001,1832772.32547729,9.0,5.0,49.0,41.696374983947685,-87.61347210825693,"(41.69637498394769, -87.61347210825694)",2011-04-06
04/06/2011,Completed,04/06/2011,11-00658537,Tree Trim,,10946 S DR MARTIN LUTHER KING JR DR,60628.0,1180854.0549003,1832466.02547729,9.0,5.0,49.0,41.69553425752782,-87.61344999380405,"(41.69553425752782, -87.61344999380405)",2011-04-06
04/06/2011,Completed,04/06/2011,11-00658541,Tree Trim,,10928 S DR MARTIN LUTHER KING JR DR,60628.0,1180850.6549003,1832585.92547729,9.0,5.0,49.0,41.69586335755385,-87.61345877325554,"(41.69586335755385, -87.61345877325554)",2011-04-06
04/06/2011,Completed,04/06/2011,11-00658545,Tree Trim,,11037 S MICHIGAN AVE,60628.0,1178828.02002193,1831749.04997554,9.0,5.0,49.0,41.69361300295449,-87.62088965951922,"(41.69361300295449, -87.62088965951922)",2011-04-06
04/06/2011,Completed,04/06/2011,11-00658567,Tree Trim,,10926 S DR MARTIN LUTHER KING JR DR,60628.0,1180850.2549003,1832599.22547729,9.0,5.0,49.0,41.695899863751094,-87.61345983079715,"(41.69589986375109, -87.61345983079715)",2011-04-06
04/06/2011,Completed,04/06/2011,11-00658573,Tree Trim,,10920 S DR MARTIN LUTHER KING JR DR,60628.0,1180849.1549003,1832639.12547729,9.0,5.0,49.0,41.696009380047954,-87.61346263729367,"(41.69600938004795, -87.61346263729365)",2011-04-06
04/06/2011,Completed,04/06/2011,11-00658575,Tree Trim,,10904 S DR MARTIN LUTHER KING JR DR,60628.0,1180846.1549003,1832745.72547729,9.0,5.0,49.0,41.69630197385247,-87.6134703592882,"(41.69630197385247, -87.61347035928819)",2011-04-06
04/06/2011,Completed,04/06/2011,11-00658581,Tree Trim,,10900 S DR MARTIN LUTHER KING JR DR,60628.0,1180845.4549003001,1832772.32547729,9.0,5.0,49.0,41.696374983947685,-87.61347210825693,"(41.69637498394769, -87.61347210825694)",2011-04-06
04/06/2011,Completed,04/06/2011,11-00658588,Tree Trim,,10800 S DR MARTIN LUTHER KING JR DR,60628.0,1180826.17782827,1833434.31988493,9.0,5.0,49.0,41.698192029031404,-87.61352243203861,"(41.6981920290314, -87.61352243203861)",2011-04-06
04/06/2011,Completed,04/06/2011,11-00658590,Tree Trim,,10808 S DR MARTIN LUTHER KING JR DR,60628.0,1180827.77782827,1833380.81988493,9.0,5.0,49.0,41.69804518105817,-87.61351821083899,"(41.698045181058184, -87.61351821083898)",2011-04-06
04/06/2011,Completed,04/06/2011,11-00658593,Tree Trim,,10812 S DR MARTIN LUTHER KING JR DR,60628.0,1180828.47782827,1833354.11988493,9.0,5.0,49.0,41.697971896570394,-87.61351646485953,"(41.697971896570394, -87.61351646485952)",2011-04-06
04/06/2011,Completed,04/06/2011,11-00658595,Tree Trim,,10818 S DR MARTIN LUTHER KING JR DR,60628.0,1180829.67782827,1833313.91988493,9.0,5.0,49.0,41.697861554776416,-87.6135133012692,"(41.697861554776416, -87.61351330126918)",2011-04-06
04/06/2011,Completed,04/06/2011,11-00658598,Tree Trim,,10826 S DR MARTIN LUTHER KING JR DR,60628.0,1180831.27782827,1833260.41988493,9.0,5.0,49.0,41.697714706794784,-87.61350908010134,"(41.697714706794784, -87.61350908010135)",2011-04-06
04/06/2011,Completed,04/06/2011,11-00658891,Tree Trim,,2945 W WALNUT ST,60612.0,1156710.44140879,1901491.29821137,2.0,13.0,27.0,41.88546909328202,-87.69998665169994,"(41.885469093282026, -87.69998665169993)",2011-04-06
04/06/2011,Completed,04/06/2011,11-00658908,Tree Trim,,2944 W WALNUT ST,60612.0,1156717.24140879,1901491.39821137,27.0,13.0,27.0,41.88546922997121,-87.6999616780257,"(41.88546922997121, -87.6999616780257)",2011-04-06
04/06/2011,Completed,04/06/2011,11-00658913,Tree Trim,,2942 W WALNUT ST,60612.0,1156730.74140879,1901491.69821137,27.0,13.0,27.0,41.88546977976829,-87.69991209518665,"(41.885469779768286, -87.69991209518665)",2011-04-06
04/06/2011,Completed,04/06/2011,11-00658921,Tree Trim,,2936 W WALNUT ST,60612.0,1156771.44140879,1901492.59821137,27.0,13.0,27.0,41.885471424979045,-87.69976261222584,"(41.88547142497905, -87.69976261222584)",2011-04-06
04/06/2011,Completed,04/06/2011,11-00658925,Tree Trim,,2934 W WALNUT ST,60612.0,1156784.94140879,1901492.99821137,27.0,13.0,27.0,41.885472249099664,-87.69971302667301,"(41.885472249099664, -87.69971302667302)",2011-04-06
04/06/2011,Completed,04/06/2011,11-00659035,Tree Trim,,2930 W WALNUT ST,60612.0,1156812.04140879,1901493.59821137,27.0,13.0,27.0,41.885473346431155,-87.69961349376797,"(41.885473346431155, -87.69961349376797)",2011-04-06
04/06/2011,Completed,04/06/2011,11-00659045,Tree Trim,,2929 W WALNUT ST,60612.0,1156818.84140879,1901493.69821137,2.0,13.0,27.0,41.88547348303915,-87.69958852009229,"(41.88547348303915, -87.6995885200923)",2011-04-06
04/06/2011,Completed,04/06/2011,11-00659049,Tree Trim,,2921 W WALNUT ST,60612.0,1156873.04140879,1901494.99821137,2.0,13.0,27.0,41.885475951809454,-87.69938945156164,"(41.88547595180945, -87.69938945156164)",2011-04-06
04/06/2011,Completed,04/06/2011,11-00659052,Tree Trim,,2920 W WALNUT ST,60612.0,1156879.84140879,1901495.09821137,27.0,13.0,27.0,41.88547608836871,-87.69936447788506,"(41.88547608836871, -87.69936447788507)",2011-04-06
04/06/2011,Completed,04/06/2011,11-00659067,Tree Trim,,2919 W WALNUT ST,60612.0,1156886.64140879,1901495.29821137,2.0,13.0,27.0,41.88547649933204,-87.69933950149547,"(41.88547649933205, -87.69933950149547)",2011-04-06
04/06/2011,Completed,04/06/2011,11-00659068,Tree Trim,,2916 W WALNUT ST,60612.0,1156906.94140879,1901495.69821137,27.0,13.0,27.0,41.88547718539802,-87.69926494497183,"(41.885477185398024, -87.69926494497183)",2011-04-06
04/06/2011,Completed,04/06/2011,11-00659069,Tree Trim,,2917 W WALNUT ST,60612.0,1156900.14140879,1901495.59821137,2.0,13.0,27.0,41.885477048860395,-87.69928991864876,"(41.8854770488604, -87.69928991864877)",2011-04-06
04/06/2011,Completed,04/06/2011,11-00659073,Tree Trim,,2913 W WALNUT ST,60612.0,1156927.24140879,1901496.19821137,2.0,13.0,27.0,41.88547814582506,-87.69919038573357,"(41.88547814582506, -87.69919038573356)",2011-04-06
04/06/2011,Completed,04/06/2011,11-00659075,Tree Trim,,2911 W WALNUT ST,60612.0,1156940.84140879,1901496.49821137,2.0,13.0,27.0,41.88547869326105,-87.69914043566506,"(41.88547869326105, -87.69914043566504)",2011-04-06
04/06/2011,Completed,04/06/2011,11-00659078,Tree Trim,,2909 W WALNUT ST,60612.0,1156954.34140879,1901496.79821137,2.0,13.0,27.0,41.885479242703425,-87.69909085281601,"(41.885479242703425, -87.699090852816)",2011-04-06
04/06/2011,Completed,04/20/2011,11-00655665,Tree Trim,Parkway,7759 S SEELEY AVE,60620.0,1164042.17151135,1853191.14668522,18.0,6.0,71.0,41.75277638273321,-87.67442329032706,"(41.75277638273321, -87.67442329032707)",2011-04-06
04/06/2011,Completed,04/22/2011,11-00659740,Tree Trim,Alley,5219 W WAVELAND AVE,60641.0,1140910.72607556,1924103.74286574,38.0,16.0,15.0,41.947825446703945,-87.75744923849726,"(41.947825446703945, -87.75744923849727)",2011-04-06
04/06/2011,Completed,04/23/2012,11-00657434,Tree Trim,Parkway,1941 W BERWYN AVE,60640.0,1162437.72779837,1935208.13861453,40.0,20.0,4.0,41.97787225969832,-87.67800860618252,"(41.97787225969832, -87.67800860618252)",2011-04-06
04/06/2011,Completed,05/05/2011,11-00658156,Tree Trim,Parkway,1722 N MEADE AVE,60639.0,1135480.84648584,1910814.88498014,29.0,25.0,25.0,41.91145770082304,-87.77772506152095,"(41.91145770082305, -87.77772506152095)",2011-04-06
04/06/2011,Completed,05/09/2012,11-00661296,Tree Trim,Parkway,3753 S GILES AVE,60653.0,1178877.71287502,1880164.99559802,3.0,2.0,35.0,41.826470567492365,-87.61923625113434,"(41.82647056749237, -87.61923625113435)",2011-04-06
04/06/2011,Completed,06/08/2012,11-00657989,Tree Trim,Parkway,5404 W BERENICE AVE,60641.0,1139641.18739516,1925101.34989771,38.0,16.0,15.0,41.95058628823898,-87.7620913913754,"(41.95058628823898, -87.7620913913754)",2011-04-06
04/06/2011,Completed,06/08/2012,11-00657996,Tree Trim,Parkway,5406 W BERENICE AVE,60641.0,1139627.68739516,1925101.04989771,38.0,16.0,15.0,41.950585711910094,-87.7621410244223,"(41.950585711910094, -87.7621410244223)",2011-04-06
04/06/2011,Completed,06/26/2012,11-00663836,Tree Trim,Parkway,8655 S KEELER AVE,60652.0,1149928.21232523,1846822.06629733,18.0,8.0,70.0,41.735583480333524,-87.72631046227326,"(41.73558348033352, -87.72631046227325)",2011-04-06
04/06/2011,Completed,08/01/2011,11-00657887,Tree Trim,Parkway,9321 S OAKLEY AVE,60620.0,1162675.12230524,1842751.02742706,19.0,22.0,72.0,41.72415570098679,-87.67972356315998,"(41.724155700986785, -87.67972356315998)",2011-04-06
04/06/2011,Completed,08/23/2012,11-00660056,Tree Trim,Parkway,5239 N LEAMINGTON AVE,60630.0,1141087.80976842,1934355.71406716,45.0,16.0,11.0,41.975954484235245,-87.7565446469542,"(41.975954484235245, -87.75654464695418)",2011-04-06
04/06/2011,Completed,09/12/2012,11-00654748,Tree Trim,,3624 W 69TH PL,60629.0,1153360.09477988,1858279.73013227,13.0,8.0,65.0,41.766958109507925,-87.7134347679926,"(41.76695810950793, -87.7134347679926)",2011-04-06
04/06/2011,Completed,10/14/2011,11-00656139,Tree Trim,Parkway,10043 S DR MARTIN LUTHER KING JR DR,60628.0,1180682.53490438,1838403.64480439,9.0,5.0,49.0,41.71183181073585,-87.61389636951985,"(41.711831810735845, -87.61389636951985)",2011-04-06
04/06/2011,Completed,11/08/2011,11-00650445,Tree Trim,Parkway,6205 N KEYSTONE AVE,60646.0,1148233.46459654,1940898.67918259,39.0,17.0,12.0,41.993773762264865,-87.73009760858268,"(41.99377376226487, -87.73009760858268)",2011-04-06
04/06/2011,Completed,11/14/2011,11-00655307,Tree Trim,Parkway,1828 N HOWE ST,60614.0,1171663.99988787,1912185.60301767,43.0,18.0,7.0,41.91449890918639,-87.64475941825346,"(41.91449890918639, -87.64475941825347)",2011-04-06
04/06/2011,Completed,11/14/2011,11-00657475,Tree Trim,Parkway,5304 N PAULINA ST,60640.0,1164036.8313697,1935293.35780066,40.0,20.0,77.0,41.97807238412792,-87.67212550723877,"(41.97807238412792, -87.67212550723876)",2011-04-06
04/06/2011,Completed,11/21/2011,11-00653368,Tree Trim,Parkway,3814 N OLCOTT AVE,60634.0,1125379.86032319,1924413.46227072,36.0,16.0,17.0,41.948947509320384,-87.81453135196783,"(41.948947509320384, -87.81453135196783)",2011-04-06
04/06/2011,Completed,11/21/2011,11-00654487,Tree Trim,Parkway,3319 N PONTIAC AVE,60634.0,1119867.25931611,1920949.92003109,36.0,16.0,17.0,41.939532873069865,-87.83486929120123,"(41.939532873069865, -87.83486929120124)",2011-04-06
04/06/2011,Completed,11/29/2011,11-00656521,Tree Trim,Parkway,2906 W BELDEN AVE,60647.0,1156550.32568451,1915266.82328834,35.0,14.0,22.0,41.92327356559914,-87.7002012681242,"(41.92327356559914, -87.7002012681242)",2011-04-06
04/06/2011,Completed,12/04/2012,11-00656652,Tree Trim,Parkway,2324 N WASHTENAW AVE,60647.0,1157806.91122178,1915405.23408736,1.0,14.0,22.0,41.923627823313716,-87.69558033151344,"(41.923627823313716, -87.69558033151343)",2011-04-06
04/06/2011,Completed,12/26/2012,11-00659396,Tree Trim,Parkway,8152 S LUELLA AVE,60617.0,1192604.7132909999,1851356.20750931,8.0,4.0,46.0,41.74709321346038,-87.56981407874002,"(41.74709321346038, -87.56981407874002)",2011-04-06
04/06/2011,Completed,12/27/2011,11-00661295,Tree Trim,Parkway,3757 S GILES AVE,60653.0,1178878.31287502,1880138.19559802,3.0,2.0,35.0,41.826397012517155,-87.61923486713081,"(41.82639701251716, -87.61923486713081)",2011-04-06
04/06/2011,Completed,12/27/2012,11-00655221,Tree Trim,Parkway,1726 N CENTRAL AVE,60639.0,1138779.3146213002,1911027.15007135,29.0,25.0,25.0,41.91198090877923,-87.76560219847259,"(41.91198090877923, -87.7656021984726)",2011-04-06
04/06/2011,Completed,12/27/2012,11-00655228,Tree Trim,Parkway,1720 N CENTRAL AVE,60639.0,1138781.62310278,1910961.7834143997,29.0,25.0,25.0,41.91180149318587,-87.76559530721025,"(41.91180149318587, -87.76559530721025)",2011-04-06
04/06/2011,Completed,12/29/2011,11-00655189,Tree Trim,Parkway,3355 W EVERGREEN AVE,60651.0,1153745.85397968,1908779.28328008,26.0,14.0,23.0,41.90552754936089,-87.71067900220591,"(41.90552754936089, -87.7106790022059)",2011-04-06
04/07/2011,Completed - Dup,02/01/2012,11-00681323,Tree Trim,Parkway,8559 S PAULINA ST,60620.0,1166501.76109845,1847940.57491794,18.0,6.0,71.0,41.738316015857954,-87.66555918774851,"(41.73831601585795, -87.6655591877485)",2011-04-07
04/07/2011,Completed - Dup,03/13/2013,11-00674765,Tree Trim,Parkway,9741 S SEELEY AVE,60643.0,1164407.50269533,1840036.72720201,19.0,22.0,72.0,41.716670956859616,-87.67345409086599,"(41.716670956859616, -87.673454090866)",2011-04-07
04/07/2011,Completed - Dup,03/28/2012,11-00677987,Tree Trim,,5600 S TRIPP AVE,60629.0,1148987.28842446,1867132.33841638,13.0,8.0,62.0,41.79133645968833,-87.7292351267473,"(41.79133645968833, -87.7292351267473)",2011-04-07
04/07/2011,Completed - Dup,04/03/2012,11-00676708,Tree Trim,Parkway,5139 S RACINE AVE,60609.0,1169193.20210581,1870706.27752702,16.0,9.0,61.0,41.80073024890974,-87.6550405639489,"(41.80073024890974, -87.6550405639489)",2011-04-07
04/07/2011,Completed - Dup,04/07/2011,11-00670855,Tree Trim,Parkway,3710 N PACIFIC AVE,60634.0,1122052.02108604,1923694.28998707,36.0,16.0,17.0,41.947028634540814,-87.82677984851553,"(41.947028634540814, -87.82677984851553)",2011-04-07
04/07/2011,Completed - Dup,04/21/2011,11-00677441,Tree Trim,Parkway,6116 S NATCHEZ AVE,60638.0,1134122.65756642,1863269.36073033,23.0,8.0,64.0,41.78100943087461,-87.7838323117326,"(41.781009430874605, -87.7838323117326)",2011-04-07
04/07/2011,Completed - Dup,05/08/2012,11-00681725,Tree Trim,Parkway,6956 W WOLFRAM ST,60634.0,1129408.78121845,1918167.19997175,36.0,25.0,18.0,41.93173915389164,-87.79986429119762,"(41.93173915389164, -87.79986429119762)",2011-04-07
04/07/2011,Completed - Dup,06/06/2012,11-00678263,Tree Trim,Parkway,7432 S ELLIS AVE,60619.0,1184016.265631,1855928.80369721,8.0,3.0,69.0,41.7598457005935,-87.60114146337769,"(41.7598457005935, -87.60114146337769)",2011-04-07
04/07/2011,Completed - Dup,10/20/2011,11-00678507,Tree Trim,Parkway,11418 S EMERALD AVE,60628.0,1173360.17907438,1829143.91180643,34.0,22.0,49.0,41.68658645921313,-87.64098528570379,"(41.68658645921313, -87.64098528570379)",2011-04-07
04/07/2011,Completed - Dup,10/21/2011,11-00676716,Tree Trim,Parkway,5319 S RUTHERFORD AVE,60638.0,1132284.28028935,1868565.58580636,23.0,8.0,56.0,41.79557530014685,-87.7904497354039,"(41.79557530014685, -87.7904497354039)",2011-04-07
04/07/2011,Completed - Dup,10/28/2011,11-00671006,Tree Trim,Parkway,11036 S SPRINGFIELD AVE,60655.0,1152328.80671966,1831001.79982971,19.0,22.0,74.0,41.692122914509895,-87.71792975044535,"(41.6921229145099, -87.71792975044534)",2011-04-07
04/07/2011,Completed - Dup,11/01/2011,11-00679133,Tree Trim,Parkway,5113 S TRUMBULL AVE,60632.0,1154242.599901,1870508.23797478,14.0,8.0,63.0,41.80049746200907,-87.70987499506609,"(41.80049746200907, -87.7098749950661)",2011-04-07
04/07/2011,Completed - Dup,11/23/2012,11-00681895,Tree Trim,,3930 N KOSTNER AVE,60641.0,1146184.06990717,1925758.0022673,38.0,17.0,16.0,41.95226601089535,-87.73802320953602,"(41.95226601089535, -87.73802320953601)",2011-04-07
04/07/2011,Completed - Dup,12/14/2011,11-00677275,Tree Trim,Parkway,6699 N OLYMPIA AVE,60631.0,1125654.92556767,1943993.46606813,41.0,16.0,9.0,42.002672554976286,-87.81308312933338,"(42.002672554976286, -87.81308312933338)",2011-04-07
04/07/2011,Completed - Dup,12/23/2011,11-00673554,Tree Trim,Parkway,9915 S VAN VLISSINGEN RD,60617.0,1191627.47672929,1839636.65989285,7.0,4.0,51.0,41.71495739486913,-87.5737738323444,"(41.71495739486913, -87.57377383234441)",2011-04-07
04/07/2011,Completed,01/04/2013,11-00680380,Tree Trim,Parkway,8145 S SOUTH SHORE DR,60617.0,1198565.98331306,1851563.5116951999,7.0,4.0,46.0,41.74751483988857,-87.54796392404282,"(41.74751483988856, -87.54796392404282)",2011-04-07
04/07/2011,Completed,01/09/2012,11-00675145,Tree Trim,Parkway,5842 W 59TH ST,60638.0,1138348.6830302,1864849.4360656003,23.0,8.0,56.0,41.785270287107714,-87.76830043841457,"(41.78527028710771, -87.76830043841458)",2011-04-07
04/07/2011,Completed,01/10/2012,11-00681034,Tree Trim,Parkway,5248 N MOBILE AVE,60630.0,1133300.4400228001,1934516.90968326,45.0,16.0,11.0,41.97653713005441,-87.78517848242006,"(41.97653713005441, -87.78517848242006)",2011-04-07
04/07/2011,Completed,01/13/2012,11-00674712,Tree Trim,Parkway,3731 N PLAINFIELD AVE,60634.0,1120067.94031692,1923748.74428909,36.0,16.0,17.0,41.94721000930976,-87.8340717969869,"(41.947210009309764, -87.8340717969869)",2011-04-07
04/07/2011,Completed,01/18/2013,11-00674787,Tree Trim,Parkway,9750 S SEELEY AVE,60643.0,1164399.60269533,1840311.22720201,19.0,22.0,72.0,41.71742439537741,-87.67347531973995,"(41.71742439537741, -87.67347531973995)",2011-04-07
04/07/2011,Completed,01/24/2012,11-00672508,Tree Trim,Parkway,1919 N KILDARE AVE,60639.0,1147416.63336925,1912404.44619275,30.0,25.0,20.0,41.915599075947476,-87.7338354896058,"(41.91559907594748, -87.7338354896058)",2011-04-07
04/07/2011,Completed,02/10/2012,11-00676111,Tree Trim,Parkway,1646 N LAWNDALE AVE,60647.0,1151457.88120607,1910795.9799192,26.0,25.0,23.0,41.91110682023493,-87.71903049922078,"(41.911106820234934, -87.71903049922078)",2011-04-07
04/07/2011,Completed,02/16/2012,11-00671044,Tree Trim,Parkway,1531 W BARRY AVE,60657.0,1165562.57509125,1920660.40082484,32.0,19.0,6.0,41.93788647584288,-87.66693307394729,"(41.93788647584288, -87.6669330739473)",2011-04-07
04/07/2011,Completed,03/13/2013,11-00674050,Tree Trim,Parkway,9741 S SEELEY AVE,60643.0,1164407.50269533,1840036.72720201,19.0,22.0,72.0,41.716670956859616,-87.67345409086599,"(41.716670956859616, -87.673454090866)",2011-04-07
04/07/2011,Completed,03/19/2012,11-00676994,Tree Trim,Parkway,9102 S PARNELL AVE,60620.0,1174230.59321338,1844539.15262808,21.0,22.0,73.0,41.72881400307076,-87.63734333615385,"(41.72881400307076, -87.63734333615385)",2011-04-07
04/07/2011,Completed,03/20/2012,11-00682051,Tree Trim,Parkway,2340 W MCLEAN AVE,60647.0,1160436.06957791,1913505.06602623,32.0,14.0,22.0,41.91835956429904,-87.68597251188612,"(41.91835956429904, -87.68597251188612)",2011-04-07
04/07/2011,Completed,03/29/2012,11-00680350,Tree Trim,Parkway,3007 W WILSON AVE,60625.0,1155470.5099108,1930368.93893094,33.0,17.0,14.0,41.964736626297494,-87.7037613422003,"(41.96473662629749, -87.7037613422003)",2011-04-07
04/07/2011,Completed,04/07/2011,11-00677315,Tree Trim,,10836 S DR MARTIN LUTHER KING JR DR,60628.0,1180833.17782827,1833193.61988493,9.0,5.0,49.0,41.69753135491616,-87.61350416750933,"(41.69753135491616, -87.61350416750933)",2011-04-07
04/07/2011,Completed,04/07/2011,11-00677316,Tree Trim,,10858 S DR MARTIN LUTHER KING JR DR,60628.0,1180837.4549003001,1833046.52547729,9.0,5.0,49.0,41.69712760970349,-87.6134930085726,"(41.697127609703486, -87.6134930085726)",2011-04-07
04/07/2011,Completed,04/07/2011,11-00677318,Tree Trim,,10830 S DR MARTIN LUTHER KING JR DR,60628.0,1180831.97782827,1833233.71988493,9.0,5.0,49.0,41.697641422302816,-87.61350733413592,"(41.697641422302816, -87.61350733413592)",2011-04-07
04/07/2011,Completed,04/07/2011,11-00677321,Tree Trim,,10300 S DR MARTIN LUTHER KING JR DR,60628.0,1180731.51278401,1836758.20042195,9.0,5.0,49.0,41.70731537318311,-87.61376735728281,"(41.70731537318311, -87.61376735728281)",2011-04-07
04/07/2011,Completed,04/07/2011,11-00677322,Tree Trim,,10326 S DR MARTIN LUTHER KING JR DR,60628.0,1180736.41278401,1836583.50042195,9.0,5.0,49.0,41.706835860980576,-87.61375475946764,"(41.706835860980576, -87.61375475946764)",2011-04-07
04/07/2011,Completed,04/07/2011,11-00677325,Tree Trim,,10330 S DR MARTIN LUTHER KING JR DR,60628.0,1180737.11278401,1836556.60042195,9.0,5.0,49.0,41.70676202777757,-87.6137530192424,"(41.706762027777565, -87.6137530192424)",2011-04-07
04/07/2011,Completed,04/07/2011,11-00677328,Tree Trim,,10348 S DR MARTIN LUTHER KING JR DR,60628.0,1180740.51278401,1836435.60042195,9.0,5.0,49.0,41.70642990982635,-87.61374427125091,"(41.70642990982634, -87.61374427125091)",2011-04-07
04/07/2011,Completed,04/07/2011,11-00677330,Tree Trim,,10350 S DR MARTIN LUTHER KING JR DR,60628.0,1180731.51278401,1836758.20042195,9.0,5.0,49.0,41.70731537318311,-87.61376735728281,"(41.70731537318311, -87.61376735728281)",2011-04-07
04/07/2011,Completed,04/07/2011,11-00677331,Tree Trim,,10416 S DR MARTIN LUTHER KING JR DR,60628.0,1180753.20319009,1835985.34398261,9.0,5.0,49.0,41.70519405550033,-87.6137115781917,"(41.70519405550033, -87.6137115781917)",2011-04-07
04/07/2011,Completed,04/07/2011,11-00677334,Tree Trim,,10422 S DR MARTIN LUTHER KING JR DR,60628.0,1180754.40319009,1835945.04398261,9.0,5.0,49.0,41.705083439431064,-87.6137084171477,"(41.70508343943106, -87.61370841714772)",2011-04-07
04/07/2011,Completed,04/07/2011,11-00677338,Tree Trim,,10416 S DR MARTIN LUTHER KING JR DR,60628.0,1180753.20319009,1835985.34398261,9.0,5.0,49.0,41.70519405550033,-87.6137115781917,"(41.70519405550033, -87.6137115781917)",2011-04-07
04/07/2011,Completed,04/07/2011,11-00677340,Tree Trim,,10432 S DR MARTIN LUTHER KING JR DR,60628.0,1180756.30319009,1835877.84398261,9.0,5.0,49.0,41.704898990132904,-87.61370351596352,"(41.70489899013291, -87.61370351596352)",2011-04-07
04/07/2011,Completed,04/07/2011,11-00677342,Tree Trim,,10436 S DR MARTIN LUTHER KING JR DR,60628.0,1180757.10319009,1835850.94398261,9.0,5.0,49.0,41.70482515461208,-87.61370140963406,"(41.70482515461208, -87.61370140963406)",2011-04-07
04/07/2011,Completed,04/07/2011,11-00677344,Tree Trim,,10450 S DR MARTIN LUTHER KING JR DR,60628.0,1180750.10319009,1836092.84398261,9.0,5.0,49.0,41.70548912085269,-87.6137196404746,"(41.70548912085269, -87.61371964047461)",2011-04-07
04/07/2011,Completed,04/07/2011,11-00677350,Tree Trim,,10454 S DR MARTIN LUTHER KING JR DR,60628.0,1180760.54972119,1835730.03677657,9.0,5.0,49.0,41.704493290121626,-87.61369248880234,"(41.704493290121626, -87.61369248880234)",2011-04-07
04/07/2011,Completed,04/07/2011,11-00677352,Tree Trim,,10458 S DR MARTIN LUTHER KING JR DR,60628.0,1180761.34972119,1835703.13677657,9.0,5.0,49.0,41.704419454595616,-87.6136903824922,"(41.70441945459562, -87.6136903824922)",2011-04-07
04/07/2011,Completed,04/07/2011,11-00677354,Tree Trim,,10500 S DR MARTIN LUTHER KING JR DR,60628.0,1180769.24972119,1835427.73677657,9.0,5.0,49.0,41.70366353912254,-87.61366988160925,"(41.70366353912254, -87.61366988160925)",2011-04-07
04/07/2011,Completed,04/07/2011,11-00677394,Tree Trim,,10504 S DR MARTIN LUTHER KING JR DR,60628.0,1180770.04972119,1835400.83677657,9.0,5.0,49.0,41.703589703585926,-87.61366777533871,"(41.703589703585926, -87.6136677753387)",2011-04-07
04/07/2011,Completed,04/07/2011,11-00677399,Tree Trim,,10508 S DR MARTIN LUTHER KING JR DR,60628.0,1180770.74972119,1835373.93677657,9.0,5.0,49.0,41.70351587034156,-87.61366603524816,"(41.703515870341555, -87.61366603524817)",2011-04-07
04/07/2011,Completed,04/07/2011,11-00677402,Tree Trim,,10514 S DR MARTIN LUTHER KING JR DR,60628.0,1180771.94972119,1835333.63677657,9.0,5.0,49.0,41.70340525424014,-87.61366287432396,"(41.70340525424014, -87.61366287432395)",2011-04-07
04/07/2011,Completed,04/07/2011,11-00677407,Tree Trim,,10520 S DR MARTIN LUTHER KING JR DR,60628.0,1180773.14972119,1835293.33677657,9.0,5.0,49.0,41.703294638136605,-87.61365971340788,"(41.7032946381366, -87.61365971340788)",2011-04-07
04/07/2011,Completed,04/07/2011,11-00677413,Tree Trim,,10526 S DR MARTIN LUTHER KING JR DR,60628.0,1180774.24972119,1835253.03677657,9.0,5.0,49.0,41.70318402432414,-87.61365691867451,"(41.70318402432414, -87.61365691867451)",2011-04-07
04/07/2011,Completed,04/07/2011,11-00677417,Tree Trim,,10534 S DR MARTIN LUTHER KING JR DR,60628.0,1180775.84972119,1835199.33677657,9.0,5.0,49.0,41.703036627651095,-87.61365270312248,"(41.70303662765109, -87.61365270312248)",2011-04-07
04/07/2011,Completed,04/07/2011,11-00677419,Tree Trim,,10536 S DR MARTIN LUTHER KING JR DR,60628.0,1180776.14972119,1835185.83677657,9.0,5.0,49.0,41.7029995749654,-87.61365201770523,"(41.70299957496541, -87.61365201770523)",2011-04-07
04/07/2011,Completed,04/07/2011,11-00677422,Tree Trim,,10540 S DR MARTIN LUTHER KING JR DR,60628.0,1180776.94972119,1835158.93677657,9.0,5.0,49.0,41.702925739420316,-87.6136499114661,"(41.70292573942031, -87.6136499114661)",2011-04-07
04/07/2011,Completed,04/07/2011,11-00677430,Tree Trim,,10550 S DR MARTIN LUTHER KING JR DR,60628.0,1180769.24972119,1835427.73677657,9.0,5.0,49.0,41.70366353912254,-87.61366988160925,"(41.70366353912254, -87.61366988160925)",2011-04-07
04/07/2011,Completed,04/07/2011,11-00677608,Tree Trim,,7223 S UNIVERSITY AVE,60619.0,1185131.28006788,1857351.39076577,5.0,3.0,69.0,41.76372329993367,-87.59701036039287,"(41.76372329993367, -87.59701036039287)",2011-04-07
04/07/2011,Completed,04/07/2011,11-00677622,Tree Trim,,7228 S UNIVERSITY AVE,60619.0,1185132.18006788,1857317.89076577,5.0,3.0,69.0,41.76363135162478,-87.59700811278849,"(41.76363135162478, -87.59700811278849)",2011-04-07
04/07/2011,Completed,04/07/2011,11-00677633,Tree Trim,,7317 S UNIVERSITY AVE,60619.0,1185148.16578358,1856726.74960145,5.0,3.0,69.0,41.76200882862521,-87.59696806998707,"(41.76200882862521, -87.59696806998706)",2011-04-07
04/07/2011,Completed,04/07/2011,11-00677644,Tree Trim,,7301 S UNIVERSITY AVE,60619.0,1185145.26578358,1856834.34960145,5.0,3.0,69.0,41.762304161398674,-87.59697532283155,"(41.76230416139867, -87.59697532283154)",2011-04-07
04/07/2011,Completed,04/07/2011,11-00677651,Tree Trim,,7334 S UNIVERSITY AVE,60619.0,1185151.36578358,1856612.44960145,5.0,3.0,69.0,41.76169510334982,-87.59695992788154,"(41.76169510334982, -87.59695992788154)",2011-04-07
04/07/2011,Completed,04/07/2011,11-00677660,Tree Trim,,7336 S UNIVERSITY AVE,60619.0,1185151.66578358,1856599.04960145,5.0,3.0,69.0,41.76165832542302,-87.59695924878294,"(41.76165832542302, -87.59695924878294)",2011-04-07
04/07/2011,Completed,04/07/2011,11-00677674,Tree Trim,,7348 S UNIVERSITY AVE,60619.0,1185153.96578358,1856518.34960145,5.0,3.0,69.0,41.76143682288335,-87.59695335109285,"(41.76143682288334, -87.59695335109286)",2011-04-07
04/07/2011,Completed,04/07/2011,11-00677687,Tree Trim,,7238 S UNIVERSITY AVE,60619.0,1185133.98006788,1857250.69076577,5.0,3.0,69.0,41.76344690618372,-87.5970036238682,"(41.76344690618372, -87.5970036238682)",2011-04-07
04/07/2011,Completed,04/07/2011,11-00677708,Tree Trim,,7246 S UNIVERSITY AVE,60619.0,1185135.48006788,1857196.99076577,5.0,3.0,69.0,41.76329951306292,-87.59699981095372,"(41.76329951306292, -87.5969998109537)",2011-04-07
04/07/2011,Completed,04/07/2011,11-00677725,Tree Trim,,7256 S UNIVERSITY AVE,60619.0,1185137.26578358,1857129.84960145,5.0,3.0,69.0,41.763115229397506,-87.59699537257465,"(41.763115229397506, -87.59699537257465)",2011-04-07
04/07/2011,Completed,04/07/2011,11-00677735,Tree Trim,,7308 S UNIVERSITY AVE,60619.0,1185146.56578358,1856787.24960145,5.0,3.0,69.0,41.762174883975675,-87.5969720359568,"(41.762174883975675, -87.5969720359568)",2011-04-07
04/07/2011,Completed,04/07/2011,11-00677751,Tree Trim,,7310 S UNIVERSITY AVE,60619.0,1185146.86578358,1856773.84960145,5.0,3.0,69.0,41.76213810605191,-87.59697135685015,"(41.76213810605191, -87.59697135685016)",2011-04-07
04/07/2011,Completed,04/07/2011,11-00678090,Tree Trim,,4800 S CALUMET AVE,60615.0,1179243.01870063,1873268.47982915,3.0,2.0,38.0,41.807537624350154,-87.61810662993184,"(41.80753762435016, -87.61810662993186)",2011-04-07
04/07/2011,Completed,04/21/2011,11-00674063,Tree Trim,,5340 W MONTROSE AVE,60641.0,1139955.36979736,1928737.80820626,45.0,16.0,15.0,41.96055931373251,-87.76084716545083,"(41.96055931373251, -87.76084716545083)",2011-04-07
04/07/2011,Completed,04/21/2011,11-00674709,Tree Trim,Parkway,5505 S KIMBARK AVE,60637.0,1185603.32790538,1868751.077228,5.0,21.0,41.0,41.79499391709314,-87.59492144026267,"(41.79499391709313, -87.59492144026265)",2011-04-07
04/07/2011,Completed,04/25/2011,11-00670639,Tree Trim,Alley,3735 W 86TH ST,60652.0,1152995.55007631,1847285.7340141002,18.0,8.0,70.0,41.73679594874114,-87.71506056730524,"(41.73679594874114, -87.71506056730523)",2011-04-07
04/07/2011,Completed,04/25/2011,11-00670641,Tree Trim,Alley,3739 W 86TH ST,60652.0,1152968.75007631,1847284.9340141003,18.0,8.0,70.0,41.736794281690294,-87.71515877631491,"(41.7367942816903, -87.71515877631491)",2011-04-07
04/07/2011,Completed,04/25/2011,11-00675905,Tree Trim,Parkway,10058 S ABERDEEN ST,60643.0,1170760.14461651,1838104.87018375,34.0,22.0,73.0,41.711233686061405,-87.6502433921195,"(41.71123368606141, -87.6502433921195)",2011-04-07
04/07/2011,Completed,04/25/2012,11-00677641,Tree Trim,Parkway,1927 N ST LOUIS AVE,60647.0,1152952.73560561,1912590.24011441,35.0,14.0,22.0,41.916000919494415,-87.71349124524264,"(41.916000919494415, -87.71349124524262)",2011-04-07
04/07/2011,Completed,04/27/2012,11-00670065,Tree Trim,Parkway,8238 S EVANS AVE,60619.0,1182660.96289116,1850535.03840196,6.0,6.0,44.0,41.74507618693121,-87.60627564107251,"(41.74507618693121, -87.60627564107251)",2011-04-07
04/07/2011,Completed,05/02/2011,11-00678194,Tree Trim,Parkway,10000 S YALE AVE,60628.0,1176378.90111235,1838630.40857963,9.0,5.0,49.0,41.7125516760104,-87.62965054494984,"(41.7125516760104, -87.62965054494984)",2011-04-07
04/07/2011,Completed,05/12/2011,11-00673982,Tree Trim,Parkway,485 W 23RD PL,60616.0,1173184.1293237,1888677.63056739,25.0,9.0,34.0,41.849957921354864,-87.63987259984077,"(41.84995792135486, -87.63987259984077)",2011-04-07
04/07/2011,Completed,05/13/2011,11-00674703,Tree Trim,Parkway,2529 W WALTON ST,60622.0,1159368.46438461,1906236.87708497,26.0,13.0,24.0,41.89843712750212,-87.6900952300303,"(41.89843712750212, -87.6900952300303)",2011-04-07
04/07/2011,Completed,05/16/2012,11-00674932,Tree Trim,Parkway,8746 S DORCHESTER AVE,60619.0,1186981.62999189,1847265.08787417,8.0,4.0,48.0,41.73600184069653,-87.59054766165632,"(41.736001840696524, -87.59054766165633)",2011-04-07
04/07/2011,Completed,10/07/2011,11-00671374,Tree Trim,Parkway,5318 N MOBILE AVE,60630.0,1133302.93097795,1934977.86338169,45.0,16.0,11.0,41.97780198632887,-87.78515847430056,"(41.97780198632887, -87.78515847430056)",2011-04-07
04/07/2011,Completed,10/28/2011,11-00673081,Tree Trim,Parkway,1542 S SPAULDING AVE,60623.0,1154616.11008859,1892235.4676753997,24.0,10.0,29.0,41.86011227645328,-87.70792511490721,"(41.860112276453265, -87.7079251149072)",2011-04-07
04/07/2011,Completed,10/29/2012,11-00684596,Tree Trim,Parkway,1429 W RASCHER AVE,60640.0,1165723.07003166,1936298.78000109,48.0,20.0,77.0,41.98079541041565,-87.6658955674669,"(41.980795410415645, -87.6658955674669)",2011-04-07
04/07/2011,Completed,11/23/2011,11-00671004,Tree Trim,Parkway,1932 N LAMON AVE,60639.0,1143175.57431388,1912522.96010771,31.0,25.0,19.0,41.916004582990006,-87.74941399858926,"(41.91600458299, -87.74941399858926)",2011-04-07
04/07/2011,Completed,11/25/2011,11-00676512,Tree Trim,Parkway,3749 W 55TH ST,60632.0,1152214.40011026,1867866.33612499,23.0,8.0,62.0,41.793287823432,-87.71738254910021,"(41.793287823432, -87.7173825491002)",2011-04-07
04/07/2011,Completed,11/28/2011,11-00672199,Tree Trim,Parkway,6120 S NASHVILLE AVE,60638.0,1133457.62212854,1863224.9276953,23.0,8.0,64.0,41.78089913453453,-87.78627156175925,"(41.780899134534536, -87.78627156175925)",2011-04-07
04/07/2011,Completed,11/29/2011,11-00679622,Tree Trim,,3655 N PITTSBURGH AVE,60634.0,1120421.1096893,1923261.81259095,36.0,16.0,17.0,41.945868153478884,-87.83278406018508,"(41.94586815347888, -87.83278406018506)",2011-04-07
04/07/2011,Completed,11/29/2011,11-00679679,Tree Trim,Parkway,3653 N PITTSBURGH AVE,60634.0,1120421.7096893,1923248.41259095,36.0,16.0,17.0,41.945831372530435,-87.83278214237099,"(41.94583137253044, -87.83278214237099)",2011-04-07
04/07/2011,Completed,12/09/2011,11-00679161,Tree Trim,Parkway,3832 S WOLCOTT AVE,60609.0,1164322.49948174,1879138.46009159,11.0,9.0,59.0,41.82397321520586,-87.67266532582413,"(41.82397321520586, -87.67266532582413)",2011-04-07
04/07/2011,Completed,12/11/2012,11-00681962,Tree Trim,Parkway,7509 S TRUMBULL AVE,60652.0,1154674.61998061,1854594.477311,18.0,8.0,70.0,41.75681909083957,-87.70871453718433,"(41.756819090839564, -87.70871453718433)",2011-04-07
04/07/2011,Completed,12/28/2012,11-00676108,Tree Trim,Parkway,11221 S SAWYER AVE,60655.0,1156700.99002186,1829914.6011265,19.0,22.0,74.0,41.68905260212895,-87.70195154174036,"(41.689052602128946, -87.70195154174036)",2011-04-07
04/07/2011,Completed,12/29/2011,11-00676126,Tree Trim,Parkway,2324 N DRAKE AVE,60647.0,1152427.6133122,1915337.85521413,26.0,14.0,22.0,41.92355101226807,-87.71534777983486,"(41.92355101226807, -87.71534777983486)",2011-04-07
04/08/2011,Completed - Dup,01/17/2012,11-00698167,Tree Trim,Parkway,103 E 68TH ST,60637.0,1178348.38598782,1859958.79206886,20.0,3.0,69.0,41.77103493080842,-87.62179187152857,"(41.771034930808426, -87.62179187152856)",2011-04-08
04/08/2011,Completed - Dup,01/31/2012,11-00703273,Tree Trim,Parkway,8047 S CAMPBELL AVE,60652.0,1161105.93017941,1851202.97668691,18.0,8.0,70.0,41.74738174594107,-87.68523836429623,"(41.74738174594107, -87.68523836429624)",2011-04-08
04/08/2011,Completed - Dup,02/01/2012,11-00703304,Tree Trim,Parkway,8045 S CAMPBELL AVE,60652.0,1161105.73017941,1851216.37668691,18.0,8.0,70.0,41.7474185217321,-87.68523872732466,"(41.7474185217321, -87.68523872732466)",2011-04-08
04/08/2011,Completed - Dup,02/10/2012,11-00703217,Tree Trim,Parkway,1654 N MONTICELLO AVE,60647.0,1151794.23366993,1910750.55312499,26.0,25.0,23.0,41.91097554781405,-87.7177960447433,"(41.910975547814054, -87.71779604474328)",2011-04-08
04/08/2011,Completed - Dup,04/10/2012,11-00696025,Tree Trim,Parkway,6917 S PRAIRIE AVE,60637.0,1179237.16118876,1859146.02067676,6.0,3.0,69.0,41.768784377294146,-87.61855873172372,"(41.76878437729415, -87.61855873172374)",2011-04-08
04/08/2011,Completed - Dup,04/17/2012,11-00700726,Tree Trim,Parkway,3512 N PITTSBURGH AVE,60634.0,1120460.92062531,1922277.41373115,36.0,16.0,17.0,41.943166197028106,-87.83265886027544,"(41.94316619702811, -87.83265886027543)",2011-04-08
04/08/2011,Completed - Dup,04/30/2012,11-00699198,Tree Trim,Parkway,10120 S HOYNE AVE,60643.0,1163919.12000287,1837511.09000583,19.0,22.0,72.0,41.70975045087525,-87.67531351354474,"(41.70975045087525, -87.67531351354474)",2011-04-08
04/08/2011,Completed - Dup,10/31/2011,11-00696343,Tree Trim,Parkway,9004 S RIDGELAND AVE,60617.0,1189438.64302817,1845619.8822883999,8.0,4.0,48.0,41.73142869021304,-87.58159883133635,"(41.731428690213036, -87.58159883133635)",2011-04-08
04/08/2011,Completed - Dup,11/23/2011,11-00700069,Tree Trim,,8558 S EXCHANGE AVE,60617.0,1197298.20053271,1848790.89187452,10.0,4.0,46.0,41.73993822040339,-87.55270151233255,"(41.73993822040339, -87.55270151233256)",2011-04-08
04/08/2011,Completed - Dup,12/19/2011,11-00699056,Tree Trim,Parkway,10501 S ALBANY AVE,60655.0,1157508.38170684,1834833.24851521,19.0,22.0,74.0,41.70253400632567,-87.69886302913166,"(41.70253400632567, -87.69886302913166)",2011-04-08
04/08/2011,Completed,01/17/2012,11-00693251,Tree Trim,Parkway,10727 S CAMPBELL AVE,60655.0,1161615.45058601,1833419.56531143,19.0,22.0,75.0,41.698570595999854,-87.68386294437323,"(41.698570595999854, -87.68386294437323)",2011-04-08
04/08/2011,Completed,01/18/2012,11-00692450,Tree Trim,Parkway,7156 S CAMPBELL AVE,60629.0,1160946.39119782,1857121.35358087,18.0,8.0,66.0,41.763625955397636,-87.68565970049889,"(41.76362595539764, -87.68565970049889)",2011-04-08
04/08/2011,Completed,01/26/2012,11-00698600,Tree Trim,Parkway,3409 N ORANGE AVE,60634.0,1122821.32247976,1921640.30517164,36.0,16.0,17.0,41.941379729586046,-87.82399690450858,"(41.941379729586046, -87.82399690450856)",2011-04-08
04/08/2011,Completed,02/07/2012,11-00696527,Tree Trim,Parkway,334 W 97TH ST,60628.0,1175644.50766579,1840599.24199216,21.0,5.0,49.0,41.71797086698132,-87.6322813973576,"(41.71797086698132, -87.63228139735759)",2011-04-08
04/08/2011,Completed,02/07/2012,11-00702227,Tree Trim,Parkway,2218 N MELVINA AVE,60639.0,1134709.69892178,1914164.76000352,29.0,25.0,19.0,41.920663834618175,-87.78047872842657,"(41.92066383461817, -87.78047872842656)",2011-04-08
04/08/2011,Completed,02/11/2013,11-00694080,Tree Trim,,2540 W MOFFAT ST,60647.0,1159140.29352508,1912207.66019268,1.0,14.0,22.0,41.91482612668956,-87.6907690086802,"(41.91482612668956, -87.69076900868022)",2011-04-08
04/08/2011,Completed,02/15/2012,11-00700852,Tree Trim,Parkway,8616 S INDIANA AVE,60619.0,1179097.11698967,1847912.27227204,6.0,6.0,44.0,41.73796089469359,-87.61941374903616,"(41.737960894693586, -87.61941374903616)",2011-04-08
04/08/2011,Completed,02/16/2012,11-00698261,Tree Trim,Alley,6345 S EBERHART AVE,60637.0,1180669.82188935,1863047.08431293,20.0,3.0,42.0,41.779456492405735,-87.61318761206104,"(41.779456492405735, -87.61318761206105)",2011-04-08
04/08/2011,Completed,02/16/2012,11-00698333,Tree Trim,Parkway,1417 W GEORGE ST,60657.0,1166359.71369073,1919356.31101742,32.0,19.0,6.0,41.934290945262106,-87.66404086292604,"(41.93429094526211, -87.66404086292604)",2011-04-08
04/08/2011,Completed,03/01/2012,11-00701100,Tree Trim,Parkway,3109 W ARTHUR AVE,60645.0,1154396.64637758,1942937.46387195,50.0,24.0,2.0,41.999246908205365,-87.70737195850971,"(41.999246908205365, -87.70737195850971)",2011-04-08
04/08/2011,Completed,04/08/2011,11-00699249,Tree Trim,,322 W 30TH ST,60616.0,1174541.2226671998,1884940.28507181,11.0,21.0,34.0,41.839672171410015,-87.63500343556184,"(41.839672171410015, -87.63500343556184)",2011-04-08
04/08/2011,Completed,04/08/2011,11-00699578,Tree Trim,,8558 S CHAPPEL AVE,60617.0,1191334.72478494,1848630.24007821,8.0,4.0,45.0,41.739643742534426,-87.57455565416137,"(41.73964374253442, -87.57455565416137)",2011-04-08
04/08/2011,Completed,04/09/2012,11-00703090,Tree Trim,Parkway,2800 W FITCH AVE,60645.0,1156441.10481141,1947296.28880329,50.0,24.0,2.0,42.01116642943417,-87.69973226750744,"(42.011166429434184, -87.69973226750744)",2011-04-08
04/08/2011,Completed,04/13/2011,11-00701084,Tree Trim,Parkway,3639 N BERNARD ST,60618.0,1152742.16000441,1923983.84001093,35.0,17.0,16.0,41.94727004872411,-87.71396249614777,"(41.947270048724114, -87.71396249614777)",2011-04-08
04/08/2011,Completed,04/13/2011,11-00701091,Tree Trim,Parkway,3641 N BERNARD ST,60618.0,1152741.76000441,1923997.24001093,35.0,17.0,16.0,41.94730682723327,-87.71396361052149,"(41.94730682723327, -87.71396361052149)",2011-04-08
04/08/2011,Completed,04/13/2011,11-00701097,Tree Trim,Parkway,3645 N BERNARD ST,60618.0,1152741.06000441,1924024.14001093,35.0,17.0,16.0,41.94738065667521,-87.71396546903969,"(41.9473806566752, -87.71396546903969)",2011-04-08
04/08/2011,Completed,04/25/2011,11-00693753,Tree Trim,Parkway,244 W 108TH ST,60628.0,1176569.38287317,1833321.78779423,34.0,5.0,49.0,41.69797979343992,-87.62911193197098,"(41.69797979343992, -87.62911193197098)",2011-04-08
04/08/2011,Completed,04/25/2011,11-00700584,Tree Trim,Parkway,2607 W 80TH PL,60652.0,1160334.02002753,1851164.28492999,18.0,8.0,70.0,41.747291489500654,-87.68806794700967,"(41.747291489500654, -87.68806794700967)",2011-04-08
04/08/2011,Completed,04/29/2011,11-00700565,Tree Trim,Alley,7410 N TALMAN AVE,60645.0,1157413.39002424,1949090.38570012,50.0,24.0,2.0,42.01606968561868,-87.69610568179883,"(42.016069685618675, -87.69610568179883)",2011-04-08
04/08/2011,Completed,05/11/2011,11-00696548,Tree Trim,Alley,4129 W WEST END AVE,60624.0,1148838.01672492,1900653.45290973,28.0,11.0,26.0,41.883325751634345,-87.72891755918249,"(41.883325751634345, -87.72891755918248)",2011-04-08
