,Creation Date,Status,Completion Date,Service Request Number,Type of Service Request,Street Address,ZIP Code,X Coordinate,Y Coordinate,Ward,Police District,Community Area,Latitude,Longitude,Location,date
71740,05/01/2013,Completed - Dup,05/01/2013,13-00514219,Alley Light Out,12130 S LAFAYETTE AVE,60628.0,1178110.6855844,1824507.92750423,9.0,5.0,53.0,41.67375853545743,-87.62373433310415,"(41.67375853545743, -87.62373433310415)",2013-05-01
71741,05/01/2013,Completed - Dup,05/01/2013,13-00516162,Alley Light Out,4130 N AVERS AVE,60618.0,1149986.06426664,1927140.73988106,39.0,17.0,16.0,41.95598702655909,-87.72401074262825,"(41.95598702655909, -87.72401074262825)",2013-05-01
71742,05/01/2013,Completed - Dup,05/01/2013,13-00517320,Alley Light Out,3941 W 57TH PL,60629.0,1151077.0568996,1866182.86460372,13.0,8.0,62.0,41.78869040797057,-87.72159705337933,"(41.78869040797057, -87.72159705337933)",2013-05-01
71743,05/01/2013,Completed - Dup,05/01/2013,13-00519476,Alley Light Out,431 E 91ST ST,60619.0,1180715.98557255,1844736.94620807,6.0,6.0,44.0,41.72921041701713,-87.61357995219187,"(41.729210417017136, -87.61357995219187)",2013-05-01
71744,05/01/2013,Completed - Dup,05/01/2013,13-00519872,Alley Light Out,10312 S GREEN BAY AVE,60617.0,1200506.31000181,1837171.95259254,10.0,4.0,52.0,41.70797448931089,-87.54133937358027,"(41.70797448931089, -87.54133937358027)",2013-05-01
71745,05/01/2013,Completed,05/01/2013,13-00519425,Alley Light Out,7606 W SCHOOL ST,60634.0,1124779.23167136,1921008.45289892,36.0,16.0,17.0,41.939613699109174,-87.81681463514629,"(41.939613699109174, -87.8168146351463)",2013-05-01
71817,05/01/2013,Completed - Dup,05/02/2013,13-00515955,Alley Light Out,5417 S DREXEL AVE,60615.0,1183154.14450801,1869594.37009008,5.0,2.0,41.0,41.79736536122839,-87.60387624794559,"(41.79736536122838, -87.6038762479456)",2013-05-01
71818,05/01/2013,Completed - Dup,05/02/2013,13-00516779,Alley Light Out,3124 N RUTHERFORD AVE,60634.0,1130875.39347712,1920022.29582372,36.0,25.0,18.0,41.93680458866049,-87.7944317620034,"(41.936804588660486, -87.79443176200341)",2013-05-01
71819,05/01/2013,Completed - Dup,05/02/2013,13-00519884,Alley Light Out,5648 S HOYNE AVE,60636.0,1163325.58191986,1867181.34072139,15.0,7.0,67.0,41.79118242392211,-87.67665785638674,"(41.79118242392211, -87.67665785638674)",2013-05-01
71820,05/01/2013,Completed,05/02/2013,13-00514346,Alley Light Out,7624 W SCHOOL ST,60634.0,1124585.98208473,1921001.92300354,36.0,16.0,17.0,41.93959897327064,-87.81752504541288,"(41.93959897327064, -87.81752504541289)",2013-05-01
71821,05/01/2013,Completed,05/02/2013,13-00514939,Alley Light Out,4617 N LOWELL AVE,60630.0,1146417.05283162,1930377.9738221,45.0,17.0,16.0,41.96493913516178,-87.7370485744679,"(41.96493913516178, -87.7370485744679)",2013-05-01
71822,05/01/2013,Completed,05/02/2013,13-00515462,Alley Light Out,5045 N MASON AVE,60630.0,1135527.84759021,1933309.8680023998,45.0,16.0,11.0,41.97318549428857,-87.7770160608777,"(41.97318549428857, -87.7770160608777)",2013-05-01
71823,05/01/2013,Completed,05/02/2013,13-00515932,Alley Light Out,3700 W MARQUETTE RD,60629.0,1152860.27632663,1859926.61909553,13.0,8.0,65.0,41.77148730505928,-87.71522344285285,"(41.771487305059274, -87.71522344285285)",2013-05-01
71824,05/01/2013,Completed,05/02/2013,13-00515939,Alley Light Out,3945 W 60TH ST,60629.0,1151095.00027115,1864523.07999926,13.0,8.0,65.0,41.784135353060776,-87.7215745624396,"(41.78413535306078, -87.72157456243959)",2013-05-01
71825,05/01/2013,Completed,05/02/2013,13-00515943,Alley Light Out,3124 N RUTHERFORD AVE,60634.0,1130875.39347712,1920022.29582372,36.0,25.0,18.0,41.93680458866049,-87.7944317620034,"(41.936804588660486, -87.79443176200341)",2013-05-01
71826,05/01/2013,Completed,05/02/2013,13-00516764,Alley Light Out,2544 W CARMEN AVE,60625.0,1158399.23951019,1933777.77429238,40.0,20.0,4.0,41.97403108939303,-87.69289945771506,"(41.97403108939303, -87.69289945771504)",2013-05-01
71827,05/01/2013,Completed,05/02/2013,13-00519262,Alley Light Out,2943 S CANAL ST,60616.0,1173768.12008308,1885421.00788968,11.0,9.0,60.0,41.841008527843144,-87.63782607735138,"(41.84100852784315, -87.63782607735138)",2013-05-01
71828,05/01/2013,Completed,05/02/2013,13-00520054,Alley Light Out,3343 W FLOURNOY ST,60624.0,1154187.56769443,1896834.46279828,24.0,11.0,27.0,41.872740977366256,-87.70937548725273,"(41.87274097736626, -87.70937548725274)",2013-05-01
71829,05/02/2013,Completed - Dup,05/02/2013,13-00520296,Alley Light Out,5729 S MEADE AVE,60638.0,1136694.41037264,1865938.36093059,23.0,8.0,56.0,41.788288164416535,-87.77433991482195,"(41.78828816441653, -87.77433991482195)",2013-05-02
71830,05/02/2013,Completed - Dup,05/02/2013,13-00523212,Alley Light Out,6129 S PARKSIDE AVE,60638.0,1139784.37793239,1863361.70916562,13.0,8.0,64.0,41.78116169171236,-87.76307260916599,"(41.78116169171236, -87.763072609166)",2013-05-02
71831,05/02/2013,Completed - Dup,05/02/2013,13-00525189,Alley Light Out,2922 W 40TH PL,60632.0,1157433.41008811,1877649.12589927,14.0,9.0,58.0,41.820028884109846,-87.69797958142216,"(41.82002888410984, -87.69797958142215)",2013-05-02
71832,05/02/2013,Completed - Dup,05/02/2013,13-00525874,Alley Light Out,8213 S TALMAN AVE,60652.0,1160136.12077264,1850011.97970887,18.0,8.0,70.0,41.744133454119,-87.68882473679268,"(41.744133454119, -87.68882473679267)",2013-05-02
71833,05/02/2013,Completed,05/02/2013,13-00520625,Alley Light Out,7324 N HONORE ST,60626.0,1162690.16002241,1948419.64827172,49.0,24.0,1.0,42.01411973257827,-87.67670773070319,"(42.01411973257827, -87.67670773070319)",2013-05-02
71834,05/02/2013,Completed,05/02/2013,13-00524321,Alley Light Out,7121 S CONSTANCE AVE,60649.0,1189607.23399564,1858020.22007812,5.0,3.0,43.0,41.765452312605184,-87.58058381234062,"(41.76545231260519, -87.58058381234063)",2013-05-02
71835,05/02/2013,Completed,05/02/2013,13-00525377,Alley Light Out,6755 S WABASH AVE,60637.0,1177888.81692288,1860235.80762346,20.0,3.0,69.0,41.7718055121847,-87.62346809078444,"(41.7718055121847, -87.62346809078443)",2013-05-02
71836,05/02/2013,Completed,05/02/2013,13-00525384,Alley Light Out,7601 S PRAIRIE AVE,60619.0,1179351.7418183999,1854673.54231496,6.0,6.0,69.0,41.75650880012827,-87.61827501672737,"(41.75650880012827, -87.61827501672737)",2013-05-02
71837,05/02/2013,Completed,05/02/2013,13-00526016,Alley Light Out,2901 W SHERWIN AVE,60645.0,1155799.84751035,1948593.70221989,50.0,24.0,2.0,42.01473957709678,-87.70205651996649,"(42.01473957709678, -87.70205651996649)",2013-05-02
71873,05/01/2013,Completed - Dup,05/03/2013,13-00520140,Alley Light Out,2177 N MAPLEWOOD AVE,60647.0,1158953.44098132,1914539.95002977,1.0,14.0,22.0,41.921229944525855,-87.69139134343881,"(41.92122994452585, -87.69139134343882)",2013-05-01
71874,05/01/2013,Completed,05/03/2013,13-00517291,Alley Light Out,1300 N HOYNE AVE,60622.0,1162165.79513009,1908635.19816931,32.0,14.0,24.0,41.90496029233097,-87.67975371598983,"(41.90496029233097, -87.67975371598983)",2013-05-01
71875,05/01/2013,Completed,05/03/2013,13-00517728,Alley Light Out,8300 S MAY ST,60620.0,1170098.85461678,1849760.41487464,21.0,6.0,71.0,41.74323256083903,-87.65232748957068,"(41.743232560839026, -87.65232748957067)",2013-05-01
71876,05/01/2013,Completed,05/03/2013,13-00519848,Alley Light Out,8344 S HOYNE AVE,60620.0,1163810.67529588,1849299.2591869999,18.0,6.0,71.0,41.742101329112295,-87.67538069086862,"(41.74210132911229, -87.67538069086862)",2013-05-01
71877,05/01/2013,Completed,05/03/2013,13-00519886,Alley Light Out,5041 S KENNETH AVE,60632.0,1147547.05989368,1870824.17453041,23.0,8.0,57.0,41.80149508241581,-87.7344219075532,"(41.801495082415805, -87.73442190755318)",2013-05-01
71878,05/01/2013,Completed,05/03/2013,13-00520168,Alley Light Out,2039 W AUGUSTA BLVD,60622.0,1162626.03568166,1906661.61907919,32.0,12.0,24.0,41.89953500762711,-87.67811848396515,"(41.89953500762711, -87.67811848396516)",2013-05-01
71879,05/01/2013,Completed,05/03/2013,13-00520189,Alley Light Out,6059 S WASHTENAW AVE,60629.0,1159414.0088076,1864365.14850504,15.0,8.0,66.0,41.78353549788032,-87.69107797048927,"(41.783535497880315, -87.69107797048927)",2013-05-01
71880,05/02/2013,Completed - Dup,05/03/2013,13-00525768,Alley Light Out,1940 W RACE AVE,60622.0,1163368.54359913,1903764.7332106999,1.0,12.0,24.0,41.891570135813176,-87.6754728456517,"(41.89157013581317, -87.67547284565171)",2013-05-02
71881,05/02/2013,Completed - Dup,05/03/2013,13-00525987,Alley Light Out,6831 S WASHTENAW AVE,60629.0,1159553.25633161,1859240.52057783,15.0,8.0,66.0,41.769469933305025,-87.69070783965788,"(41.76946993330502, -87.69070783965788)",2013-05-02
71882,05/02/2013,Completed,05/03/2013,13-00520474,Alley Light Out,410 N TRUMBULL AVE,60624.0,1153310.28001952,1902564.66832524,27.0,11.0,23.0,41.88848271272704,-87.71244422834458,"(41.88848271272704, -87.71244422834458)",2013-05-02
71883,05/02/2013,Completed,05/03/2013,13-00521770,Alley Light Out,4901 N TRIPP AVE,60630.0,1147165.23579307,1932232.46719554,39.0,17.0,14.0,41.97001368073273,-87.73424998957105,"(41.97001368073273, -87.73424998957105)",2013-05-02
71884,05/02/2013,Completed,05/03/2013,13-00522717,Alley Light Out,4808 S SEELEY AVE,60609.0,1163503.21017487,1872774.61333367,12.0,9.0,61.0,41.80652733127782,-87.67584965742996,"(41.80652733127782, -87.67584965742995)",2013-05-02
71885,05/02/2013,Completed,05/03/2013,13-00522936,Alley Light Out,3576 W DICKENS AVE,60647.0,1152208.38829612,1913722.0118288002,26.0,14.0,22.0,41.91912133074514,-87.71619602668903,"(41.91912133074514, -87.71619602668903)",2013-05-02
71886,05/02/2013,Completed,05/03/2013,13-00523316,Alley Light Out,11525 S AVENUE G,60617.0,1203226.5493790002,1829161.34142989,10.0,4.0,52.0,41.685923609880774,-87.53165103729931,"(41.68592360988077, -87.53165103729931)",2013-05-02
71887,05/02/2013,Completed,05/03/2013,13-00524188,Alley Light Out,1227 S KEDVALE AVE,60623.0,1148909.65002302,1894202.07113273,24.0,10.0,29.0,41.865621030584975,-87.72882136128506,"(41.86562103058498, -87.72882136128507)",2013-05-02
71888,05/02/2013,Completed,05/03/2013,13-00525190,Alley Light Out,4016 S FRANCISCO AVE,60632.0,1157685.44623195,1877809.27268498,14.0,9.0,58.0,41.82046322908784,-87.69705064701034,"(41.82046322908784, -87.69705064701034)",2013-05-02
71889,05/02/2013,Completed,05/03/2013,13-00525345,Alley Light Out,650 N LEAMINGTON AVE,60644.0,1141921.47543187,1903518.26639425,28.0,15.0,25.0,41.891318014705746,-87.7542448685149,"(41.89131801470575, -87.7542448685149)",2013-05-02
71890,05/02/2013,Completed,05/03/2013,13-00525351,Alley Light Out,747 N LEAMINGTON AVE,60644.0,1141888.74768267,1904470.26162274,28.0,15.0,25.0,41.893931009354866,-87.75434147098301,"(41.893931009354866, -87.754341470983)",2013-05-02
71891,05/02/2013,Completed,05/03/2013,13-00525359,Alley Light Out,432 N LEAMINGTON AVE,60644.0,1141958.28001973,1902421.86972341,28.0,15.0,25.0,41.88830868825272,-87.75413688026842,"(41.88830868825272, -87.75413688026842)",2013-05-02
71892,05/02/2013,Completed,05/03/2013,13-00525558,Alley Light Out,3342 S PARNELL AVE,60616.0,1173175.42273108,1882741.18230175,11.0,9.0,60.0,41.833668008410676,-87.64008041668112,"(41.83366800841068, -87.64008041668113)",2013-05-02
71893,05/02/2013,Completed,05/03/2013,13-00525915,Alley Light Out,2851 W LUNT AVE,60645.0,1156104.6743863998,1946298.66126824,50.0,24.0,2.0,42.0084357295716,-87.70099725042722,"(42.0084357295716, -87.70099725042722)",2013-05-02
71894,05/02/2013,Completed,05/03/2013,13-00525945,Alley Light Out,6830 N OTTAWA AVE,60631.0,1124311.73112862,1944702.06128764,41.0,16.0,9.0,42.00463929758846,-87.81800906098788,"(42.00463929758846, -87.81800906098788)",2013-05-02
71895,05/03/2013,Completed - Dup,05/03/2013,13-00526714,Alley Light Out,5417 S DREXEL AVE,60615.0,1183154.14450801,1869594.37009008,5.0,2.0,41.0,41.79736536122839,-87.60387624794559,"(41.79736536122838, -87.6038762479456)",2013-05-03
71896,05/03/2013,Completed - Dup,05/03/2013,13-00527923,Alley Light Out,6129 S PARKSIDE AVE,60638.0,1139784.37793239,1863361.70916562,13.0,8.0,64.0,41.78116169171236,-87.76307260916599,"(41.78116169171236, -87.763072609166)",2013-05-03
71897,05/03/2013,Completed - Dup,05/03/2013,13-00531473,Alley Light Out,2923 W 40TH ST,60632.0,1157523.49512846,1877981.16056891,14.0,9.0,58.0,41.82093820040199,-87.69764009658634,"(41.82093820040199, -87.69764009658634)",2013-05-03
71898,05/03/2013,Completed,05/03/2013,13-00526803,Alley Light Out,8159 S ST LAWRENCE AVE,60619.0,1181654.44919563,1851029.36898101,6.0,6.0,44.0,41.74645596281228,-87.6099484015759,"(41.74645596281228, -87.6099484015759)",2013-05-03
71899,05/03/2013,Completed,05/03/2013,13-00527100,Alley Light Out,8001 S INDIANA AVE,60619.0,1178980.18720112,1852002.96567293,6.0,6.0,44.0,41.74918890117495,-87.61971786037924,"(41.749188901174946, -87.61971786037924)",2013-05-03
71900,05/03/2013,Completed,05/03/2013,13-00527132,Alley Light Out,8100 S COTTAGE GROVE AVE,60619.0,1182964.33602243,1851467.28347335,6.0,6.0,44.0,41.747627328567475,-87.60513513829477,"(41.747627328567475, -87.60513513829476)",2013-05-03
71901,05/03/2013,Completed,05/03/2013,13-00527140,Alley Light Out,7989 S COTTAGE GROVE,,,,8.0,6.0,44.0,,,,2013-05-03
71906,05/01/2013,Completed - Dup,05/04/2013,13-00514970,Alley Light Out,8614 S BISHOP ST,60620.0,1168169.43418968,1847622.91189484,21.0,6.0,71.0,41.737408631040495,-87.65945831821796,"(41.73740863104049, -87.65945831821797)",2013-05-01
71907,05/01/2013,Completed - Dup,05/04/2013,13-00515522,Alley Light Out,4546 S SPRINGFIELD AVE,60632.0,1151117.02538696,1874212.42357784,14.0,8.0,57.0,41.81072392177299,-87.72124085117504,"(41.81072392177299, -87.72124085117505)",2013-05-01
71908,05/01/2013,Completed - Dup,05/04/2013,13-00519876,Alley Light Out,1110 N MONTICELLO AVE,60651.0,1151839.63388383,1907153.5223273998,27.0,11.0,23.0,41.90110406068385,-87.71772409284544,"(41.90110406068385, -87.71772409284543)",2013-05-01
71909,05/02/2013,Completed - Dup,05/04/2013,13-00521933,Alley Light Out,5818 S MENARD AVE,60638.0,1138711.03390763,1865410.49787711,23.0,8.0,56.0,41.786803397747995,-87.76695831995359,"(41.786803397748, -87.7669583199536)",2013-05-02
71910,05/03/2013,Completed - Dup,05/04/2013,13-00527937,Alley Light Out,6226 S NASHVILLE AVE,60638.0,1133481.55168094,1862516.87646713,23.0,8.0,64.0,41.77895569071283,-87.78620034597803,"(41.778955690712834, -87.78620034597803)",2013-05-03
71911,05/03/2013,Completed - Dup,05/04/2013,13-00527948,Alley Light Out,5732 S MCVICKER AVE,60638.0,1137027.52730379,1865929.37890852,23.0,8.0,56.0,41.78825756633332,-87.77311869007502,"(41.78825756633332, -87.77311869007501)",2013-05-03
71912,05/04/2013,Completed - Dup,05/04/2013,13-00532255,Alley Light Out,2648 E 93RD ST,60617.0,1195571.61060267,1843812.91477567,7.0,4.0,48.0,41.726321031106295,-87.55919141162424,"(41.726321031106295, -87.55919141162425)",2013-05-04
71913,05/04/2013,Completed - Dup,05/04/2013,13-00532310,Alley Light Out,2648 E 93RD ST,60617.0,1195571.61060267,1843812.91477567,7.0,4.0,48.0,41.726321031106295,-87.55919141162424,"(41.726321031106295, -87.55919141162425)",2013-05-04
71914,05/05/2013,Completed,05/05/2013,13-00533675,Alley Light Out,4506 W WELLINGTON AVE,60641.0,1145792.0382794,1919563.97048389,31.0,25.0,20.0,41.93527650834156,-87.73962205172586,"(41.93527650834156, -87.73962205172586)",2013-05-05
71915,05/03/2013,Completed,05/05/2013,13-00531009,Alley Light Out,4629 S ST LAWRENCE AVE,60653.0,1181040.77118832,1874346.85989988,4.0,2.0,38.0,41.81045554404607,-87.61147982621608,"(41.81045554404607, -87.61147982621608)",2013-05-03
71983,05/01/2013,Completed - Dup,05/06/2013,13-00514923,Alley Light Out,8217 S TALMAN AVE,60652.0,1160137.37592228,1849965.94988675,18.0,8.0,70.0,41.74400711526013,-87.68882140099629,"(41.744007115260125, -87.68882140099628)",2013-05-01
71984,05/01/2013,Completed - Dup,05/06/2013,13-00516790,Alley Light Out,9810 S PEORIA ST,60643.0,1172045.44779003,1839710.29787101,21.0,22.0,73.0,41.71561113956881,-87.64548934981136,"(41.71561113956881, -87.64548934981136)",2013-05-01
71985,05/01/2013,Completed,05/06/2013,13-00514379,Alley Light Out,7521 S EBERHART AVE,60619.0,1180877.56269711,1855253.35759596,6.0,6.0,69.0,41.758064937768175,-87.61266542580832,"(41.75806493776817, -87.61266542580832)",2013-05-01
71986,05/01/2013,Completed,05/06/2013,13-00514854,Alley Light Out,122 S MICHIGAN AVE,60603.0,1177324.19101512,1899857.84636756,42.0,1.0,32.0,41.88054438573649,-87.62433921558781,"(41.880544385736485, -87.62433921558781)",2013-05-01
71987,05/02/2013,Completed - Dup,05/06/2013,13-00525819,Alley Light Out,8632 S ELIZABETH ST,60620.0,1169499.09600153,1847538.53561452,21.0,6.0,71.0,41.7371484170266,-87.6545892454122,"(41.737148417026596, -87.6545892454122)",2013-05-02
71988,05/02/2013,Completed - Dup,05/06/2013,13-00526089,Alley Light Out,7521 S EBERHART AVE,60619.0,1180877.56269711,1855253.35759596,6.0,6.0,69.0,41.758064937768175,-87.61266542580832,"(41.75806493776817, -87.61266542580832)",2013-05-02
71989,05/02/2013,Completed,05/06/2013,13-00521993,Alley Light Out,6922 S DR MARTIN LUTHER KING JR DR,60637.0,1180113.67760927,1859208.73059068,6.0,3.0,69.0,41.76893642606557,-87.61534396355525,"(41.76893642606557, -87.61534396355523)",2013-05-02
71990,05/02/2013,Completed,05/06/2013,13-00522234,Alley Light Out,5659 W CORNELIA AVE,60634.0,1138010.52811664,1922702.93366709,38.0,16.0,15.0,41.94403446250272,-87.7681437995502,"(41.944034462502714, -87.7681437995502)",2013-05-02
71991,05/02/2013,Completed,05/06/2013,13-00522254,Alley Light Out,5700 W WAVELAND AVE,60634.0,1137698.69260428,1924027.49889687,38.0,16.0,15.0,41.94767483984043,-87.76925794440571,"(41.94767483984043, -87.7692579444057)",2013-05-02
71992,05/02/2013,Completed,05/06/2013,13-00522533,Alley Light Out,2109 N CENTRAL PARK AVE,60647.0,1152033.28829612,1913821.6118288003,26.0,14.0,22.0,41.919398097810614,-87.71683673807631,"(41.919398097810614, -87.71683673807632)",2013-05-02
71993,05/02/2013,Completed,05/06/2013,13-00522796,Alley Light Out,3309 W LAKE ST,60624.0,1154254.25129667,1901125.2293248002,28.0,11.0,27.0,41.88451395361628,-87.70901606559728,"(41.88451395361628, -87.70901606559728)",2013-05-02
71994,05/03/2013,Completed - Dup,05/06/2013,13-00528684,Alley Light Out,6511 W BLOOMINGDALE AVE,60707.0,1132529.20261028,1911260.73253014,36.0,25.0,25.0,41.91273311843175,-87.7885582493166,"(41.91273311843175, -87.7885582493166)",2013-05-03
71995,05/03/2013,Completed - Dup,05/06/2013,13-00531524,Alley Light Out,8632 S ELIZABETH ST,60620.0,1169499.09600153,1847538.53561452,21.0,6.0,71.0,41.7371484170266,-87.6545892454122,"(41.737148417026596, -87.6545892454122)",2013-05-03
71996,05/03/2013,Completed,05/06/2013,13-00526239,Alley Light Out,4040 W AINSLIE ST,60630.0,1148458.52496997,1932253.02580701,39.0,17.0,14.0,41.97004518061446,-87.72949393717352,"(41.97004518061446, -87.72949393717352)",2013-05-03
71997,05/03/2013,Completed,05/06/2013,13-00529888,Alley Light Out,829 N MAY ST,60642.0,1168858.19819763,1905823.53952353,27.0,12.0,24.0,41.89710237127081,-87.65525221621691,"(41.89710237127081, -87.65525221621691)",2013-05-03
71998,05/03/2013,Completed,05/06/2013,13-00531342,Alley Light Out,1944 N OAK PARK AVE,60707.0,1130774.57791743,1912182.95077413,36.0,25.0,25.0,41.915294204956616,-87.79498316565923,"(41.91529420495662, -87.79498316565923)",2013-05-03
71999,05/03/2013,Completed,05/06/2013,13-00531466,Alley Light Out,4161 W NELSON ST,60641.0,1147962.58857482,1919950.89987118,31.0,25.0,21.0,41.93629675143421,-87.73163512607212,"(41.93629675143422, -87.73163512607212)",2013-05-03
72000,05/03/2013,Completed,05/06/2013,13-00531598,Alley Light Out,3453 N MARSHFIELD AVE,60657.0,1164707.71279654,1922991.96238811,32.0,19.0,6.0,41.94430259486721,-87.67000854229818,"(41.94430259486721, -87.67000854229819)",2013-05-03
72001,05/03/2013,Completed,05/06/2013,13-00531617,Alley Light Out,6038 N KILBOURN AVE,60646.0,1145430.56751435,1939677.50578616,39.0,17.0,12.0,41.990476500369894,-87.7404390125013,"(41.99047650036989, -87.7404390125013)",2013-05-03
72002,05/03/2013,Completed,05/06/2013,13-00531624,Alley Light Out,6025 N LAWNDALE AVE,60659.0,1150614.68996863,1939782.9015759998,50.0,17.0,13.0,41.99066564360759,-87.72136775270205,"(41.990665643607585, -87.72136775270205)",2013-05-03
72003,05/04/2013,Completed - Dup,05/06/2013,13-00531854,Alley Light Out,7521 S EBERHART AVE,60619.0,1180877.56269711,1855253.35759596,6.0,6.0,69.0,41.758064937768175,-87.61266542580832,"(41.75806493776817, -87.61266542580832)",2013-05-04
72004,05/04/2013,Completed - Dup,05/06/2013,13-00533157,Alley Light Out,7521 S EBERHART AVE,60619.0,1180877.56269711,1855253.35759596,6.0,6.0,69.0,41.758064937768175,-87.61266542580832,"(41.75806493776817, -87.61266542580832)",2013-05-04
72005,05/04/2013,Completed - Dup,05/06/2013,13-00533311,Alley Light Out,1509 W OHIO ST,60642.0,1166026.37803398,1904105.93576872,26.0,12.0,24.0,41.89245008794892,-87.66570212671459,"(41.892450087948916, -87.6657021267146)",2013-05-04
72006,05/04/2013,Completed,05/06/2013,13-00532357,Alley Light Out,4618 W MCLEAN AVE,60639.0,1145119.82358735,1913220.70013346,31.0,25.0,19.0,41.9178827059203,-87.74225319630564,"(41.9178827059203, -87.74225319630564)",2013-05-04
72007,05/04/2013,Completed,05/06/2013,13-00533309,Alley Light Out,1509 W OHIO ST,60642.0,1166026.37803398,1904105.93576872,26.0,12.0,24.0,41.89245008794892,-87.66570212671459,"(41.892450087948916, -87.6657021267146)",2013-05-04
72008,05/04/2013,Completed,05/06/2013,13-00533310,Alley Light Out,1507 W OHIO ST,60642.0,1166035.37803398,1904106.23576872,26.0,12.0,24.0,41.89245071900047,-87.66566906496277,"(41.892450719000465, -87.66566906496277)",2013-05-04
72009,05/05/2013,Completed - Dup,05/06/2013,13-00534714,Alley Light Out,6623 S KEATING AVE,60629.0,1145853.90439463,1860267.30840562,13.0,8.0,64.0,41.77255752308339,-87.74089820828947,"(41.77255752308339, -87.74089820828947)",2013-05-05
72010,05/05/2013,Completed,05/06/2013,13-00533549,Alley Light Out,653 N WESTERN AVE,60612.0,1160287.73401286,1904366.43470196,1.0,12.0,24.0,41.89328551531565,-87.6867705850078,"(41.89328551531565, -87.68677058500779)",2013-05-05
72011,05/05/2013,Completed,05/06/2013,13-00534259,Alley Light Out,7521 S RHODES AVE,60619.0,1181206.95780565,1855264.10541988,6.0,6.0,69.0,41.75808685244445,-87.61145790775569,"(41.75808685244445, -87.6114579077557)",2013-05-05
72012,05/05/2013,Completed,05/06/2013,13-00534635,Alley Light Out,2130 N LAWLER AVE,60639.0,1142376.32972784,1913693.7421256,31.0,25.0,19.0,41.919232228313604,-87.75232127049975,"(41.919232228313604, -87.75232127049975)",2013-05-05
72013,05/05/2013,Completed,05/06/2013,13-00534653,Alley Light Out,8344 S HOYNE AVE,60620.0,1163810.67529588,1849299.2591869999,18.0,6.0,71.0,41.742101329112295,-87.67538069086862,"(41.74210132911229, -87.67538069086862)",2013-05-05
72014,05/05/2013,Completed,05/06/2013,13-00534715,Alley Light Out,5300 S UNIVERSITY AVE,60615.0,1184701.41192996,1870363.75436766,4.0,2.0,41.0,41.799440442263034,-87.59817814918972,"(41.79944044226303, -87.59817814918972)",2013-05-05
72015,05/06/2013,Completed - Dup,05/06/2013,13-00535306,Alley Light Out,4343 W 83RD ST,60652.0,1148799.52009022,1849161.92721116,18.0,8.0,70.0,41.74202625400638,-87.73038555920755,"(41.74202625400638, -87.73038555920755)",2013-05-06
72016,05/06/2013,Completed - Dup,05/06/2013,13-00535848,Alley Light Out,10625 S PEORIA ST,60643.0,1172199.65368851,1834377.40433037,34.0,22.0,73.0,41.700973499076134,-87.64508068298899,"(41.70097349907613, -87.64508068298898)",2013-05-06
72017,05/06/2013,Completed - Dup,05/06/2013,13-00536241,Alley Light Out,3621 W 61ST ST,60629.0,1153236.01337357,1863921.89750418,13.0,8.0,65.0,41.78244354785696,-87.71374058359879,"(41.78244354785696, -87.71374058359878)",2013-05-06
72018,05/06/2013,Completed - Dup,05/06/2013,13-00536279,Alley Light Out,7612 S WINCHESTER AVE,60620.0,1164676.90090594,1854185.5034315,18.0,6.0,71.0,41.75549167689718,-87.6720692484662,"(41.75549167689718, -87.6720692484662)",2013-05-06
72019,05/06/2013,Completed - Dup,05/06/2013,13-00536598,Alley Light Out,13515 S AVENUE K,60633.0,1202425.85677812,1815973.2173026002,10.0,4.0,55.0,41.64975448136621,-87.53502934989594,"(41.64975448136621, -87.53502934989594)",2013-05-06
72020,05/06/2013,Completed - Dup,05/06/2013,13-00536665,Alley Light Out,8217 S TALMAN AVE,60652.0,1160137.37592228,1849965.94988675,18.0,8.0,70.0,41.74400711526013,-87.68882140099629,"(41.744007115260125, -87.68882140099628)",2013-05-06
72021,05/06/2013,Completed - Dup,05/06/2013,13-00536854,Alley Light Out,13515 S AVENUE K,60633.0,1202425.85677812,1815973.2173026002,10.0,4.0,55.0,41.64975448136621,-87.53502934989594,"(41.64975448136621, -87.53502934989594)",2013-05-06
72022,05/06/2013,Completed - Dup,05/06/2013,13-00537725,Alley Light Out,8228 S RICHMOND ST,60652.0,1158143.27407082,1849915.11988068,18.0,8.0,70.0,41.74390838264921,-87.69612941829847,"(41.74390838264921, -87.69612941829847)",2013-05-06
72023,05/06/2013,Completed - Dup,05/06/2013,13-00537831,Alley Light Out,8232 S RICHMOND ST,60652.0,1158143.97407082,1849888.21988068,18.0,8.0,70.0,41.743834550492004,-87.69612758327827,"(41.743834550492004, -87.69612758327828)",2013-05-06
72024,05/06/2013,Completed - Dup,05/06/2013,13-00538714,Alley Light Out,3231 S HARDING AVE,60623.0,1150556.47023153,1882883.95341441,22.0,10.0,30.0,41.83453072916527,-87.72307102284613,"(41.83453072916527, -87.72307102284613)",2013-05-06
72025,05/06/2013,Completed - Dup,05/06/2013,13-00539257,Alley Light Out,5748 S MASSASOIT AVE,60638.0,1139027.02019602,1865887.88672513,23.0,8.0,56.0,41.7881077186507,-87.76578816740442,"(41.7881077186507, -87.76578816740442)",2013-05-06
72026,05/06/2013,Completed,05/06/2013,13-00535821,Alley Light Out,3456 S MICHIGAN AVE,60616.0,1177761.02372042,1882113.37199851,3.0,2.0,35.0,41.831842463558814,-87.62327404312053,"(41.831842463558814, -87.62327404312053)",2013-05-06
72027,05/06/2013,Completed,05/06/2013,13-00535826,Alley Light Out,845 S STATE ST,60605.0,1176488.31219525,1896455.79297277,2.0,1.0,32.0,41.87122785772653,-87.6275111759322,"(41.871227857726524, -87.62751117593221)",2013-05-06
72028,05/06/2013,Completed,05/06/2013,13-00535832,Alley Light Out,8401 S WABASH AVE,60619.0,1178174.32132755,1849317.71319941,6.0,6.0,44.0,41.74183855217834,-87.6227521032272,"(41.74183855217834, -87.62275210322721)",2013-05-06
72029,05/06/2013,Completed,05/06/2013,13-00535845,Alley Light Out,8415 S PRAIRIE AVE,60619.0,1179499.81001689,1849262.44073214,6.0,6.0,44.0,41.74165674089145,-87.6178972693309,"(41.74165674089145, -87.61789726933091)",2013-05-06
72030,05/06/2013,Completed,05/06/2013,13-00535855,Alley Light Out,8556 S PRAIRIE AVE,60619.0,1179526.07266685,1848321.54870228,6.0,6.0,44.0,41.73907422257663,-87.61782970725817,"(41.73907422257663, -87.61782970725817)",2013-05-06
72031,05/06/2013,Completed,05/06/2013,13-00535863,Alley Light Out,9628 S FOREST AVE,60628.0,1179947.30372636,1841196.91242758,6.0,5.0,49.0,41.71951372470117,-87.61650379203651,"(41.719513724701166, -87.61650379203651)",2013-05-06
72032,05/06/2013,Completed,05/06/2013,13-00535868,Alley Light Out,431 E 91ST PL,60619.0,1180726.3696699,1844404.06998309,6.0,6.0,44.0,41.72829672596881,-87.61355210972162,"(41.72829672596881, -87.61355210972162)",2013-05-06
72033,05/06/2013,Completed,05/06/2013,13-00535875,Alley Light Out,530 E 92ND ST,60619.0,1181390.36660962,1844091.91360626,6.0,6.0,44.0,41.727424869139455,-87.61112937041273,"(41.727424869139455, -87.61112937041274)",2013-05-06
72034,05/06/2013,Completed,05/06/2013,13-00535899,Alley Light Out,9310 W COTTAGE PL,60607.0,,,,,,,,,2013-05-06
72035,05/06/2013,Completed,05/06/2013,13-00537385,Alley Light Out,6253 W DEVON AVE,60646.0,1133443.06000127,1942116.44731643,45.0,16.0,10.0,41.99738842803669,-87.7844749020338,"(41.997388428036686, -87.78447490203382)",2013-05-06
72036,05/06/2013,Completed,05/06/2013,13-00538245,Alley Light Out,9512 S BISHOP ST,60643.0,1168319.02660882,1841660.56289444,21.0,22.0,73.0,41.721043849160644,-87.65908136486824,"(41.72104384916065, -87.65908136486823)",2013-05-06
72037,05/06/2013,Completed,05/06/2013,13-00539497,Alley Light Out,3624 N OKETO AVE,60634.0,1126118.4162851002,1923174.2206668998,36.0,16.0,17.0,41.94553458232701,-87.81184419899164,"(41.945534582327014, -87.81184419899164)",2013-05-06
72095,05/01/2013,Completed - Dup,05/07/2013,13-00514946,Alley Light Out,1949 S SPRINGFIELD AVE,60623.0,1150709.846071,1890048.14121044,24.0,10.0,29.0,41.85418717637486,-87.72232121896437,"(41.85418717637486, -87.72232121896438)",2013-05-01
72096,05/01/2013,Completed - Dup,05/07/2013,13-00515542,Alley Light Out,8608 S KENTON AVE,60652.0,1147267.69878343,1847061.01307412,18.0,8.0,70.0,41.73629027462965,-87.73605163924046,"(41.736290274629646, -87.73605163924046)",2013-05-01
72097,05/01/2013,Completed - Dup,05/07/2013,13-00519962,Alley Light Out,13332 S MACKINAW AVE,60633.0,1200426.57542829,1817167.75058569,10.0,4.0,55.0,41.653082986875184,-87.54230392975906,"(41.65308298687519, -87.54230392975906)",2013-05-01
72098,05/01/2013,Completed,05/07/2013,13-00515426,Alley Light Out,5812 S MENARD AVE,60638.0,1138709.53390763,1865450.99787711,23.0,8.0,56.0,41.78691456399829,-87.76696284168142,"(41.78691456399829, -87.76696284168142)",2013-05-01
72099,05/01/2013,Completed,05/07/2013,13-00515950,Alley Light Out,6600 S KILPATRICK AVE,60629.0,1146183.12198186,1860430.08818071,13.0,8.0,64.0,41.77299798883159,-87.73968724988119,"(41.77299798883159, -87.73968724988119)",2013-05-01
72100,05/01/2013,Completed,05/07/2013,13-00518892,Alley Light Out,323 W 28TH PL,60616.0,1174502.319396,1885996.0409163998,11.0,9.0,34.0,41.842570118147,-87.63511469791462,"(41.842570118146995, -87.63511469791462)",2013-05-01
72101,05/01/2013,Completed,05/07/2013,13-00519981,Alley Light Out,3928 W FLOURNOY ST,60624.0,1150302.80512576,1896739.91906986,24.0,11.0,26.0,41.87255814426413,-87.72364080315128,"(41.872558144264126, -87.72364080315128)",2013-05-01
72102,05/01/2013,Completed,05/07/2013,13-00519994,Alley Light Out,6040 S PARKSIDE AVE,60638.0,1139762.45129996,1863956.07227544,13.0,8.0,64.0,41.78279312812092,-87.7631385486747,"(41.782793128120915, -87.7631385486747)",2013-05-01
72103,05/02/2013,Completed - Dup,05/07/2013,13-00522545,Alley Light Out,5618 S MONITOR AVE,60638.0,1138329.87522182,1866735.9184134998,23.0,8.0,56.0,41.79044746651783,-87.76832394361428,"(41.790447466517826, -87.76832394361428)",2013-05-02
72104,05/02/2013,Completed,05/07/2013,13-00524621,Alley Light Out,1648 W 79TH ST,60620.0,1166636.62273349,1852321.65369014,17.0,6.0,71.0,41.75033545355321,-87.6649404067894,"(41.750335453553205, -87.66494040678941)",2013-05-02
72105,05/03/2013,Completed - Dup,05/07/2013,13-00527917,Alley Light Out,6128 S CENTRAL AVE,60638.0,1140117.36219621,1863378.74013316,13.0,8.0,64.0,41.78120236134599,-87.76185137887028,"(41.78120236134599, -87.76185137887028)",2013-05-03
72106,05/03/2013,Completed - Dup,05/07/2013,13-00531180,Alley Light Out,2910 E 130TH ST,60633.0,1197536.58423121,1819363.46231514,10.0,4.0,55.0,41.65918056542965,-87.55280523577538,"(41.65918056542965, -87.55280523577537)",2013-05-03
72107,05/03/2013,Completed - Dup,05/07/2013,13-00531388,Alley Light Out,5752 S MASSASOIT AVE,60638.0,1139027.99979954,1865860.86887409,23.0,8.0,56.0,41.78803355919312,-87.7657852294497,"(41.78803355919312, -87.76578522944972)",2013-05-03
72108,05/03/2013,Completed,05/07/2013,13-00529912,Alley Light Out,5234 N LIANO AVE,60630.0,1139992.23029215,1934674.68956746,45.0,16.0,11.0,41.976849950764354,-87.7605657254497,"(41.976849950764354, -87.76056572544968)",2013-05-03
72109,05/03/2013,Completed,05/07/2013,13-00531607,Alley Light Out,7158 S RIDGELAND AVE,60649.0,1189110.18227302,1857782.5000694,5.0,3.0,43.0,41.764811910894025,-87.58241324149935,"(41.76481191089402, -87.58241324149935)",2013-05-03
72110,05/04/2013,Completed - Dup,05/07/2013,13-00532121,Alley Light Out,9247 S CONSTANCE AVE,60617.0,1190128.53511416,1844021.0695051998,8.0,4.0,48.0,41.72702482607357,-87.5791228553874,"(41.727024826073574, -87.5791228553874)",2013-05-04
72111,05/04/2013,Completed,05/07/2013,13-00531915,Alley Light Out,10716 S DREW ST,60643.0,1166925.76528263,1833635.03620836,19.0,22.0,75.0,41.699050351734364,-87.66441295636879,"(41.69905035173436, -87.66441295636879)",2013-05-04
72112,05/06/2013,Completed - Dup,05/07/2013,13-00538398,Alley Light Out,10724 S DREW ST,60643.0,1166931.96528263,1833579.93620836,19.0,22.0,75.0,41.69889901608693,-87.66439182174466,"(41.698899016086926, -87.66439182174466)",2013-05-06
72113,05/06/2013,Completed - Dup,05/07/2013,13-00540844,Alley Light Out,7401 S PEORIA ST,60621.0,1171587.62748295,1855764.01551794,17.0,7.0,68.0,41.759674761307885,-87.64669700344533,"(41.75967476130788, -87.64669700344531)",2013-05-06
72114,05/06/2013,Completed,05/07/2013,13-00534958,Alley Light Out,443 W MARQUETTE RD,60621.0,1174522.49211756,1860504.11222361,6.0,7.0,68.0,41.77261735352332,-87.63579991652506,"(41.772617353523316, -87.63579991652506)",2013-05-06
72115,05/06/2013,Completed,05/07/2013,13-00536006,Alley Light Out,5658 S KOLIN AVE,60629.0,1148330.50997031,1866729.91969869,13.0,8.0,62.0,41.790244798463654,-87.73165375820422,"(41.79024479846366, -87.73165375820422)",2013-05-06
72116,05/06/2013,Completed,05/07/2013,13-00536311,Alley Light Out,7067 N WESTERN AVE,60645.0,1159031.05497278,1947081.90229626,50.0,24.0,2.0,42.010525149560316,-87.69020868861654,"(42.01052514956032, -87.69020868861654)",2013-05-06
72117,05/06/2013,Completed,05/07/2013,13-00536335,Alley Light Out,2612 W MORSE AVE,60645.0,1157670.89697038,1945692.99393005,50.0,24.0,2.0,42.00674186857894,-87.69525131632311,"(42.006741868578935, -87.69525131632311)",2013-05-06
72118,05/06/2013,Completed,05/07/2013,13-00536657,Alley Light Out,3328 W 66TH ST,60629.0,1155340.5452949,1860664.10157491,15.0,8.0,66.0,41.77346179426292,-87.70611180873934,"(41.77346179426292, -87.70611180873934)",2013-05-06
72119,05/06/2013,Completed,05/07/2013,13-00537520,Alley Light Out,2712 W HADDON AVE,60622.0,1158107.53898972,1907531.11147847,26.0,12.0,24.0,41.902014466082726,-87.69469114429545,"(41.90201446608273, -87.69469114429546)",2013-05-06
72120,05/06/2013,Completed,05/07/2013,13-00537771,Alley Light Out,3046 N LONG AVE,60641.0,1139835.80792094,1919828.62003409,31.0,25.0,19.0,41.936113836248715,-87.76150527094272,"(41.936113836248715, -87.76150527094272)",2013-05-06
72121,05/06/2013,Completed,05/07/2013,13-00537965,Alley Light Out,1036 N ST LOUIS AVE,60651.0,1152851.81202499,1906682.57752955,27.0,11.0,23.0,41.899791751871255,-87.71401874206236,"(41.89979175187125, -87.71401874206236)",2013-05-06
72122,05/06/2013,Completed,05/07/2013,13-00538185,Alley Light Out,419 E OAKWOOD BLVD,60653.0,1179711.93418572,1878781.82897137,3.0,2.0,38.0,41.82265598345373,-87.61621804538782,"(41.82265598345373, -87.61621804538781)",2013-05-06
72123,05/06/2013,Completed,05/07/2013,13-00538547,Alley Light Out,1949 N SEMINARY AVE,60614.0,1168762.866827,1913218.01327965,32.0,18.0,7.0,41.91739532072165,-87.65538770295366,"(41.917395320721646, -87.65538770295365)",2013-05-06
72124,05/06/2013,Completed,05/07/2013,13-00540675,Alley Light Out,5045 N NORTHWEST HWY,60630.0,1139100.71956894,1932992.75941927,45.0,16.0,11.0,41.972250902389305,-87.76388536062912,"(41.972250902389305, -87.76388536062912)",2013-05-06
72125,05/06/2013,Completed,05/07/2013,13-00540750,Alley Light Out,5732 N AUSTIN AVE,60646.0,1135235.28217358,1937730.7721983,45.0,16.0,10.0,41.98532205780346,-87.77798651030622,"(41.98532205780346, -87.77798651030622)",2013-05-06
72126,05/06/2013,Completed,05/07/2013,13-00540754,Alley Light Out,6339 W MELROSE ST,60634.0,1133559.33517502,1920933.41932405,36.0,16.0,17.0,41.93925809276066,-87.78454629871773,"(41.93925809276066, -87.78454629871773)",2013-05-06
72127,05/06/2013,Completed,05/07/2013,13-00540794,Alley Light Out,11721 S ASHLAND AVE,60643.0,1167784.38043009,1826990.03002951,34.0,5.0,53.0,41.68079699655707,-87.6614588672559,"(41.68079699655707, -87.6614588672559)",2013-05-06
72128,05/06/2013,Completed,05/07/2013,13-00540819,Alley Light Out,2624 N MANGO AVE,60639.0,1137603.71167469,1916863.82652401,30.0,25.0,19.0,41.92801868481337,-87.76978017903568,"(41.92801868481337, -87.76978017903569)",2013-05-06
72129,05/06/2013,Completed,05/07/2013,13-00540920,Alley Light Out,4320 S MARSHFIELD AVE,60609.0,1166062.63357701,1876060.73461818,12.0,9.0,61.0,41.81549070653287,-87.66636900763322,"(41.81549070653287, -87.66636900763324)",2013-05-06
72130,05/07/2013,Completed - Dup,05/07/2013,13-00543027,Alley Light Out,7067 N WESTERN AVE,60645.0,1159031.05497278,1947081.90229626,50.0,24.0,2.0,42.010525149560316,-87.69020868861654,"(42.01052514956032, -87.69020868861654)",2013-05-07
72131,05/07/2013,Completed - Dup,05/07/2013,13-00543074,Alley Light Out,3928 W 81ST PL,60652.0,1151623.5127108,1850248.52911852,18.0,8.0,70.0,41.74495331527846,-87.72000998256813,"(41.74495331527846, -87.72000998256813)",2013-05-07
72132,05/07/2013,Completed,05/07/2013,13-00541094,Alley Light Out,6648 N FAIRFIELD AVE,60645.0,1156789.20540738,1943994.88512447,50.0,24.0,2.0,42.0021001807204,-87.69854152714753,"(42.0021001807204, -87.69854152714753)",2013-05-07
72133,05/07/2013,Completed,05/07/2013,13-00541136,Alley Light Out,3447 W MONTROSE AVE,60618.0,1152514.54948141,1929025.78519779,33.0,17.0,16.0,41.96111000971553,-87.7146653473364,"(41.961110009715526, -87.7146653473364)",2013-05-07
72134,05/07/2013,Completed,05/07/2013,13-00543899,Alley Light Out,8020 S ST LAWRENCE AVE,60619.0,1181627.30028395,1851957.68058389,6.0,6.0,44.0,41.74900397839134,-87.61001928640086,"(41.74900397839134, -87.61001928640084)",2013-05-07
72135,05/07/2013,Completed,05/07/2013,13-00544180,Alley Light Out,3621 W 61ST ST,60629.0,1153236.01337357,1863921.89750418,13.0,8.0,65.0,41.78244354785696,-87.71374058359879,"(41.78244354785696, -87.71374058359878)",2013-05-07
72136,05/07/2013,Completed,05/07/2013,13-00544188,Alley Light Out,3619 W 61ST ST,60629.0,1153248.31337357,1863922.29750418,13.0,8.0,65.0,41.782444402296065,-87.7136954772204,"(41.78244440229606, -87.7136954772204)",2013-05-07
72137,05/07/2013,Completed,05/07/2013,13-00544194,Alley Light Out,3623 W 61ST ST,60629.0,1153223.71337357,1863921.49750418,13.0,8.0,65.0,41.782442693400135,-87.71378568997616,"(41.782442693400135, -87.71378568997615)",2013-05-07
72138,05/07/2013,Completed,05/07/2013,13-00545057,Alley Light Out,1939 N SEMINARY AVE,60614.0,1168764.866827,1913130.11327965,32.0,18.0,7.0,41.91715407485836,-87.65538290787693,"(41.91715407485836, -87.65538290787694)",2013-05-07
72139,05/07/2013,Completed,05/07/2013,13-00546867,Alley Light Out,1806 S WABASH AVE,60616.0,1177046.81791492,1891558.73962279,3.0,1.0,33.0,41.85777741208272,-87.62560893126917,"(41.85777741208272, -87.62560893126917)",2013-05-07
72166,05/02/2013,Completed - Dup,05/08/2013,13-00522813,Alley Light Out,22 E 124TH ST,60628.0,1178628.86832897,1822750.78877151,9.0,5.0,53.0,41.66892495084301,-87.62189083708094,"(41.668924950843014, -87.62189083708093)",2013-05-02
72167,05/04/2013,Completed,05/08/2013,13-00533202,Alley Light Out,6614 S KIMBARK AVE,60637.0,1185775.04409735,1861396.76473084,5.0,3.0,42.0,41.774809025545395,-87.59452349140925,"(41.774809025545395, -87.59452349140925)",2013-05-04
72168,05/04/2013,Completed,05/08/2013,13-00533224,Alley Light Out,1522 W THOME AVE,60660.0,1165029.62772726,1941628.9455271,40.0,24.0,77.0,41.995436337080726,-87.66829358666382,"(41.99543633708073, -87.66829358666381)",2013-05-04
72169,05/04/2013,Completed,05/08/2013,13-00533338,Alley Light Out,7500 S RHODES AVE,60619.0,1181203.25780565,1855405.30541988,6.0,6.0,69.0,41.75847440540666,-87.61146712547612,"(41.75847440540666, -87.61146712547614)",2013-05-04
72170,05/05/2013,Completed,05/08/2013,13-00534756,Alley Light Out,2118 S SPAULDING AVE,60623.0,1154688.59152565,1889684.42821476,24.0,10.0,30.0,41.853110486370895,-87.70772728231026,"(41.8531104863709, -87.70772728231026)",2013-05-05
72171,05/05/2013,Completed,05/08/2013,13-00534806,Alley Light Out,6200 W BYRON ST,60634.0,1134335.5789036998,1925273.07022594,38.0,16.0,17.0,41.95115288814002,-87.78159067281803,"(41.95115288814002, -87.78159067281803)",2013-05-05
72172,05/05/2013,Completed,05/08/2013,13-00534808,Alley Light Out,3400 S PAULINA ST,60608.0,1165571.01857898,1882186.21581453,11.0,9.0,59.0,41.83231014156135,-87.66799833741777,"(41.83231014156135, -87.66799833741776)",2013-05-05
72173,05/05/2013,Completed,05/08/2013,13-00534827,Alley Light Out,8042 S COLFAX AVE,60617.0,1194913.85853126,1851967.49107114,7.0,4.0,46.0,41.74871408577289,-87.56133281777453,"(41.74871408577289, -87.56133281777453)",2013-05-05
72174,05/05/2013,Completed,05/08/2013,13-00534875,Alley Light Out,6544 N GREENVIEW AVE,60626.0,1165085.65651162,1943565.38773036,40.0,24.0,1.0,42.000748786505426,-87.66803213944695,"(42.00074878650542, -87.66803213944695)",2013-05-05
72175,05/06/2013,Completed - Dup,05/08/2013,13-00539096,Alley Light Out,12126 S ADA ST,60643.0,1169528.76748028,1824204.93001828,34.0,5.0,53.0,41.67311670057951,-87.65515376352351,"(41.673116700579506, -87.65515376352351)",2013-05-06
72176,05/06/2013,Completed,05/08/2013,13-00536207,Alley Light Out,5040 S INDIANA AVE,60615.0,1178452.81440412,1871649.15891207,3.0,2.0,38.0,41.803112072183254,-87.62105407173551,"(41.80311207218326, -87.62105407173551)",2013-05-06
72177,05/06/2013,Completed,05/08/2013,13-00536343,Alley Light Out,2611 W COYLE AVE,60645.0,1157674.33163211,1946023.32893329,50.0,24.0,2.0,42.007648248927644,-87.69522962102738,"(42.00764824892764, -87.69522962102738)",2013-05-06
72178,05/06/2013,Completed,05/08/2013,13-00538702,Alley Light Out,1532 W ROSEMONT AVE,60660.0,1164950.58999363,1941982.59160036,40.0,24.0,77.0,41.996408434830336,-87.6685742274047,"(41.996408434830336, -87.6685742274047)",2013-05-06
72179,05/06/2013,Completed,05/08/2013,13-00540275,Alley Light Out,1344 N CICERO AVE,60651.0,1144124.02188752,1908611.50998897,37.0,25.0,25.0,41.905253373667705,-87.74602781727846,"(41.905253373667705, -87.74602781727847)",2013-05-06
72180,05/06/2013,Completed,05/08/2013,13-00540757,Alley Light Out,7730 S MAY ST,60620.0,1169992.327584,1853539.83479285,17.0,6.0,71.0,41.75360611171807,-87.65260825302359,"(41.75360611171807, -87.65260825302359)",2013-05-06
72181,05/06/2013,Completed,05/08/2013,13-00540771,Alley Light Out,240 E 109TH ST,60628.0,1179890.02013386,1832744.96580855,9.0,5.0,49.0,41.6963217647434,-87.61697113288956,"(41.6963217647434, -87.61697113288956)",2013-05-06
72182,05/06/2013,Completed,05/08/2013,13-00540854,Alley Light Out,12050 S MICHIGAN AVE,60628.0,1179015.76199036,1824858.77138976,9.0,5.0,53.0,41.67470080363635,-87.62041105388269,"(41.67470080363635, -87.62041105388269)",2013-05-06
72183,05/07/2013,Completed - Dup,05/08/2013,13-00547164,Alley Light Out,3609 N ALBANY AVE,60618.0,1155079.81520096,1923833.68027736,33.0,17.0,16.0,41.94681132454487,-87.70537390256304,"(41.94681132454487, -87.70537390256305)",2013-05-07
72184,05/07/2013,Completed,05/08/2013,13-00541160,Alley Light Out,47 W 81ST ST,60620.0,1177274.03681302,1851292.29989166,21.0,6.0,44.0,41.74727740988706,-87.62599122922579,"(41.74727740988706, -87.62599122922579)",2013-05-07
72185,05/07/2013,Completed,05/08/2013,13-00541366,Alley Light Out,1918 W LELAND AVE,60640.0,1162785.46998902,1931230.97537634,47.0,19.0,4.0,41.9669514534374,-87.67684186867324,"(41.96695145343741, -87.67684186867324)",2013-05-07
72186,05/07/2013,Completed,05/08/2013,13-00543040,Alley Light Out,8121 S DR MARTIN LUTHER KING JR DR,60619.0,1180312.30179864,1851243.98698223,6.0,6.0,44.0,41.74707575644274,-87.61485973546722,"(41.74707575644274, -87.61485973546722)",2013-05-07
72187,05/07/2013,Completed,05/08/2013,13-00544406,Alley Light Out,5100 S PRAIRIE AVE,60615.0,1178905.06993399,1871266.95899795,3.0,2.0,40.0,41.80205298500313,-87.61940709701214,"(41.802052985003144, -87.61940709701214)",2013-05-07
72188,05/07/2013,Completed,05/08/2013,13-00544448,Alley Light Out,4414 S DR MARTIN LUTHER KING JR DR,60653.0,1179595.85647682,1875832.65969225,3.0,2.0,38.0,41.81456588417793,-87.6167341114934,"(41.81456588417793, -87.61673411149339)",2013-05-07
72189,05/07/2013,Completed,05/08/2013,13-00544565,Alley Light Out,2503 N MILWAUKEE AVE,60647.0,1155583.0532928999,1916549.5687868,35.0,14.0,22.0,41.92681306204352,-87.70372077668108,"(41.92681306204352, -87.70372077668108)",2013-05-07
72190,05/07/2013,Completed,05/08/2013,13-00545511,Alley Light Out,8035 S KINGSTON AVE,60617.0,1194580.89569103,1852090.65737693,7.0,4.0,46.0,41.74906025532956,-87.56254884664742,"(41.74906025532956, -87.56254884664742)",2013-05-07
72191,05/07/2013,Completed,05/08/2013,13-00546346,Alley Light Out,7130 W ARMITAGE AVE,60707.0,1128451.64487689,1912505.57576759,36.0,25.0,25.0,41.91621922535944,-87.80351024317217,"(41.91621922535944, -87.80351024317217)",2013-05-07
72192,05/07/2013,Completed,05/08/2013,13-00546935,Alley Light Out,2216 W 23RD ST,60608.0,1161883.99986713,1888706.05286933,25.0,10.0,31.0,41.85027883426691,-87.68134494467337,"(41.85027883426691, -87.68134494467337)",2013-05-07
72193,05/07/2013,Completed,05/08/2013,13-00547142,Alley Light Out,3605 N ALBANY AVE,60618.0,1155080.61520096,1923806.88027736,33.0,17.0,16.0,41.946737767420395,-87.70537168370365,"(41.946737767420395, -87.70537168370365)",2013-05-07
72194,05/07/2013,Completed,05/08/2013,13-00547156,Alley Light Out,3609 N ALBANY AVE,60618.0,1155079.81520096,1923833.68027736,33.0,17.0,16.0,41.94681132454487,-87.70537390256304,"(41.94681132454487, -87.70537390256305)",2013-05-07
72195,05/07/2013,Completed,05/08/2013,13-00547157,Alley Light Out,3058 W ADDISON ST,60618.0,1155278.60422376,1923775.99097637,33.0,17.0,16.0,41.94664902236565,-87.70464476470497,"(41.94664902236565, -87.70464476470497)",2013-05-07
72196,05/07/2013,Completed,05/08/2013,13-00547165,Alley Light Out,3615 N ALBANY AVE,60618.0,1155078.61520096,1923873.98027736,33.0,17.0,16.0,41.94692193463668,-87.70537722816681,"(41.94692193463668, -87.70537722816682)",2013-05-07
72197,05/08/2013,Completed - Dup,05/08/2013,13-00550831,Alley Light Out,8225 S SACRAMENTO AVE,60652.0,1157810.0055882,1849925.64798239,18.0,8.0,70.0,41.743944039068495,-87.69735026934559,"(41.74394403906849, -87.69735026934559)",2013-05-08
72198,05/08/2013,Completed - Dup,05/08/2013,13-00550989,Alley Light Out,10149 S SANGAMON ST,60643.0,1171772.91112804,1837524.13687507,34.0,22.0,73.0,41.709617959546364,-87.64655137245066,"(41.70961795954637, -87.64655137245065)",2013-05-08
72199,05/08/2013,Completed - Dup,05/08/2013,13-00553535,Alley Light Out,3617 W FLOURNOY ST,60624.0,1152372.23571408,1896788.92337669,24.0,11.0,27.0,41.87265203011105,-87.71604164822844,"(41.87265203011105, -87.71604164822844)",2013-05-08
72200,05/08/2013,Completed,05/08/2013,13-00548194,Alley Light Out,12737 S ESCANABA AVE,60633.0,1197408.7041991998,1821099.91429554,10.0,4.0,55.0,41.663948767380596,-87.55321566250133,"(41.66394876738059, -87.55321566250133)",2013-05-08
72201,05/08/2013,Completed,05/08/2013,13-00549859,Alley Light Out,525 E 75TH ST,60619.0,1181139.55780565,1855403.20541988,6.0,6.0,69.0,41.75847010933204,-87.61170064320412,"(41.75847010933204, -87.61170064320413)",2013-05-08
72202,05/08/2013,Completed,05/08/2013,13-00551091,Alley Light Out,9457 S LEAVITT ST,60643.0,1163358.4000674998,1841892.49810651,19.0,22.0,72.0,41.721785494800095,-87.67724469405165,"(41.721785494800095, -87.67724469405164)",2013-05-08
72216,05/01/2013,Completed,05/09/2013,13-00516218,Alley Light Out,1728 N KEELER AVE,60639.0,1148119.42556587,1911162.38110639,30.0,25.0,23.0,41.91217721830065,-87.73128549883633,"(41.91217721830065, -87.73128549883633)",2013-05-01
72217,05/01/2013,Completed,05/09/2013,13-00516751,Alley Light Out,7030 S CHAPPEL AVE,60649.0,1191088.05167304,1858960.46659581,5.0,3.0,43.0,41.76799673403489,-87.57512586172234,"(41.76799673403489, -87.57512586172234)",2013-05-01
72218,05/01/2013,Completed,05/09/2013,13-00520200,Alley Light Out,3118 S MORGAN ST,60608.0,1170153.40880807,1884096.10000413,11.0,9.0,60.0,41.837452417877394,-87.65112930583244,"(41.83745241787739, -87.65112930583244)",2013-05-01
72219,05/02/2013,Completed,05/09/2013,13-00521708,Alley Light Out,11101 S AVENUE B,60617.0,1204794.47450778,1831973.33220935,10.0,4.0,52.0,41.693599766368635,-87.52581484634372,"(41.69359976636863, -87.52581484634374)",2013-05-02
72220,05/02/2013,Completed,05/09/2013,13-00522488,Alley Light Out,4615 S LECLAIRE AVE,60638.0,1143135.25557414,1873555.55279637,23.0,8.0,56.0,41.8090736362265,-87.75053398349189,"(41.8090736362265, -87.75053398349189)",2013-05-02
72221,05/03/2013,Completed,05/09/2013,13-00531509,Alley Light Out,2830 S LOWE AVE,60616.0,1172418.08919587,1886136.98632938,11.0,9.0,60.0,41.843003125475825,-87.64275904412027,"(41.84300312547583, -87.64275904412028)",2013-05-03
72222,05/04/2013,Completed,05/09/2013,13-00532496,Alley Light Out,10048 S YATES AVE,60617.0,1194146.55718189,1838816.52920473,7.0,4.0,51.0,41.71264552288443,-87.56457483380058,"(41.71264552288443, -87.56457483380058)",2013-05-04
72223,05/05/2013,Completed,05/09/2013,13-00534696,Alley Light Out,4839 W HIRSCH ST,60651.0,1143855.569988,1908873.42998089,37.0,25.0,25.0,41.905977150155294,-87.74700736309913,"(41.905977150155294, -87.74700736309914)",2013-05-05
72224,05/05/2013,Completed,05/09/2013,13-00534831,Alley Light Out,5403 W DAKIN ST,60641.0,1139629.12702079,1925746.26991717,38.0,16.0,15.0,41.95235623058146,-87.76211992453604,"(41.95235623058145, -87.76211992453604)",2013-05-05
72225,05/05/2013,Completed,05/09/2013,13-00534876,Alley Light Out,5538 S JUSTINE ST,60636.0,1166955.28011891,1867914.78759696,16.0,7.0,67.0,41.79311823958951,-87.66332755427996,"(41.793118239589504, -87.66332755427996)",2013-05-05
72226,05/05/2013,Completed,05/09/2013,13-00534877,Alley Light Out,5545 S JUSTINE ST,60636.0,1166956.28011891,1867877.38759696,16.0,7.0,67.0,41.793015588132036,-87.66332495621657,"(41.79301558813204, -87.66332495621657)",2013-05-05
72227,05/06/2013,Completed,05/09/2013,13-00540781,Alley Light Out,9527 S MICHIGAN AVE,60628.0,1178829.64889541,1841833.26882647,6.0,5.0,49.0,41.72128543300689,-87.62057810358112,"(41.72128543300689, -87.62057810358112)",2013-05-06
72228,05/07/2013,Completed,05/09/2013,13-00542240,Alley Light Out,5515 S KENNETH AVE,60629.0,1147634.33400373,1867668.72060689,13.0,8.0,62.0,41.792834357885155,-87.73418249468588,"(41.79283435788516, -87.73418249468588)",2013-05-07
72229,05/07/2013,Completed,05/09/2013,13-00544608,Alley Light Out,5426 N NEVA AVE,60656.0,1127677.59528426,1935592.13580553,41.0,16.0,10.0,41.97958453141341,-87.80583210554408,"(41.97958453141341, -87.8058321055441)",2013-05-07
72230,05/07/2013,Completed,05/09/2013,13-00544826,Alley Light Out,4508 W WASHINGTON BLVD,60624.0,1146328.63610708,1900115.61290209,28.0,11.0,26.0,41.88189798452972,-87.73814595913477,"(41.88189798452972, -87.73814595913476)",2013-05-07
72231,05/07/2013,Completed,05/09/2013,13-00544843,Alley Light Out,5 E 14TH ST,60605.0,1176613.98751292,1893842.58271238,2.0,1.0,33.0,41.864054207746335,-87.6271287066143,"(41.864054207746335, -87.6271287066143)",2013-05-07
72232,05/07/2013,Completed,05/09/2013,13-00546807,Alley Light Out,5330 S KILBOURN AVE,60632.0,1147266.41999212,1868921.09996636,23.0,8.0,57.0,41.79627811206613,-87.73549967408621,"(41.796278112066126, -87.7354996740862)",2013-05-07
72233,05/07/2013,Completed,05/09/2013,13-00547015,Alley Light Out,1109 W TAYLOR ST,60607.0,1169124.49990244,1895749.06347282,25.0,12.0,28.0,41.869451511359415,-87.65456679761316,"(41.869451511359415, -87.65456679761316)",2013-05-07
72234,05/07/2013,Completed,05/09/2013,13-00547149,Alley Light Out,1615 S RUBLE ST,60616.0,1172073.87537894,1892130.73137975,25.0,12.0,31.0,41.85945803300639,-87.64384560685976,"(41.85945803300639, -87.64384560685976)",2013-05-07
72235,05/07/2013,Completed,05/09/2013,13-00547176,Alley Light Out,7004 S OGLESBY AVE,60649.0,1192979.68272448,1858957.45030758,5.0,3.0,43.0,41.76794248921103,-87.56819239017946,"(41.76794248921103, -87.56819239017946)",2013-05-07
72236,05/07/2013,Completed,05/09/2013,13-00547200,Alley Light Out,2453 W ARTHINGTON ST,60612.0,1160168.26119611,1895966.61187577,28.0,11.0,28.0,41.87023811307065,-87.6874415416456,"(41.87023811307065, -87.6874415416456)",2013-05-07
72237,05/08/2013,Completed - Dup,05/09/2013,13-00550180,Alley Light Out,8813 S EXCHANGE AVE,60617.0,1197295.29871622,1847101.08118262,10.0,4.0,46.0,41.73530131872759,-87.55276829695762,"(41.735301318727586, -87.55276829695762)",2013-05-08
72238,05/08/2013,Completed - Dup,05/09/2013,13-00553745,Alley Light Out,9527 S MICHIGAN AVE,60628.0,1178829.64889541,1841833.26882647,6.0,5.0,49.0,41.72128543300689,-87.62057810358112,"(41.72128543300689, -87.62057810358112)",2013-05-08
72239,05/08/2013,Completed,05/09/2013,13-00547541,Alley Light Out,7014 S OGLESBY AVE,60649.0,1192982.68272448,1858849.55030758,5.0,3.0,43.0,41.76764633034221,-87.5681849123625,"(41.76764633034221, -87.5681849123625)",2013-05-08
72240,05/08/2013,Completed,05/09/2013,13-00547770,Alley Light Out,5732 N AUSTIN AVE,60646.0,1135235.28217358,1937730.7721983,45.0,16.0,10.0,41.98532205780346,-87.77798651030622,"(41.98532205780346, -87.77798651030622)",2013-05-08
72241,05/08/2013,Completed,05/09/2013,13-00548559,Alley Light Out,4617 W MONROE ST,60644.0,1145571.21277684,1899163.29010655,28.0,11.0,25.0,41.87929907874798,-87.74095137284624,"(41.87929907874798, -87.74095137284623)",2013-05-08
72242,05/08/2013,Completed,05/09/2013,13-00548584,Alley Light Out,4425 S ARCHER AVE,60632.0,1155221.22051135,1875039.2794305,14.0,8.0,58.0,41.81291172317535,-87.70616479316166,"(41.81291172317535, -87.70616479316166)",2013-05-08
72243,05/08/2013,Completed,05/09/2013,13-00548599,Alley Light Out,2740 W DIVERSEY AVE,60647.0,1157500.64916878,1918490.78897216,35.0,14.0,21.0,41.932101056478416,-87.69662146652948,"(41.932101056478416, -87.69662146652949)",2013-05-08
72244,05/08/2013,Completed,05/09/2013,13-00549541,Alley Light Out,4313 W 49TH ST,60632.0,1148381.35296685,1871785.30668252,23.0,8.0,57.0,41.80411658147733,-87.73133751328044,"(41.80411658147733, -87.73133751328044)",2013-05-08
72245,05/08/2013,Completed,05/09/2013,13-00549561,Alley Light Out,6101 W WARWICK AVE,60634.0,1135027.37951278,1924300.76689582,38.0,16.0,17.0,41.94847253773564,-87.77907071302775,"(41.94847253773564, -87.77907071302775)",2013-05-08
72246,05/08/2013,Completed,05/09/2013,13-00550123,Alley Light Out,2501 E 92ND ST,60617.0,1194447.72169447,1844449.95758099,7.0,4.0,48.0,41.728096796527055,-87.56328735915744,"(41.728096796527055, -87.56328735915746)",2013-05-08
72247,05/08/2013,Completed,05/09/2013,13-00550256,Alley Light Out,922 N KEYSTONE AVE,60651.0,1149219.75949776,1905853.4972884997,37.0,11.0,23.0,41.89758784404877,-87.72738091592836,"(41.89758784404877, -87.72738091592836)",2013-05-08
72248,05/08/2013,Completed,05/09/2013,13-00550599,Alley Light Out,201 S LOCKWOOD AVE,60644.0,1141033.81141389,1898807.46120523,29.0,15.0,25.0,41.87840737085386,-87.75762094580809,"(41.87840737085386, -87.7576209458081)",2013-05-08
72249,05/08/2013,Completed,05/09/2013,13-00551753,Alley Light Out,1752 N KEDVALE AVE,60639.0,1148445.93098118,1911337.21969286,30.0,25.0,23.0,41.9126506971892,-87.73008148123752,"(41.9126506971892, -87.73008148123753)",2013-05-08
72250,05/08/2013,Completed,05/09/2013,13-00552296,Alley Light Out,10410 S WENTWORTH AVE,60628.0,1176792.36372544,1835883.57716649,34.0,5.0,49.0,41.70500470441363,-87.62821869952657,"(41.70500470441363, -87.62821869952658)",2013-05-08
72251,05/08/2013,Completed,05/09/2013,13-00552530,Alley Light Out,5310 N DAMEN AVE,60625.0,1162040.59022073,1935297.73728025,40.0,20.0,4.0,41.97812644969635,-87.67946656018854,"(41.97812644969635, -87.67946656018854)",2013-05-08
72252,05/08/2013,Completed,05/09/2013,13-00552626,Alley Light Out,5912 W BYRON ST,60634.0,1136247.30969839,1925316.29132603,38.0,16.0,15.0,41.95123750435191,-87.77456207779,"(41.95123750435191, -87.77456207779)",2013-05-08
72253,05/08/2013,Completed,05/09/2013,13-00553107,Alley Light Out,1638 N AUSTIN AVE,60639.0,1136096.18327255,1910271.15267395,29.0,25.0,25.0,41.90995467337211,-87.77547746546739,"(41.90995467337212, -87.77547746546739)",2013-05-08
72254,05/08/2013,Completed,05/09/2013,13-00553317,Alley Light Out,13511 S AVENUE K,60633.0,1202425.65677812,1815990.2173026002,10.0,4.0,55.0,41.649801136306465,-87.53502950567163,"(41.649801136306465, -87.53502950567164)",2013-05-08
72255,05/08/2013,Completed,05/09/2013,13-00553372,Alley Light Out,5030 N MOZART ST,60625.0,1156459.16847502,1933284.58403399,40.0,20.0,4.0,41.972717326421865,-87.70004705275733,"(41.972717326421865, -87.70004705275731)",2013-05-08
72256,05/08/2013,Completed,05/09/2013,13-00553388,Alley Light Out,3061 N ELBRIDGE AVE,60618.0,1152329.12982526,1920044.57019389,35.0,14.0,21.0,41.936468571632794,-87.71558504342626,"(41.9364685716328, -87.71558504342626)",2013-05-08
72257,05/08/2013,Completed,05/09/2013,13-00553767,Alley Light Out,4950 N MEADE AVE,60630.0,1134529.8182267,1932246.3633165,45.0,16.0,11.0,41.97028486329172,-87.78071132872006,"(41.97028486329172, -87.78071132872005)",2013-05-08
72258,05/08/2013,Completed,05/09/2013,13-00553834,Alley Light Out,1319 N HAMLIN AVE,60651.0,1150802.32067988,1908511.17002361,26.0,25.0,23.0,41.90484994202666,-87.72149869234673,"(41.90484994202666, -87.72149869234674)",2013-05-08
72259,05/09/2013,Completed - Dup,05/09/2013,13-00559932,Alley Light Out,705 E 105TH ST,60628.0,1182831.50351694,1835485.42697181,9.0,5.0,50.0,41.70377430916994,-87.6061166026632,"(41.70377430916994, -87.6061166026632)",2013-05-09
72260,05/09/2013,Completed - Dup,05/09/2013,13-00559983,Alley Light Out,666 E 105TH PL,60628.0,1182783.97009531,1835150.61689023,9.0,5.0,50.0,41.702856648392526,-87.60630100935516,"(41.70285664839252, -87.60630100935516)",2013-05-09
72272,05/01/2013,Completed,05/10/2013,13-00514686,Alley Light Out,5041 W CRYSTAL ST,60651.0,1142528.15487694,1907851.78321582,37.0,25.0,25.0,41.903198430614225,-87.75190893986614,"(41.90319843061423, -87.75190893986614)",2013-05-01
72273,05/01/2013,Completed,05/10/2013,13-00515165,Alley Light Out,5427 S NAGLE AVE,60638.0,1134301.46341711,1867894.44246858,23.0,8.0,56.0,41.793698366464966,-87.7830682343365,"(41.793698366464966, -87.78306823433648)",2013-05-01
72274,05/02/2013,Completed,05/10/2013,13-00524308,Alley Light Out,9549 S BENSLEY AVE,60617.0,1194435.79957379,1841934.64882903,7.0,4.0,51.0,41.72119485045031,-87.5634134399822,"(41.72119485045031, -87.56341343998221)",2013-05-02
72275,05/02/2013,Completed,05/10/2013,13-00524619,Alley Light Out,5650 W NEWPORT AVE,60634.0,1138415.96417234,1922379.01729484,38.0,16.0,15.0,41.943138257825396,-87.76666144784048,"(41.943138257825396, -87.76666144784048)",2013-05-02
72276,05/03/2013,Completed - Dup,05/10/2013,13-00527941,Alley Light Out,6018 S RUTHERFORD AVE,60638.0,1132435.96902586,1863878.49529115,23.0,8.0,64.0,41.782710422946074,-87.79000209486986,"(41.78271042294607, -87.79000209486986)",2013-05-03
72277,05/03/2013,Completed,05/10/2013,13-00531244,Alley Light Out,1358 N HARDING AVE,60651.0,1149797.27802883,1908855.21609472,30.0,25.0,23.0,41.90581364984071,-87.72518158371011,"(41.90581364984071, -87.72518158371011)",2013-05-03
72278,05/04/2013,Completed,05/10/2013,13-00533209,Alley Light Out,5751 S AUSTIN AVE,60638.0,1137364.57322439,1865812.07090977,23.0,8.0,56.0,41.78792961911455,-87.77188565397984,"(41.78792961911455, -87.77188565397984)",2013-05-04
72279,05/05/2013,Completed,05/10/2013,13-00534710,Alley Light Out,1239 N AVERS AVE,60651.0,1150485.658975,1908046.8339,27.0,25.0,23.0,41.90358194998494,-87.72267403613243,"(41.90358194998494, -87.72267403613243)",2013-05-05
72280,05/06/2013,Completed,05/10/2013,13-00538424,Alley Light Out,5315 S NEWCASTLE AVE,60638.0,1131618.63949344,1868575.22019081,23.0,8.0,56.0,41.79561324817344,-87.79289050151762,"(41.79561324817344, -87.79289050151762)",2013-05-06
72281,05/06/2013,Completed,05/10/2013,13-00539232,Alley Light Out,4611 S FRANCISCO AVE,60632.0,1157809.71977316,1873944.35739444,14.0,9.0,58.0,41.80985488369692,-87.69669979328611,"(41.80985488369692, -87.69669979328611)",2013-05-06
72282,05/07/2013,Completed,05/10/2013,13-00541040,Alley Light Out,5057 W CORNELIA AVE,60641.0,1142007.02400309,1922796.79338582,38.0,16.0,15.0,41.9442187717906,-87.75345195236014,"(41.9442187717906, -87.75345195236014)",2013-05-07
72283,05/07/2013,Completed,05/10/2013,13-00541133,Alley Light Out,3708 W MCLEAN AVE,60647.0,1151326.63796795,1913367.31509137,26.0,25.0,22.0,41.91816537745585,-87.71944503154226,"(41.91816537745585, -87.71944503154226)",2013-05-07
72284,05/07/2013,Completed,05/10/2013,13-00542222,Alley Light Out,5659 W CORNELIA AVE,60634.0,1138010.52811664,1922702.93366709,38.0,16.0,15.0,41.94403446250272,-87.7681437995502,"(41.944034462502714, -87.7681437995502)",2013-05-07
72285,05/08/2013,Completed,05/10/2013,13-00548103,Alley Light Out,4414 W GEORGE ST,60641.0,1146548.54730641,1918920.73891235,31.0,25.0,20.0,41.93349701257564,-87.73685826546782,"(41.933497012575636, -87.73685826546782)",2013-05-08
72286,05/08/2013,Completed,05/10/2013,13-00548635,Alley Light Out,3752 W DIVERSEY AVE,60647.0,1150799.66323173,1918354.96440154,30.0,25.0,21.0,41.931862258080564,-87.72125037728098,"(41.93186225808056, -87.72125037728098)",2013-05-08
72287,05/08/2013,Completed,05/10/2013,13-00550149,Alley Light Out,1604 N DAMEN AVE,60647.0,1162743.21848325,1910694.24219595,32.0,14.0,24.0,41.910598366355174,-87.6775748435528,"(41.910598366355174, -87.67757484355279)",2013-05-08
72288,05/08/2013,Completed,05/10/2013,13-00551937,Alley Light Out,2513 W SHAKESPEARE AVE,60647.0,1159456.96540779,1914387.92986585,1.0,14.0,22.0,41.9208024320605,-87.68954546554835,"(41.9208024320605, -87.68954546554835)",2013-05-08
72289,05/08/2013,Completed,05/10/2013,13-00552291,Alley Light Out,10148 S PEORIA ST,60643.0,1172104.64187847,1837537.50109959,34.0,22.0,73.0,41.70964736608485,-87.64533613845164,"(41.709647366084845, -87.64533613845163)",2013-05-08
72290,05/08/2013,Completed,05/10/2013,13-00552759,Alley Light Out,2151 W COULTER ST,60608.0,1162407.70649874,1887895.60629303,25.0,10.0,31.0,41.84804395927332,-87.67944549976913,"(41.84804395927332, -87.67944549976912)",2013-05-08
72291,05/08/2013,Completed,05/10/2013,13-00553012,Alley Light Out,5309 S NEWCASTLE AVE,60638.0,1131617.53949344,1868615.22019081,23.0,8.0,56.0,41.795723034509834,-87.7928936131942,"(41.79572303450983, -87.7928936131942)",2013-05-08
72292,05/09/2013,Completed - Dup,05/10/2013,13-00559957,Alley Light Out,5041 W CRYSTAL ST,60651.0,1142528.15487694,1907851.78321582,37.0,25.0,25.0,41.903198430614225,-87.75190893986614,"(41.90319843061423, -87.75190893986614)",2013-05-09
72293,05/09/2013,Completed,05/10/2013,13-00556794,Alley Light Out,8301 W WAVELAND AVE,60634.0,1120064.14031692,1923540.54428909,36.0,16.0,17.0,41.946638742308004,-87.8340902227171,"(41.946638742308004, -87.8340902227171)",2013-05-09
72294,05/09/2013,Completed,05/10/2013,13-00557261,Alley Light Out,1609 N DAMEN AVE,60647.0,1162746.51848325,1910751.34219595,32.0,14.0,24.0,41.91075498358009,-87.67756111683748,"(41.91075498358009, -87.67756111683748)",2013-05-09
72295,05/09/2013,Completed,05/10/2013,13-00559172,Alley Light Out,3210 N CICERO AVE,60641.0,1143807.73321725,1920958.36776649,30.0,16.0,15.0,41.93914034318621,-87.74687948963167,"(41.93914034318621, -87.74687948963167)",2013-05-09
72296,05/09/2013,Completed,05/10/2013,13-00560028,Alley Light Out,2726 W SUMMERDALE AVE,60625.0,1157213.21402956,1935422.77111454,40.0,20.0,4.0,41.97856929078801,-87.69721588653165,"(41.97856929078801, -87.69721588653165)",2013-05-09
72297,05/09/2013,Completed,05/10/2013,13-00560076,Alley Light Out,5219 W WOLFRAM ST,60641.0,1141092.34767192,1918450.95001328,31.0,25.0,19.0,41.932310279225725,-87.75692134749315,"(41.932310279225725, -87.75692134749315)",2013-05-09
72298,05/10/2013,Completed - Dup,05/10/2013,13-00562289,Alley Light Out,8217 S TALMAN AVE,60652.0,1160137.37592228,1849965.94988675,18.0,8.0,70.0,41.74400711526013,-87.68882140099629,"(41.744007115260125, -87.68882140099628)",2013-05-10
72299,05/10/2013,Completed - Dup,05/10/2013,13-00563259,Alley Light Out,6018 S RUTHERFORD AVE,60638.0,1132435.96902586,1863878.49529115,23.0,8.0,64.0,41.782710422946074,-87.79000209486986,"(41.78271042294607, -87.79000209486986)",2013-05-10
72300,05/10/2013,Completed - Dup,05/10/2013,13-00563579,Alley Light Out,9549 S BENSLEY AVE,60617.0,1194435.79957379,1841934.64882903,7.0,4.0,51.0,41.72119485045031,-87.5634134399822,"(41.72119485045031, -87.56341343998221)",2013-05-10
72301,05/10/2013,Completed - Dup,05/10/2013,13-00564453,Alley Light Out,6845 S TRIPP AVE,60629.0,1149217.85246651,1858864.66380963,13.0,8.0,65.0,41.76864418380758,-87.7286028823962,"(41.76864418380758, -87.7286028823962)",2013-05-10
72302,05/10/2013,Completed - Dup,05/10/2013,13-00565550,Alley Light Out,9522 S INDIANA AVE,60628.0,1179263.85008843,1841880.23846996,6.0,5.0,49.0,41.72140444791077,-87.61898629375305,"(41.721404447910764, -87.61898629375304)",2013-05-10
72303,05/10/2013,Completed - Dup,05/10/2013,13-00565576,Alley Light Out,9534 S BISHOP ST,60643.0,1168340.52660882,1841517.46289444,21.0,22.0,73.0,41.720650698942435,-87.6590067203214,"(41.72065069894244, -87.6590067203214)",2013-05-10
72304,05/10/2013,Completed - Dup,05/10/2013,13-00565610,Alley Light Out,6224 S ELIZABETH ST,60636.0,1169043.85422263,1863502.95099033,16.0,7.0,67.0,41.78096671590355,-87.65579645996444,"(41.78096671590355, -87.65579645996442)",2013-05-10
72305,05/10/2013,Completed,05/10/2013,13-00560196,Alley Light Out,800 N GREEN ST,60642.0,1170582.87999219,1905572.79001156,27.0,12.0,24.0,41.89637671977611,-87.6489250989406,"(41.89637671977611, -87.64892509894061)",2013-05-10
72306,05/10/2013,Completed,05/10/2013,13-00562246,Alley Light Out,6709 S EMERALD AVE,60621.0,1172490.42989066,1860382.61331408,6.0,7.0,68.0,41.772328931138745,-87.64325244755055,"(41.77232893113874, -87.64325244755055)",2013-05-10
72307,05/10/2013,Completed,05/10/2013,13-00562250,Alley Light Out,6719 S EMERALD AVE,60621.0,1172492.32989066,1860315.81331408,6.0,7.0,68.0,41.77214558221522,-87.64324744753412,"(41.772145582215224, -87.64324744753412)",2013-05-10
72308,05/10/2013,Completed,05/10/2013,13-00562259,Alley Light Out,6755 S EMERALD AVE,60621.0,1172499.01699016,1860075.30899278,6.0,7.0,68.0,41.77148546266845,-87.64323000884765,"(41.771485462668444, -87.64323000884765)",2013-05-10
72309,05/10/2013,Completed,05/10/2013,13-00562261,Alley Light Out,6753 S UNION AVE,60621.0,1172902.30249382,1860100.54881093,6.0,7.0,68.0,41.77154583429804,-87.64175096155753,"(41.77154583429804, -87.64175096155755)",2013-05-10
72310,05/10/2013,Completed,05/10/2013,13-00562263,Alley Light Out,6801 S HALSTED ST,60621.0,1172141.03707401,1859762.7755091998,6.0,7.0,68.0,41.770635708291614,-87.6445514132647,"(41.77063570829161, -87.6445514132647)",2013-05-10
72311,05/10/2013,Completed,05/10/2013,13-00562271,Alley Light Out,6809 S HALSTED ST,60621.0,1172142.43707401,1859709.2755091998,6.0,7.0,68.0,41.770488867123866,-87.64454785197582,"(41.77048886712387, -87.64454785197583)",2013-05-10
72312,05/10/2013,Completed,05/10/2013,13-00562274,Alley Light Out,6915 S HALSTED ST,60621.0,1172161.17481732,1859007.03961062,6.0,7.0,68.0,41.76856143566843,-87.64449978293803,"(41.76856143566843, -87.64449978293803)",2013-05-10
72313,05/10/2013,Completed,05/10/2013,13-00562279,Alley Light Out,6933 S HALSTED ST,60621.0,1172164.57481732,1858886.33961062,6.0,7.0,68.0,41.76823014558377,-87.64449086360867,"(41.768230145583765, -87.64449086360865)",2013-05-10
72314,05/10/2013,Completed,05/10/2013,13-00562288,Alley Light Out,6945 S HALSTED ST,60621.0,1172166.87481732,1858805.83961062,6.0,7.0,68.0,41.768009193313475,-87.64448479622408,"(41.76800919331348, -87.64448479622408)",2013-05-10
72315,05/10/2013,Completed,05/10/2013,13-00562295,Alley Light Out,7021 S HALSTED ST,60621.0,1172180.78150471,1858303.52722621,6.0,7.0,68.0,41.76663048164069,-87.64444856846863,"(41.76663048164069, -87.64444856846862)",2013-05-10
72316,05/10/2013,Completed,05/10/2013,13-00562302,Alley Light Out,7031 S HALSTED ST,60621.0,1172182.58150471,1858236.82722621,6.0,7.0,68.0,41.76644740917566,-87.64444392887022,"(41.766447409175655, -87.64444392887022)",2013-05-10
72317,05/10/2013,Completed,05/10/2013,13-00562311,Alley Light Out,7000 S LOWE AVE,60621.0,1173176.74182883,1858471.9444126,6.0,7.0,68.0,41.76707069135765,-87.64079303214181,"(41.767070691357645, -87.64079303214183)",2013-05-10
72318,05/10/2013,Completed,05/10/2013,13-00562313,Alley Light Out,7026 S LOWE AVE,60621.0,1173181.64182883,1858298.8444126,6.0,7.0,68.0,41.76659557605056,-87.64078018038923,"(41.76659557605056, -87.64078018038923)",2013-05-10
72319,05/10/2013,Completed,05/10/2013,13-00562321,Alley Light Out,7003 S LOWE AVE,60621.0,1173177.34182883,1858451.9444126,6.0,7.0,68.0,41.767015795717725,-87.64079142315559,"(41.767015795717725, -87.64079142315559)",2013-05-10
72320,05/10/2013,Completed,05/10/2013,13-00562328,Alley Light Out,7047 S LOWE AVE,60621.0,1173185.54182883,1858159.0444125999,6.0,7.0,68.0,41.76621186198082,-87.64077001135321,"(41.76621186198082, -87.6407700113532)",2013-05-10
72321,05/10/2013,Completed,05/10/2013,13-00562384,Alley Light Out,7012 S NORMAL BLVD,60621.0,1174161.46431373,1858420.88502664,6.0,7.0,68.0,41.766908764559176,-87.63718514988459,"(41.76690876455918, -87.6371851498846)",2013-05-10
72322,05/10/2013,Completed,05/10/2013,13-00562402,Alley Light Out,6951 S PARNELL AVE,60609.0,,,,,,,,,2013-05-10
72323,05/10/2013,Completed,05/10/2013,13-00562455,Alley Light Out,6951 S PARNELL AVE,60621.0,1173819.28841861,1858814.05221128,6.0,7.0,68.0,41.76799525434339,-87.63842771350838,"(41.76799525434339, -87.63842771350838)",2013-05-10
72324,05/10/2013,Completed,05/10/2013,13-00562458,Alley Light Out,7001 S PARNELL AVE,60621.0,1173828.78841861,1858484.85221128,6.0,7.0,68.0,41.767091680229065,-87.6384026410472,"(41.767091680229065, -87.63840264104718)",2013-05-10
72325,05/10/2013,Completed,05/10/2013,13-00562466,Alley Light Out,6855 S PARNELL AVE,60621.0,1173753.33988977,1859449.64220437,6.0,7.0,68.0,41.769740849537136,-87.63865062757797,"(41.76974084953713, -87.63865062757797)",2013-05-10
72326,05/10/2013,Completed,05/10/2013,13-00562473,Alley Light Out,6801 S PARNELL AVE,60621.0,1173743.03377441,1859811.04231173,6.0,7.0,68.0,41.77073280191874,-87.63867770561251,"(41.77073280191874, -87.63867770561252)",2013-05-10
72327,05/10/2013,Completed,05/10/2013,13-00562478,Alley Light Out,6922 S PARNELL AVE,60621.0,1173813.75001617,1859008.8813233997,6.0,7.0,68.0,41.76853001104994,-87.63844224459645,"(41.76853001104994, -87.63844224459643)",2013-05-10
72328,05/10/2013,Completed,05/10/2013,13-00562488,Alley Light Out,6912 S EGGLESTON AVE,60621.0,1174472.98997302,1859095.50101556,6.0,7.0,68.0,41.7687530645104,-87.63602324156601,"(41.7687530645104, -87.636023241566)",2013-05-10
72329,05/10/2013,Completed,05/10/2013,13-00562496,Alley Light Out,6713 S NORMAL BLVD,60621.0,1174118.67619045,1860355.53541803,6.0,7.0,68.0,41.772218619709406,-87.63728459648216,"(41.77221861970941, -87.63728459648217)",2013-05-10
72330,05/10/2013,Completed,05/10/2013,13-00562515,Alley Light Out,3500 S NORMAL AVE,60609.0,1173532.02856637,1881715.62899059,11.0,9.0,60.0,41.83084589634048,-87.63880238488147,"(41.83084589634048, -87.63880238488149)",2013-05-10
72331,05/10/2013,Completed,05/10/2013,13-00563668,Alley Light Out,9350 S STEWART AVE,60620.0,1175772.19371598,1843206.47153436,21.0,6.0,49.0,41.7251226045311,-87.6317359109983,"(41.7251226045311, -87.63173591099832)",2013-05-10
72332,05/10/2013,Completed,05/12/2013,13-00565650,Alley Light Out,8223 S SACRAMENTO AVE,60652.0,1157809.7055882,1849939.14798239,18.0,8.0,70.0,41.743981091335655,-87.69735100299627,"(41.74398109133566, -87.69735100299627)",2013-05-10
72355,05/01/2013,Completed - Dup,05/13/2013,13-00519373,Alley Light Out,703 E 105TH ST,60628.0,1182818.70351694,1835485.02697181,9.0,5.0,50.0,41.703773508117145,-87.60616348572107,"(41.70377350811715, -87.60616348572108)",2013-05-01
72356,05/01/2013,Completed,05/13/2013,13-00518475,Alley Light Out,8356 S BAKER AVE,60617.0,1198291.01890789,1849772.99856798,7.0,4.0,46.0,41.74260842385354,-87.54903125092163,"(41.74260842385354, -87.54903125092162)",2013-05-01
72357,05/04/2013,Completed - Dup,05/13/2013,13-00533086,Alley Light Out,9520 S INDIANA AVE,60628.0,1179263.65008843,1841893.63846996,6.0,5.0,49.0,41.72144122378225,-87.61898661904263,"(41.72144122378225, -87.61898661904263)",2013-05-04
72358,05/05/2013,Completed,05/13/2013,13-00534532,Alley Light Out,400 E 105TH ST,60628.0,1180769.24972119,1835427.73677657,9.0,5.0,49.0,41.70366353912254,-87.61366988160925,"(41.70366353912254, -87.61366988160925)",2013-05-05
72359,05/06/2013,Completed,05/13/2013,13-00540864,Alley Light Out,9011 S LAFLIN ST,60620.0,1167915.00457222,1844981.70129266,21.0,22.0,73.0,41.73016622580987,-87.66046612888503,"(41.730166225809874, -87.66046612888503)",2013-05-06
72360,05/07/2013,Completed - Dup,05/13/2013,13-00542892,Alley Light Out,703 E 105TH ST,60628.0,1182818.70351694,1835485.02697181,9.0,5.0,50.0,41.703773508117145,-87.60616348572107,"(41.70377350811715, -87.60616348572108)",2013-05-07
72361,05/07/2013,Completed - Dup,05/13/2013,13-00543164,Alley Light Out,703 E 105TH ST,60628.0,1182818.70351694,1835485.02697181,9.0,5.0,50.0,41.703773508117145,-87.60616348572107,"(41.70377350811715, -87.60616348572108)",2013-05-07
72362,05/07/2013,Completed - Dup,05/13/2013,13-00547139,Alley Light Out,556 E 94TH ST,60619.0,1181674.2916136999,1842768.49067428,9.0,6.0,49.0,41.72378669510364,-87.61013004808905,"(41.72378669510364, -87.61013004808905)",2013-05-07
72363,05/07/2013,Completed,05/13/2013,13-00545947,Alley Light Out,3228 S HOYNE AVE,60608.0,1162869.13007769,1883253.26608323,12.0,9.0,59.0,41.83529523997615,-87.67788207772432,"(41.83529523997615, -87.67788207772433)",2013-05-07
72364,05/07/2013,Completed,05/13/2013,13-00547256,Alley Light Out,348 W WASHINGTON ST,60606.0,1173961.5712688,1900798.69237569,42.0,1.0,32.0,41.88320168982796,-87.636658269275,"(41.88320168982796, -87.636658269275)",2013-05-07
72365,05/08/2013,Completed - Dup,05/13/2013,13-00550837,Alley Light Out,703 E 105TH ST,60628.0,1182818.70351694,1835485.02697181,9.0,5.0,50.0,41.703773508117145,-87.60616348572107,"(41.70377350811715, -87.60616348572108)",2013-05-08
72366,05/08/2013,Completed,05/13/2013,13-00553507,Alley Light Out,1437 E 76TH ST,60619.0,1187215.9503948,1854888.28448197,5.0,4.0,43.0,41.75691508811178,-87.58944776259905,"(41.75691508811178, -87.58944776259905)",2013-05-08
72367,05/09/2013,Completed - Dup,05/13/2013,13-00554102,Alley Light Out,10448 S EBERHART AVE,60628.0,1181426.33098758,1835789.07558617,9.0,5.0,49.0,41.70464000719394,-87.61125270616306,"(41.704640007193944, -87.61125270616307)",2013-05-09
72368,05/09/2013,Completed - Dup,05/13/2013,13-00557943,Alley Light Out,703 E 105TH ST,60628.0,1182818.70351694,1835485.02697181,9.0,5.0,50.0,41.703773508117145,-87.60616348572107,"(41.70377350811715, -87.60616348572108)",2013-05-09
72369,05/09/2013,Completed,05/13/2013,13-00558063,Alley Light Out,8548 S COMMERCIAL AVE,60617.0,1197630.59953358,1848866.37209259,10.0,4.0,46.0,41.74013706342207,-87.55148116286281,"(41.74013706342207, -87.55148116286281)",2013-05-09
72370,05/09/2013,Completed,05/13/2013,13-00559281,Alley Light Out,8037 S UNIVERSITY AVE,60619.0,1185280.61850805,1851928.75510553,8.0,4.0,45.0,41.74883954795394,-87.59663320460805,"(41.748839547953935, -87.59663320460807)",2013-05-09
72371,05/09/2013,Completed,05/13/2013,13-00560018,Alley Light Out,7214 N HAMILTON AVE,60645.0,1160443.73996839,1947806.59997047,49.0,24.0,2.0,42.01248449948274,-87.68499069630928,"(42.012484499482746, -87.68499069630928)",2013-05-09
72372,05/09/2013,Completed,05/13/2013,13-00560057,Alley Light Out,6544 N GREENVIEW AVE,60626.0,1165085.65651162,1943565.38773036,40.0,24.0,1.0,42.000748786505426,-87.66803213944695,"(42.00074878650542, -87.66803213944695)",2013-05-09
72373,05/09/2013,Completed,05/13/2013,13-00560082,Alley Light Out,3412 S LEAVITT ST,60608.0,1162243.83842164,1882022.5561179002,11.0,9.0,59.0,41.831931107270115,-87.68021080572855,"(41.831931107270115, -87.68021080572854)",2013-05-09
72374,05/10/2013,Completed,05/13/2013,13-00565775,Alley Light Out,5045 N NORTHWEST HWY,60630.0,1139100.71956894,1932992.75941927,45.0,16.0,11.0,41.972250902389305,-87.76388536062912,"(41.972250902389305, -87.76388536062912)",2013-05-10
72375,05/11/2013,Completed,05/13/2013,13-00567325,Alley Light Out,6318 N MONTICELLO AVE,60659.0,1150903.61499594,1941665.86783001,50.0,17.0,13.0,41.99582693466262,-87.72025542802706,"(41.99582693466262, -87.72025542802706)",2013-05-11
72376,05/11/2013,Completed,05/13/2013,13-00567352,Alley Light Out,3733 N PIONEER AVE,60634.0,1120735.69439951,1923791.08049739,36.0,16.0,17.0,41.94731548563416,-87.83161633836359,"(41.94731548563416, -87.8316163383636)",2013-05-11
72377,05/13/2013,Completed,05/13/2013,13-00569867,Alley Light Out,4625 W 53RD ST,60632.0,1146286.22001463,1869074.63967614,23.0,8.0,56.0,41.79671809931622,-87.73909030357834,"(41.796718099316216, -87.73909030357835)",2013-05-13
72378,05/13/2013,Completed,05/13/2013,13-00569965,Alley Light Out,10352 S CAMPBELL AVE,60655.0,1161535.64789737,1835915.49488161,19.0,22.0,72.0,41.70542151371786,-87.68408624938934,"(41.70542151371786, -87.68408624938935)",2013-05-13
72379,05/13/2013,Completed,05/13/2013,13-00572591,Alley Light Out,7315 S MICHIGAN AVE,60619.0,1178427.29437936,1856543.28850379,6.0,3.0,69.0,41.76166062776964,-87.62160622197302,"(41.761660627769636, -87.62160622197302)",2013-05-13
72380,05/13/2013,Completed,05/13/2013,13-00572658,Alley Light Out,7344 S DR MARTIN LUTHER KING JR DR,60619.0,1180179.76230929,1856407.51619784,6.0,3.0,69.0,41.76124808574029,-87.61518745781791,"(41.76124808574029, -87.61518745781792)",2013-05-13
72381,05/13/2013,Completed,05/13/2013,13-00574318,Alley Light Out,4148 N SPRINGFIELD AVE,60618.0,1149648.79336994,1927286.8171323002,39.0,17.0,16.0,41.95639444717536,-87.72524682866792,"(41.956394447175356, -87.72524682866792)",2013-05-13
72389,05/01/2013,Completed,05/14/2013,13-00519838,Alley Light Out,8648 S DREXEL AVE,60619.0,1183736.13562117,1847827.02841327,8.0,6.0,44.0,41.73762011699966,-87.60242036030962,"(41.73762011699966, -87.60242036030962)",2013-05-01
72390,05/01/2013,Completed,05/14/2013,13-00519947,Alley Light Out,3646 W CORTLAND ST,60647.0,1151666.39741526,1912377.43151768,26.0,25.0,22.0,41.91544236747604,-87.718222810599,"(41.91544236747604, -87.718222810599)",2013-05-01
72391,05/03/2013,Completed,05/14/2013,13-00526186,Alley Light Out,9800 S GREEN ST,60643.0,1172374.78570775,1839818.56387475,21.0,22.0,73.0,41.71590101085077,-87.6442799845638,"(41.71590101085077, -87.64427998456378)",2013-05-03
72392,05/03/2013,Completed,05/14/2013,13-00528122,Alley Light Out,3618 W FLOURNOY ST,60624.0,1152365.53571408,1896788.72337669,24.0,11.0,27.0,41.872651613506534,-87.71606625241245,"(41.872651613506534, -87.71606625241246)",2013-05-03
72393,05/04/2013,Completed - Dup,05/14/2013,13-00532722,Alley Light Out,8411 S MARYLAND AVE,60619.0,1183357.33703303,1849393.28847204,8.0,6.0,44.0,41.741926926913884,-87.60375951398193,"(41.74192692691388, -87.60375951398193)",2013-05-04
72394,05/06/2013,Completed,05/14/2013,13-00536619,Alley Light Out,9817 S SANGAMON ST,60643.0,1171715.2201076,1839631.98646701,21.0,22.0,73.0,41.715403474769,-87.64670108816509,"(41.715403474769, -87.6467010881651)",2013-05-06
72395,05/07/2013,Completed - Dup,05/14/2013,13-00544417,Alley Light Out,9807 S SANGAMON ST,60643.0,1171712.37570738,1839732.33048649,21.0,22.0,73.0,41.715678895781714,-87.64670857487549,"(41.71567889578171, -87.64670857487548)",2013-05-07
72396,05/08/2013,Completed - Dup,05/14/2013,13-00547794,Alley Light Out,8502 S INGLESIDE AVE,60619.0,1184036.33783157,1848812.70161758,8.0,6.0,44.0,41.74031791010418,-87.60128979419169,"(41.74031791010418, -87.60128979419169)",2013-05-08
72397,05/08/2013,Completed - Dup,05/14/2013,13-00547820,Alley Light Out,8502 S INGLESIDE AVE,60619.0,1184036.33783157,1848812.70161758,8.0,6.0,44.0,41.74031791010418,-87.60128979419169,"(41.74031791010418, -87.60128979419169)",2013-05-08
72398,05/08/2013,Completed,05/14/2013,13-00553730,Alley Light Out,1735 N WHIPPLE ST,60647.0,1155694.56132845,1911371.64799676,26.0,14.0,23.0,41.91260218234865,-87.70345078194576,"(41.91260218234865, -87.70345078194576)",2013-05-08
72399,05/09/2013,Completed,05/14/2013,13-00554023,Alley Light Out,2647 N NARRAGANSETT AVE,60639.0,1133295.00267477,1916904.60008392,29.0,25.0,19.0,41.92820719108575,-87.78561240803639,"(41.92820719108574, -87.78561240803639)",2013-05-09
72400,05/09/2013,Completed,05/14/2013,13-00554528,Alley Light Out,2849 N SPRINGFIELD AVE,60618.0,1149896.5101256,1918663.02781053,30.0,25.0,21.0,41.932725255402225,-87.72456131526958,"(41.932725255402225, -87.7245613152696)",2013-05-09
72401,05/09/2013,Completed,05/14/2013,13-00556690,Alley Light Out,3900 W 84TH PL,60652.0,1151871.46219713,1848252.48968782,18.0,8.0,70.0,41.73947098264347,-87.71915364669313,"(41.73947098264347, -87.71915364669312)",2013-05-09
72402,05/09/2013,Completed,05/14/2013,13-00556722,Alley Light Out,1644 N LOCKWOOD AVE,60639.0,1140813.41000316,1910508.01003327,37.0,25.0,25.0,41.91051914025814,-87.75814220895344,"(41.91051914025814, -87.75814220895344)",2013-05-09
72403,05/10/2013,Completed - Dup,05/14/2013,13-00562728,Alley Light Out,12547 S EGGLESTON AVE,60628.0,1175582.19782792,1821617.09001968,9.0,5.0,53.0,41.6658823775981,-87.63307480509697,"(41.6658823775981, -87.63307480509697)",2013-05-10
72404,05/10/2013,Completed,05/14/2013,13-00561570,Alley Light Out,8800 S ST LAWRENCE AVE,60619.0,1181778.15151645,1846765.49747955,6.0,6.0,44.0,41.734752561675364,-87.60962652199879,"(41.73475256167537, -87.60962652199878)",2013-05-10
72405,05/10/2013,Completed,05/14/2013,13-00561590,Alley Light Out,112 S MICHIGAN AVE,60603.0,1177324.29101512,1899904.74636756,42.0,1.0,32.0,41.88067307965163,-87.62433742572476,"(41.88067307965163, -87.62433742572475)",2013-05-10
72406,05/10/2013,Completed,05/14/2013,13-00562366,Alley Light Out,3453 N KEDZIE AVE,60618.0,1154439.97098944,1922802.45952599,33.0,17.0,21.0,41.943994421391395,-87.70775345762787,"(41.94399442139139, -87.70775345762786)",2013-05-10
72407,05/10/2013,Completed,05/14/2013,13-00562995,Alley Light Out,2130 N LAKEWOOD AVE,60614.0,1167300.02160678,1914291.48000195,32.0,18.0,7.0,41.920372581717096,-87.66073126469047,"(41.92037258171709, -87.66073126469047)",2013-05-10
72408,05/10/2013,Completed,05/14/2013,13-00563719,Alley Light Out,3424 N CENTRAL PARK AVE,60618.0,1151777.04648046,1922475.27987012,35.0,17.0,21.0,41.94314952810351,-87.71754985511649,"(41.94314952810351, -87.71754985511649)",2013-05-10
72409,05/10/2013,Completed,05/14/2013,13-00563881,Alley Light Out,1757 W CHASE AVE,60626.0,1163481.66380023,1948300.27009245,49.0,24.0,1.0,42.01377545922501,-87.67379871899023,"(42.01377545922501, -87.67379871899023)",2013-05-10
72410,05/10/2013,Completed,05/14/2013,13-00563974,Alley Light Out,2112 N LAKEWOOD AVE,60614.0,1167303.62160678,1914170.98000195,32.0,18.0,7.0,41.920041845353175,-87.66072151020609,"(41.920041845353175, -87.66072151020609)",2013-05-10
72411,05/10/2013,Completed,05/14/2013,13-00564290,Alley Light Out,2021 N SEMINARY AVE,60614.0,1168645.35987645,1913603.51340807,43.0,18.0,7.0,41.91845570259745,-87.65580823385305,"(41.918455702597456, -87.65580823385304)",2013-05-10
72412,05/10/2013,Completed,05/14/2013,13-00564515,Alley Light Out,2761 N SAWYER AVE,60647.0,1154201.05747667,1918257.4320325002,35.0,14.0,22.0,41.93152730745921,-87.70875331019371,"(41.931527307459206, -87.7087533101937)",2013-05-10
72413,05/10/2013,Completed,05/14/2013,13-00564938,Alley Light Out,2345 W BARRY AVE,60618.0,1160204.74918713,1920534.07219408,1.0,19.0,5.0,41.937652421804856,-87.68662761858307,"(41.93765242180486, -87.68662761858306)",2013-05-10
72414,05/11/2013,Completed,05/14/2013,13-00567105,Alley Light Out,4812 S JUSTINE ST,60609.0,1166816.65009409,1872818.5460819001,20.0,9.0,61.0,41.80657768804048,-87.6636958135997,"(41.80657768804048, -87.6636958135997)",2013-05-11
72415,05/12/2013,Completed,05/14/2013,13-00568333,Alley Light Out,9800 S PEORIA ST,60643.0,1172042.44779003,1839810.69787101,21.0,22.0,73.0,41.715886717641595,-87.6454973996041,"(41.71588671764159, -87.6454973996041)",2013-05-12
72416,05/12/2013,Completed,05/14/2013,13-00568516,Alley Light Out,4239 S RICHMOND ST,60632.0,1157396.97721413,1876391.90561124,14.0,9.0,58.0,41.816579651824775,-87.6981473270812,"(41.81657965182477, -87.6981473270812)",2013-05-12
72417,05/12/2013,Completed,05/14/2013,13-00568521,Alley Light Out,2447 W 45TH PL,60632.0,1160788.00310421,1874436.40007145,12.0,9.0,58.0,41.811144047744314,-87.68576223518782,"(41.81114404774431, -87.68576223518781)",2013-05-12
72418,05/13/2013,Completed,05/14/2013,13-00568946,Alley Light Out,5700 W HURON ST,60644.0,1138206.19419865,1904069.42741966,29.0,15.0,25.0,41.892898465524155,-87.76787619195025,"(41.892898465524155, -87.76787619195025)",2013-05-13
72419,05/13/2013,Completed,05/14/2013,13-00569987,Alley Light Out,5236 N SPAULDING AVE,60625.0,1153434.82767855,1934599.97393021,39.0,17.0,13.0,41.9763876423857,-87.71113306821967,"(41.9763876423857, -87.71113306821965)",2013-05-13
72420,05/13/2013,Completed,05/14/2013,13-00570583,Alley Light Out,1312 N HOMAN AVE,60651.0,1153457.16708454,1908562.94247242,26.0,14.0,23.0,41.90493963557545,-87.71174521099546,"(41.904939635575445, -87.71174521099547)",2013-05-13
72421,05/13/2013,Completed,05/14/2013,13-00570789,Alley Light Out,4166 W 25TH PL,60623.0,1149058.62737387,1886730.14542446,22.0,10.0,30.0,41.84511425683997,-87.72846768068237,"(41.84511425683997, -87.72846768068237)",2013-05-13
72422,05/13/2013,Completed,05/14/2013,13-00571184,Alley Light Out,5646 N OVERHILL AVE,60631.0,1124005.75653283,1936542.7733250998,41.0,16.0,10.0,41.98225443731133,-87.81931496440502,"(41.982254437311326, -87.81931496440501)",2013-05-13
72423,05/13/2013,Completed,05/14/2013,13-00571294,Alley Light Out,6248 N BELL AVE,60659.0,1160181.66167119,1941542.48009217,50.0,24.0,2.0,41.995301003162865,-87.68612924219376,"(41.99530100316287, -87.68612924219377)",2013-05-13
72424,05/13/2013,Completed,05/14/2013,13-00571902,Alley Light Out,4827 S LOOMIS BLVD,60609.0,1167812.3900298001,1872743.67687759,20.0,9.0,61.0,41.80635089123231,-87.66004592561589,"(41.806350891232306, -87.66004592561589)",2013-05-13
72425,05/13/2013,Completed,05/14/2013,13-00572407,Alley Light Out,4587 S ARCHER AVE,60632.0,1153980.42197073,1874005.45723208,14.0,8.0,58.0,41.810099533357246,-87.71074358917475,"(41.81009953335725, -87.71074358917475)",2013-05-13
72426,05/13/2013,Completed,05/14/2013,13-00573163,Alley Light Out,1851 N NARRAGANSETT AVE,60639.0,1133454.85702032,1911623.82700321,29.0,25.0,25.0,41.91371331060393,-87.78514903595304,"(41.91371331060393, -87.78514903595304)",2013-05-13
72427,05/13/2013,Completed,05/14/2013,13-00573391,Alley Light Out,2805 N FRANCISCO AVE,60618.0,1156560.59482297,1918509.40598826,35.0,14.0,21.0,41.93217124786485,-87.70007554194673,"(41.93217124786485, -87.70007554194673)",2013-05-13
72428,05/13/2013,Completed,05/14/2013,13-00574082,Alley Light Out,1011 W CULLERTON ST,60608.0,1169874.28002589,1890584.7704744998,25.0,12.0,31.0,41.855263977104684,-87.65196463962096,"(41.855263977104684, -87.65196463962096)",2013-05-13
72429,05/13/2013,Completed,05/14/2013,13-00574223,Alley Light Out,5045 N NORTHWEST HWY,60630.0,1139100.71956894,1932992.75941927,45.0,16.0,11.0,41.972250902389305,-87.76388536062912,"(41.972250902389305, -87.76388536062912)",2013-05-13
72430,05/14/2013,Completed,05/14/2013,13-00577589,Alley Light Out,9813 S SANGAMON ST,60643.0,1171714.07570738,1839672.13048649,21.0,22.0,73.0,41.71551366091558,-87.64670410697549,"(41.71551366091558, -87.6467041069755)",2013-05-14
72431,05/14/2013,Completed,05/14/2013,13-00580619,Alley Light Out,4111 N CLARENDON AVE,60613.0,1170184.13252111,1927396.52011332,46.0,19.0,3.0,41.956270804904364,-87.64975060943007,"(41.95627080490437, -87.64975060943007)",2013-05-14
72447,05/01/2013,Completed - Dup,05/15/2013,13-00514479,Alley Light Out,9062 S NORMAL AVE,60620.0,1174557.37052726,1844773.11348809,21.0,22.0,71.0,41.72944876629092,-87.63613933759632,"(41.729448766290915, -87.63613933759633)",2013-05-01
72448,05/01/2013,Completed,05/15/2013,13-00514260,Alley Light Out,9062 S NORMAL AVE,60620.0,1174557.37052726,1844773.11348809,21.0,22.0,71.0,41.72944876629092,-87.63613933759632,"(41.729448766290915, -87.63613933759633)",2013-05-01
72449,05/02/2013,Completed,05/15/2013,13-00521683,Alley Light Out,34 E 119TH PL,60628.0,1178599.57679236,1825737.29989643,9.0,5.0,53.0,41.67712105822577,-87.62190779951332,"(41.677121058225765, -87.62190779951332)",2013-05-02
72450,05/02/2013,Completed,05/15/2013,13-00521697,Alley Light Out,35 E 119TH PL,60628.0,1178605.57679236,1825737.49989643,9.0,5.0,53.0,41.677121471108066,-87.62188583182397,"(41.677121471108066, -87.62188583182399)",2013-05-02
72451,05/02/2013,Completed,05/15/2013,13-00525408,Alley Light Out,9338 S EMERALD AVE,60620.0,1172950.55368094,1842929.82771656,21.0,22.0,73.0,41.724426097679405,-87.64207974617729,"(41.724426097679405, -87.64207974617729)",2013-05-02
72452,05/03/2013,Completed - Dup,05/15/2013,13-00527834,Alley Light Out,7758 S KILBOURN AVE,60652.0,1147737.64742721,1852692.93798682,13.0,8.0,70.0,41.75173633183191,-87.73418621652249,"(41.75173633183191, -87.73418621652249)",2013-05-03
72453,05/03/2013,Completed - Dup,05/15/2013,13-00527854,Alley Light Out,7830 S KENNETH AVE,60652.0,1148089.56932183,1852266.5064292,13.0,8.0,70.0,41.75055939599612,-87.73290747175064,"(41.75055939599612, -87.73290747175064)",2013-05-03
72454,05/06/2013,Completed - Dup,05/15/2013,13-00539532,Alley Light Out,9062 S NORMAL AVE,60620.0,1174557.37052726,1844773.11348809,21.0,22.0,71.0,41.72944876629092,-87.63613933759632,"(41.729448766290915, -87.63613933759633)",2013-05-06
72455,05/06/2013,Completed,05/15/2013,13-00540132,Alley Light Out,10530 S AVENUE E,60617.0,1203823.48118116,1835749.32229254,10.0,4.0,52.0,41.703986317541315,-87.52924070965702,"(41.70398631754131, -87.52924070965702)",2013-05-06
72456,05/06/2013,Completed,05/15/2013,13-00540799,Alley Light Out,10343 S CALHOUN AVE,60617.0,1194844.35701226,1836904.98120172,10.0,4.0,51.0,41.70738292265979,-87.56208202657629,"(41.70738292265979, -87.5620820265763)",2013-05-06
72457,05/07/2013,Completed - Dup,05/15/2013,13-00544299,Alley Light Out,1936 S CHRISTIANA AVE,60623.0,1154339.55490537,1890269.50877278,24.0,10.0,29.0,41.854722985785216,-87.7089927565632,"(41.85472298578522, -87.7089927565632)",2013-05-07
72458,05/07/2013,Completed - Dup,05/15/2013,13-00547216,Alley Light Out,1936 S CHRISTIANA AVE,60623.0,1154339.55490537,1890269.50877278,24.0,10.0,29.0,41.854722985785216,-87.7089927565632,"(41.85472298578522, -87.7089927565632)",2013-05-07
72459,05/07/2013,Completed,05/15/2013,13-00541159,Alley Light Out,1936 S CHRISTIANA AVE,60623.0,1154339.55490537,1890269.50877278,24.0,10.0,29.0,41.854722985785216,-87.7089927565632,"(41.85472298578522, -87.7089927565632)",2013-05-07
72460,05/07/2013,Completed,05/15/2013,13-00545971,Alley Light Out,3851 W 110TH ST,60655.0,1152638.90221052,1831368.28023195,19.0,22.0,74.0,41.69312252360535,-87.71678482652649,"(41.69312252360535, -87.71678482652648)",2013-05-07
72461,05/07/2013,Completed,05/15/2013,13-00547126,Alley Light Out,7308 S WASHTENAW AVE,60629.0,1159639.4471181002,1856078.5591051998,18.0,8.0,66.0,41.76079127593668,-87.69047852403959,"(41.76079127593668, -87.69047852403959)",2013-05-07
72462,05/08/2013,Completed - Dup,05/15/2013,13-00548185,Alley Light Out,10530 S AVENUE E,60617.0,1203823.48118116,1835749.32229254,10.0,4.0,52.0,41.703986317541315,-87.52924070965702,"(41.70398631754131, -87.52924070965702)",2013-05-08
72463,05/08/2013,Completed - Dup,05/15/2013,13-00548336,Alley Light Out,1936 S CHRISTIANA AVE,60623.0,1154339.55490537,1890269.50877278,24.0,10.0,29.0,41.854722985785216,-87.7089927565632,"(41.85472298578522, -87.7089927565632)",2013-05-08
72464,05/08/2013,Completed - Dup,05/15/2013,13-00552749,Alley Light Out,1936 S CHRISTIANA AVE,60623.0,1154339.55490537,1890269.50877278,24.0,10.0,29.0,41.854722985785216,-87.7089927565632,"(41.85472298578522, -87.7089927565632)",2013-05-08
72465,05/08/2013,Completed,05/15/2013,13-00548562,Alley Light Out,469 W 126TH ST,60628.0,1175293.36163174,1821358.4399946,9.0,5.0,53.0,41.66517903489282,-87.634139522997,"(41.66517903489283, -87.634139522997)",2013-05-08
72466,05/08/2013,Completed,05/15/2013,13-00549006,Alley Light Out,10533 S SAWYER AVE,60655.0,1156545.90412372,1834485.49318495,19.0,22.0,74.0,41.70159910577169,-87.70239673416815,"(41.701599105771685, -87.70239673416816)",2013-05-08
72467,05/08/2013,Completed,05/15/2013,13-00553009,Alley Light Out,10124 S WASHTENAW AVE,60655.0,1160149.40321396,1837396.38393277,19.0,22.0,72.0,41.709513899746,-87.6891220097833,"(41.709513899746, -87.68912200978332)",2013-05-08
72468,05/08/2013,Completed,05/15/2013,13-00553688,Alley Light Out,6429 S KARLOV AVE,60629.0,1150142.62746642,1861650.52781313,13.0,8.0,65.0,41.77627115486803,-87.7251408605566,"(41.77627115486802, -87.7251408605566)",2013-05-08
72469,05/08/2013,Completed,05/15/2013,13-00553837,Alley Light Out,6314 S KNOX AVE,60629.0,1146464.03317963,1862332.73408015,13.0,8.0,64.0,41.778213842839065,-87.73860925047079,"(41.778213842839065, -87.7386092504708)",2013-05-08
72470,05/09/2013,Completed - Dup,05/15/2013,13-00554634,Alley Light Out,4350 W WILCOX ST,60624.0,1147748.79799361,1898990.08599017,28.0,11.0,26.0,41.87878226388799,-87.73296000838526,"(41.878782263887985, -87.73296000838525)",2013-05-09
72471,05/09/2013,Completed - Dup,05/15/2013,13-00556451,Alley Light Out,1936 S CHRISTIANA AVE,60623.0,1154339.55490537,1890269.50877278,24.0,10.0,29.0,41.854722985785216,-87.7089927565632,"(41.85472298578522, -87.7089927565632)",2013-05-09
72472,05/09/2013,Completed,05/15/2013,13-00554051,Alley Light Out,10214 S EGGLESTON AVE,60628.0,1175307.94532523,1837132.14988877,9.0,22.0,73.0,41.70846419218965,-87.6336172859902,"(41.70846419218966, -87.6336172859902)",2013-05-09
72473,05/09/2013,Completed,05/15/2013,13-00559991,Alley Light Out,6223 S THROOP ST,60636.0,1168694.65507141,1863481.02988562,16.0,7.0,67.0,41.780914104938134,-87.6570773261389,"(41.780914104938134, -87.6570773261389)",2013-05-09
72474,05/10/2013,Completed - Dup,05/15/2013,13-00560930,Alley Light Out,1936 S CHRISTIANA AVE,60623.0,1154339.55490537,1890269.50877278,24.0,10.0,29.0,41.854722985785216,-87.7089927565632,"(41.85472298578522, -87.7089927565632)",2013-05-10
72475,05/10/2013,Completed - Dup,05/15/2013,13-00563128,Alley Light Out,7758 S KILBOURN AVE,60652.0,1147737.64742721,1852692.93798682,13.0,8.0,70.0,41.75173633183191,-87.73418621652249,"(41.75173633183191, -87.73418621652249)",2013-05-10
72476,05/10/2013,Completed - Dup,05/15/2013,13-00563169,Alley Light Out,7830 S KENNETH AVE,60652.0,1148089.56932183,1852266.5064292,13.0,8.0,70.0,41.75055939599612,-87.73290747175064,"(41.75055939599612, -87.73290747175064)",2013-05-10
72477,05/10/2013,Completed - Dup,05/15/2013,13-00563497,Alley Light Out,9062 S NORMAL AVE,60620.0,1174557.37052726,1844773.11348809,21.0,22.0,71.0,41.72944876629092,-87.63613933759632,"(41.729448766290915, -87.63613933759633)",2013-05-10
72478,05/10/2013,Completed,05/15/2013,13-00561585,Alley Light Out,2018 W ADDISON ST,60618.0,1162184.4614053,1923902.58400409,47.0,19.0,5.0,41.94685459815922,-87.67925735752691,"(41.94685459815922, -87.67925735752691)",2013-05-10
72479,05/10/2013,Completed,05/15/2013,13-00563188,Alley Light Out,5658 S KOLIN AVE,60629.0,1148330.50997031,1866729.91969869,13.0,8.0,62.0,41.790244798463654,-87.73165375820422,"(41.79024479846366, -87.73165375820422)",2013-05-10
72480,05/10/2013,Completed,05/15/2013,13-00563946,Alley Light Out,2500 S KEELER AVE,60623.0,1148783.39458365,1887055.64508749,22.0,10.0,30.0,41.84601278505758,-87.72946936153673,"(41.84601278505758, -87.72946936153673)",2013-05-10
72481,05/10/2013,Completed,05/15/2013,13-00564973,Alley Light Out,8226 S RICHMOND ST,60652.0,1158142.97407082,1849928.51988068,18.0,8.0,70.0,41.743945160503394,-87.69613015396023,"(41.74394516050339, -87.69613015396023)",2013-05-10
72482,05/10/2013,Completed,05/15/2013,13-00565699,Alley Light Out,1421 W HIGHLAND AVE,60660.0,1165678.3774158,1942317.47990454,40.0,24.0,77.0,41.997311841241114,-87.66588742494692,"(41.997311841241114, -87.66588742494692)",2013-05-10
72483,05/11/2013,Completed - Dup,05/15/2013,13-00567148,Alley Light Out,1936 S CHRISTIANA AVE,60623.0,1154339.55490537,1890269.50877278,24.0,10.0,29.0,41.854722985785216,-87.7089927565632,"(41.85472298578522, -87.7089927565632)",2013-05-11
72484,05/11/2013,Completed - Dup,05/15/2013,13-00567400,Alley Light Out,1048 N CENTRAL AVE,60651.0,1138818.95530106,1906533.82002765,29.0,15.0,25.0,41.89964995872757,-87.76556582728945,"(41.899649958727565, -87.76556582728945)",2013-05-11
72485,05/11/2013,Completed,05/15/2013,13-00566485,Alley Light Out,6338 S WINCHESTER AVE,60636.0,1164445.4958865,1862620.97040974,15.0,7.0,67.0,41.778644634018214,-87.67267984547202,"(41.77864463401821, -87.67267984547202)",2013-05-11
72486,05/11/2013,Completed,05/15/2013,13-00567282,Alley Light Out,4374 W 25TH ST,60623.0,1147661.07631808,1887026.18990463,22.0,10.0,30.0,41.8459535376229,-87.73358898619638,"(41.845953537622904, -87.73358898619638)",2013-05-11
72487,05/11/2013,Completed,05/15/2013,13-00567399,Alley Light Out,1048 N CENTRAL AVE,60651.0,1138818.95530106,1906533.82002765,29.0,15.0,25.0,41.89964995872757,-87.76556582728945,"(41.899649958727565, -87.76556582728945)",2013-05-11
72488,05/12/2013,Completed,05/15/2013,13-00567427,Alley Light Out,5545 S JUSTINE ST,60636.0,1166956.28011891,1867877.38759696,16.0,7.0,67.0,41.793015588132036,-87.66332495621657,"(41.79301558813204, -87.66332495621657)",2013-05-12
72489,05/12/2013,Completed,05/15/2013,13-00568366,Alley Light Out,1627 W 37TH PL,60609.0,1166077.02779272,1879864.74997531,11.0,9.0,59.0,41.82592902866715,-87.66620786586029,"(41.82592902866715, -87.66620786586029)",2013-05-12
72490,05/12/2013,Completed,05/15/2013,13-00568380,Alley Light Out,1449 N MAPLEWOOD AVE,60622.0,1159142.32391675,1909550.01178384,26.0,14.0,24.0,41.90753329037239,-87.69083468877054,"(41.90753329037239, -87.69083468877054)",2013-05-12
72491,05/12/2013,Completed,05/15/2013,13-00568436,Alley Light Out,2841 W 39TH PL,60632.0,1158063.1870771002,1878325.8808113998,14.0,9.0,58.0,41.82187318132187,-87.69565084644806,"(41.82187318132187, -87.69565084644806)",2013-05-12
72492,05/12/2013,Completed,05/15/2013,13-00568476,Alley Light Out,1831 S ST LOUIS AVE,60623.0,1153332.10716809,1890827.19161905,24.0,10.0,29.0,41.85627337422354,-87.71267574663808,"(41.85627337422354, -87.7126757466381)",2013-05-12
72493,05/12/2013,Completed,05/15/2013,13-00568517,Alley Light Out,10801 S HAMLIN AVE,60655.0,1152937.79017367,1832711.88011293,19.0,22.0,74.0,41.696803747370595,-87.71565524620209,"(41.69680374737059, -87.71565524620209)",2013-05-12
72494,05/12/2013,Completed,05/15/2013,13-00568523,Alley Light Out,7933 S TALMAN AVE,60652.0,1160092.53627611,1851799.11992336,18.0,8.0,70.0,41.74903854122904,-87.68893539633714,"(41.749038541229034, -87.68893539633714)",2013-05-12
72495,05/13/2013,Completed - Dup,05/15/2013,13-00570105,Alley Light Out,6245 S MASON AVE,60638.0,1137815.60789261,1862520.04496644,13.0,8.0,64.0,41.77888761498752,-87.7703108933997,"(41.77888761498752, -87.7703108933997)",2013-05-13
72496,05/13/2013,Completed - Dup,05/15/2013,13-00570129,Alley Light Out,7758 S KILBOURN AVE,60652.0,1147737.64742721,1852692.93798682,13.0,8.0,70.0,41.75173633183191,-87.73418621652249,"(41.75173633183191, -87.73418621652249)",2013-05-13
72497,05/13/2013,Completed - Dup,05/15/2013,13-00570141,Alley Light Out,7830 S KENNETH AVE,60652.0,1148089.56932183,1852266.5064292,13.0,8.0,70.0,41.75055939599612,-87.73290747175064,"(41.75055939599612, -87.73290747175064)",2013-05-13
