,Creation Date,Status,Completion Date,Service Request Number,Type of Service Request,What is the Nature of this Code Violation?,Street Address,ZIP Code,X Coordinate,Y Coordinate,Ward,Police District,Community Area,Latitude,Longitude,Location,date
41495,05/01/2013,Completed,05/01/2013,13-00514513,Sanitation Code Violation,Garbage in alley,2301 W DICKENS AVE,60647.0,1160690.18060171,1913790.26640541,32.0,14.0,22.0,41.919136907057506,-87.6850309676015,"(41.919136907057506, -87.6850309676015)",2013-05-01
41496,05/01/2013,Completed,05/01/2013,13-00514879,Sanitation Code Violation,Garbage in alley,11 E DIVISION ST,60610.0,1176178.01999077,1908377.26852701,42.0,18.0,8.0,41.90394802797707,-87.62829075200341,"(41.90394802797707, -87.6282907520034)",2013-05-01
41553,05/01/2013,Completed,05/02/2013,13-00514332,Sanitation Code Violation,Other,6540 N KEDZIE AVE,60645.0,1153853.10746907,1943186.12989923,50.0,0.0,2.0,41.99994014524353,-87.70936483113566,"(41.99994014524352, -87.70936483113566)",2013-05-01
41554,05/01/2013,Completed,05/02/2013,13-00514551,Sanitation Code Violation,Construction Site Cleanliness/Fence,2121 W GRAND AVE,60612.0,1162172.93980258,1903465.9304082,26.0,12.0,24.0,41.890775266790904,-87.67987209914125,"(41.890775266790904, -87.67987209914125)",2013-05-01
41555,05/01/2013,Completed,05/02/2013,13-00514650,Sanitation Code Violation,Overflowing carts,3533 W SHAKESPEARE AVE,60647.0,1152535.60438,1914062.91989288,26.0,14.0,22.0,41.92005034419214,-87.71498475760738,"(41.92005034419214, -87.71498475760737)",2013-05-01
41556,05/01/2013,Completed,05/02/2013,13-00514681,Sanitation Code Violation,Garbage in yard,3129 W AUGUSTA BLVD,60622.0,1155289.23391524,1906488.38428685,26.0,12.0,23.0,41.899210235137204,-87.70507125059116,"(41.8992102351372, -87.70507125059116)",2013-05-01
41557,05/01/2013,Completed,05/02/2013,13-00514980,Sanitation Code Violation,Overflowing carts,1267 N WOLCOTT AVE,60622.0,1163496.08032743,1908699.92999701,1.0,14.0,24.0,41.905110004363955,-87.67486535405891,"(41.90511000436395, -87.67486535405892)",2013-05-01
41558,05/01/2013,Completed,05/02/2013,13-00515261,Sanitation Code Violation,Overflowing carts,1501 N WICKER PARK AVE,60622.0,1163120.43626893,1909819.2355915,1.0,14.0,24.0,41.90818936400961,-87.67621371340557,"(41.90818936400961, -87.67621371340557)",2013-05-01
41559,05/01/2013,Completed,05/02/2013,13-00515375,Sanitation Code Violation,Dumpster not being emptied,2700 W ARGYLE ST,60625.0,1157460.95027643,1933101.37540448,40.0,20.0,4.0,41.97219421253122,-87.69636830379312,"(41.97219421253122, -87.69636830379312)",2013-05-01
41560,05/01/2013,Completed,05/02/2013,13-00516600,Sanitation Code Violation,Other,1834 W ARMITAGE AVE,60622.0,1163692.81608549,1913335.57322191,32.0,14.0,22.0,41.91782638184669,-87.67401178741507,"(41.91782638184669, -87.67401178741507)",2013-05-01
41561,05/01/2013,Completed,05/02/2013,13-00517412,Sanitation Code Violation,Garbage in alley,1056 N MARSHFIELD AVE,60622.0,1165196.84721912,1907293.76543195,1.0,12.0,24.0,41.901215396124115,-87.66865794121149,"(41.901215396124115, -87.66865794121149)",2013-05-01
41562,05/01/2013,Completed,05/02/2013,13-00517416,Sanitation Code Violation,Other,6828 W HIGHLAND AVE,60631.0,1129931.89001562,1941583.73002246,41.0,16.0,10.0,41.995987634845314,-87.79740367134167,"(41.99598763484531, -87.79740367134167)",2013-05-01
41563,05/01/2013,Completed,05/02/2013,13-00517716,Sanitation Code Violation,Garbage in yard,4123 W HENDERSON ST,60641.0,1148207.41989765,1921942.06359474,31.0,17.0,16.0,41.94175595604679,-87.73068389345991,"(41.94175595604679, -87.7306838934599)",2013-05-01
41564,05/01/2013,Completed,05/02/2013,13-00518068,Sanitation Code Violation,Garbage in alley,2000 E 72ND PL,60649.0,1190798.32079915,1857294.94399488,5.0,3.0,43.0,41.763433409518974,-87.57624157499329,"(41.763433409518974, -87.57624157499328)",2013-05-01
41565,05/01/2013,Completed,05/02/2013,13-00518109,Sanitation Code Violation,Other,2045 W CORTLAND ST,60647.0,1162419.69003088,1912738.64997807,32.0,14.0,22.0,41.91621514650056,-87.67870604209881,"(41.916215146500555, -87.67870604209882)",2013-05-01
41566,05/01/2013,Completed,05/02/2013,13-00518327,Sanitation Code Violation,Garbage in alley,7046 S CRANDON AVE,60649.0,1192543.55988909,1858657.31239448,5.0,3.0,43.0,41.767129523267016,-87.56980071585079,"(41.767129523267016, -87.56980071585079)",2013-05-01
41567,05/01/2013,Completed,05/02/2013,13-00518390,Sanitation Code Violation,Other,10229 S CALUMET AVE,60628.0,1180385.77192277,1837217.66733369,9.0,5.0,49.0,41.70858413212756,-87.61501941817338,"(41.708584132127555, -87.61501941817338)",2013-05-01
41568,05/01/2013,Completed,05/02/2013,13-00518490,Sanitation Code Violation,Garbage in alley,2300 N KIMBALL AVE,60647.0,1153326.73812609,1915083.54519523,26.0,14.0,22.0,41.9228353357968,-87.71205081246424,"(41.9228353357968, -87.71205081246424)",2013-05-01
41569,05/01/2013,Completed,05/02/2013,13-00518786,Sanitation Code Violation,Garbage in alley,220 W ONTARIO ST,60654.0,1174542.9900703998,1904441.38086918,42.0,18.0,8.0,41.893184464259384,-87.63441433804968,"(41.89318446425938, -87.63441433804968)",2013-05-01
41570,05/01/2013,Completed,05/02/2013,13-00518817,Sanitation Code Violation,Other,6977 N ASHLAND BLVD,60626.0,1164512.7697778998,1946415.53597033,49.0,24.0,1.0,42.008581851096494,-87.67005844504403,"(42.008581851096494, -87.67005844504403)",2013-05-01
41571,05/01/2013,Completed,05/02/2013,13-00519188,Sanitation Code Violation,Overflowing carts,2009 N HALSTED ST,60614.0,1170630.66502003,1913578.82042056,43.0,18.0,7.0,41.91834467268321,-87.64851483883673,"(41.918344672683205, -87.64851483883672)",2013-05-01
41572,05/01/2013,Completed,05/02/2013,13-00519394,Sanitation Code Violation,Garbage in yard,5633 S THROOP ST,60636.0,1168619.31227391,1867412.77388743,16.0,7.0,67.0,41.791704905493134,-87.65724020061432,"(41.79170490549313, -87.65724020061431)",2013-05-01
41573,05/01/2013,Completed,05/02/2013,13-00519552,Sanitation Code Violation,Overflowing carts,1015 S WESTERN AVE,60612.0,1160537.2615058,1895481.29002372,25.0,12.0,28.0,41.86889871661043,-87.68610025820072,"(41.86889871661043, -87.68610025820072)",2013-05-01
41574,05/01/2013,Completed,05/02/2013,13-00519709,Sanitation Code Violation,Garbage in alley,2614 E 105TH ST,60617.0,1195342.72190655,1835890.04339391,10.0,4.0,51.0,41.70458556988836,-87.56029040875795,"(41.70458556988836, -87.56029040875795)",2013-05-01
41575,05/01/2013,Completed,05/02/2013,13-00519754,Sanitation Code Violation,Dog feces in yard,6342 S RICHMOND ST,60629.0,1157805.27138933,1862441.09822735,15.0,8.0,66.0,41.77828845023721,-87.69702840605284,"(41.778288450237206, -87.69702840605285)",2013-05-01
41576,05/01/2013,Completed,05/02/2013,13-00520055,Sanitation Code Violation,Dumpster not being emptied,6715 N MAPLEWOOD AVE,60645.0,1158104.4578155,1944480.15551394,50.0,24.0,2.0,42.00340491995402,-87.69368951357252,"(42.00340491995402, -87.69368951357251)",2013-05-01
41577,05/01/2013,Completed,05/02/2013,13-00520179,Sanitation Code Violation,Garbage in yard,2753 W ARGYLE ST,60625.0,1157012.58999815,1933093.66997064,40.0,20.0,4.0,41.97218220417633,-87.6980172135616,"(41.97218220417633, -87.6980172135616)",2013-05-01
41644,05/02/2013,Completed,05/03/2013,13-00520449,Sanitation Code Violation,Garbage in alley,4839 N ELSTON AVE,60630.0,1145255.08432014,1931777.88500136,39.0,17.0,14.0,41.96880271010518,-87.7412853191882,"(41.96880271010518, -87.7412853191882)",2013-05-02
41645,05/02/2013,Completed,05/03/2013,13-00520657,Sanitation Code Violation,Garbage in alley,2403 S LEAVITT ST,60608.0,1162080.81182889,1888019.65938538,25.0,10.0,31.0,41.84839119767338,-87.68064175773917,"(41.84839119767338, -87.68064175773917)",2013-05-02
41646,05/02/2013,Completed,05/03/2013,13-00521968,Sanitation Code Violation,Garbage in yard,3637 N OSCEOLA AVE,60634.0,1125766.49027949,1923235.64521017,36.0,16.0,17.0,41.945709006874864,-87.81313640965395,"(41.945709006874864, -87.81313640965396)",2013-05-02
41647,05/02/2013,Completed,05/03/2013,13-00522137,Sanitation Code Violation,Overflowing carts,2126 N SHEFFIELD AVE,60614.0,1169283.27901164,1914316.91479353,32.0,18.0,7.0,41.920399460709945,-87.65344370228411,"(41.920399460709945, -87.65344370228411)",2013-05-02
41648,05/02/2013,Completed,05/03/2013,13-00522921,Sanitation Code Violation,,5200 S KOSTNER AVE,60632.0,1147909.88591373,1869774.71732214,23.0,8.0,57.0,41.798608265830026,-87.7331181451945,"(41.798608265830026, -87.7331181451945)",2013-05-02
41649,05/02/2013,Completed,05/03/2013,13-00523270,Sanitation Code Violation,Dumpster not being emptied,2551 W ROSEMONT AVE,60659.0,1158079.77998545,1941727.76661292,50.0,24.0,2.0,41.99585276824681,-87.69385592741348,"(41.995852768246806, -87.69385592741348)",2013-05-02
41650,05/02/2013,Completed,05/03/2013,13-00524030,Sanitation Code Violation,Dumpster not being emptied,3342 W SUNNYSIDE AVE,60625.0,1153191.95809262,1929707.67229084,33.0,17.0,14.0,41.96296770429856,-87.71215664697456,"(41.962967704298556, -87.71215664697456)",2013-05-02
41651,05/02/2013,Completed,05/03/2013,13-00524146,Sanitation Code Violation,Other,6200 N PAULINA ST,60660.0,1164057.09512257,1941247.25222058,40.0,24.0,77.0,41.99440963011424,-87.67188188759262,"(41.99440963011424, -87.67188188759263)",2013-05-02
41652,05/02/2013,Completed,05/03/2013,13-00524532,Sanitation Code Violation,Construction Site Cleanliness/Fence,2141 N MAGNOLIA AVE,60614.0,1167628.65822748,1914372.48249488,32.0,18.0,7.0,41.920587777759856,-87.65952145885626,"(41.920587777759856, -87.65952145885625)",2013-05-02
41653,05/02/2013,Completed,05/03/2013,13-00524569,Sanitation Code Violation,Other,3055 W GEORGE ST,60618.0,1155421.28839898,1919122.61562123,35.0,14.0,21.0,41.93387695602343,-87.70424582163471,"(41.93387695602344, -87.70424582163471)",2013-05-02
41654,05/02/2013,Completed,05/03/2013,13-00525089,Sanitation Code Violation,Other,8323 S BRANDON AVE,60617.0,1198930.37501914,1850299.23008347,10.0,4.0,46.0,41.74403642679897,-87.54667106979481,"(41.74403642679897, -87.54667106979481)",2013-05-02
41655,05/02/2013,Completed,05/03/2013,13-00525562,Sanitation Code Violation,Garbage in yard,619 E 100TH PL,60628.0,1182149.76390074,1838461.6201279,9.0,5.0,49.0,41.71195713578729,-87.60852124774105,"(41.71195713578729, -87.60852124774104)",2013-05-02
41656,05/03/2013,Completed,05/03/2013,13-00526371,Sanitation Code Violation,,2205 W HIGHLAND AVE,60659.0,1160438.61272221,1942127.38903338,50.0,24.0,2.0,41.99690068040379,-87.6851677623543,"(41.99690068040379, -87.6851677623543)",2013-05-03
41657,05/03/2013,Completed,05/03/2013,13-00526629,Sanitation Code Violation,Garbage in alley,5134 W BLOOMINGDALE AVE,60639.0,1141983.99298748,1911486.2142233,37.0,25.0,25.0,41.913181818655545,-87.7538175891017,"(41.913181818655545, -87.7538175891017)",2013-05-03
41659,05/01/2013,Completed - Dup,05/03/2013,13-00514411,Sanitation Code Violation,Overflowing carts,2758 N MONTICELLO AVE,60647.0,1151577.95991293,1918098.68147239,35.0,25.0,22.0,41.93114371391376,-87.71839699013302,"(41.931143713913755, -87.71839699013302)",2013-05-01
41660,05/01/2013,Completed,05/03/2013,13-00514408,Sanitation Code Violation,Overflowing carts,3635 W DIVERSEY AVE,60647.0,1151546.55991293,1918371.68147239,35.0,25.0,22.0,41.93189346646572,-87.71850518567196,"(41.93189346646572, -87.71850518567196)",2013-05-01
41661,05/01/2013,Completed,05/03/2013,13-00515101,Sanitation Code Violation,Other,8300 S SAGINAW AVE,60617.0,1195278.08898016,1850450.30963322,7.0,4.0,46.0,41.74454184408067,-87.56004813481434,"(41.74454184408067, -87.56004813481435)",2013-05-01
41662,05/01/2013,Completed,05/03/2013,13-00515476,Sanitation Code Violation,Dumpster not being emptied,4523 N SPAULDING AVE,60625.0,1153569.86191429,1929860.19861566,33.0,17.0,14.0,41.963378720151404,-87.71076315042609,"(41.963378720151404, -87.71076315042608)",2013-05-01
41663,05/01/2013,Completed,05/03/2013,13-00516509,Sanitation Code Violation,Other,3535 N PLAINFIELD AVE,60634.0,1120126.94491042,1922428.77243055,36.0,16.0,17.0,41.943586891546715,-87.83388317796991,"(41.94358689154672, -87.83388317796992)",2013-05-01
41664,05/01/2013,Completed,05/03/2013,13-00516529,Sanitation Code Violation,Garbage in yard,3040 N NAGLE AVE,60634.0,1132884.81711016,1919516.96559181,36.0,25.0,19.0,41.93538300553051,-87.7870585563632,"(41.93538300553051, -87.7870585563632)",2013-05-01
41665,05/01/2013,Completed,05/03/2013,13-00516757,Sanitation Code Violation,Dumpster not being emptied,8071 S CICERO AVE,60652.0,1145823.91891535,1850631.81003167,13.0,8.0,70.0,41.7461165783709,-87.7412512324354,"(41.746116578370895, -87.74125123243539)",2013-05-01
41666,05/01/2013,Completed,05/03/2013,13-00517857,Sanitation Code Violation,Garbage in alley,3528 N OLEANDER AVE,60634.0,1125125.14259171,1922533.22740505,36.0,16.0,17.0,41.94379214304626,-87.81550942788077,"(41.94379214304626, -87.81550942788077)",2013-05-01
41667,05/01/2013,Completed,05/03/2013,13-00518972,Sanitation Code Violation,Garbage in yard,4515 N SPAULDING AVE,60625.0,1153571.36191429,1929810.29861566,33.0,17.0,14.0,41.96324176147122,-87.71075896845045,"(41.96324176147122, -87.71075896845046)",2013-05-01
41668,05/01/2013,Completed,05/03/2013,13-00519273,Sanitation Code Violation,Dog feces in yard,7824 S SOUTH SHORE DR,60649.0,1197866.25891564,1854001.72687878,7.0,4.0,43.0,41.75422297286538,-87.5504465664357,"(41.75422297286538, -87.55044656643571)",2013-05-01
41669,05/01/2013,Completed,05/03/2013,13-00519466,Sanitation Code Violation,Overflowing carts,2341 N MONTICELLO AVE,60647.0,1151655.77679,1915320.03081083,35.0,25.0,22.0,41.92351732931919,-87.71818428237727,"(41.92351732931919, -87.71818428237727)",2013-05-01
41670,05/01/2013,Completed,05/03/2013,13-00519639,Sanitation Code Violation,Garbage in alley,3929 N ODELL AVE,60634.0,1126371.27779725,1925192.93537812,36.0,16.0,17.0,41.951069950022095,-87.81086952032896,"(41.951069950022095, -87.81086952032895)",2013-05-01
41671,05/01/2013,Completed,05/03/2013,13-00519794,Sanitation Code Violation,Overflowing carts,3429 W DIVERSEY AVE,60647.0,1153048.1422164,1918410.39879857,35.0,14.0,22.0,41.93197002911002,-87.71298603293306,"(41.931970029110026, -87.71298603293307)",2013-05-01
41672,05/01/2013,Completed,05/03/2013,13-00520195,Sanitation Code Violation,Other,928 W GUNNISON ST,60640.0,1169220.56888759,1932411.24693371,48.0,20.0,3.0,41.97005241366921,-87.65314654357748,"(41.9700524136692, -87.65314654357748)",2013-05-01
41761,05/01/2013,Completed,05/05/2013,13-00516137,Sanitation Code Violation,Garbage in yard,5025 W WASHINGTON BLVD,60644.0,1142872.06249314,1900035.8185082,28.0,15.0,25.0,41.881744099963775,-87.75084058453497,"(41.881744099963775, -87.75084058453497)",2013-05-01
41771,05/06/2013,Completed,05/06/2013,13-00534960,Sanitation Code Violation,Garbage in alley,3255 W EVERGREEN AVE,60651.0,1154410.97457075,1908794.29052405,26.0,14.0,23.0,41.905555456462466,-87.70823537572414,"(41.905555456462466, -87.70823537572414)",2013-05-06
41772,05/06/2013,Completed,05/06/2013,13-00534965,Sanitation Code Violation,Other,1307 W WRIGHTWOOD AVE,60614.0,1167118.34012594,1917391.3659753997,32.0,19.0,7.0,41.928882748686405,-87.66130953257456,"(41.928882748686405, -87.66130953257456)",2013-05-06
41773,05/06/2013,Completed,05/06/2013,13-00535068,Sanitation Code Violation,Dumpster not being emptied,3911 W ADDISON ST,60618.0,1149620.35668322,1923644.13392747,30.0,17.0,21.0,41.94639919817564,-87.72544635373144,"(41.94639919817564, -87.72544635373144)",2013-05-06
41774,05/04/2013,Completed - Dup,05/06/2013,13-00532477,Sanitation Code Violation,Garbage in yard,3128 W WALTON ST,60622.0,1155306.42796843,1906164.59540269,26.0,12.0,23.0,41.898321383263365,-87.70501680686738,"(41.89832138326337, -87.70501680686738)",2013-05-04
41775,05/04/2013,Completed,05/06/2013,13-00531863,Sanitation Code Violation,Overflowing carts,4800 S MORGAN ST,60609.0,1170455.99737768,1872990.97991701,20.0,9.0,61.0,41.80697227853473,-87.65034290555313,"(41.80697227853473, -87.65034290555313)",2013-05-04
41776,05/04/2013,Completed,05/06/2013,13-00531864,Sanitation Code Violation,Overflowing carts,4800 S ABERDEEN ST,60609.0,1169792.75081042,1872975.0477238,20.0,9.0,61.0,41.806942996490356,-87.65277594397692,"(41.80694299649036, -87.65277594397692)",2013-05-04
41777,05/04/2013,Completed,05/06/2013,13-00531866,Sanitation Code Violation,Dog feces in yard,551 W 42ND ST,60609.0,1173316.76379276,1877066.55007368,11.0,9.0,61.0,41.818093173924815,-87.63972990556265,"(41.81809317392482, -87.63972990556265)",2013-05-04
41778,05/04/2013,Completed,05/06/2013,13-00531925,Sanitation Code Violation,Other,1400 W GREENLEAF AVE,60626.0,1165660.11217771,1947067.02572782,49.0,24.0,1.0,42.010345080209454,-87.66581839704489,"(42.01034508020945, -87.66581839704489)",2013-05-04
41779,05/04/2013,Completed,05/06/2013,13-00531926,Sanitation Code Violation,Garbage in alley,933 S LAFLIN ST,60607.0,1166526.09023334,1895962.88557339,25.0,12.0,28.0,41.870094241708436,-87.6641001035053,"(41.87009424170844, -87.66410010350532)",2013-05-04
41780,05/04/2013,Completed,05/06/2013,13-00532023,Sanitation Code Violation,Garbage in alley,6456 W 63RD ST,60638.0,1134374.81000112,1862046.98373025,23.0,8.0,64.0,41.777650573992645,-87.78293653215349,"(41.77765057399265, -87.78293653215349)",2013-05-04
41781,05/04/2013,Completed,05/06/2013,13-00532171,Sanitation Code Violation,Other,515 W 35TH ST,60616.0,1173372.02856637,1881711.82899059,11.0,9.0,60.0,41.83083901700146,-87.63938954260382,"(41.83083901700146, -87.63938954260381)",2013-05-04
41782,05/04/2013,Completed,05/06/2013,13-00532475,Sanitation Code Violation,Other,3128 W WALTON ST,60622.0,1155306.42796843,1906164.59540269,26.0,12.0,23.0,41.898321383263365,-87.70501680686738,"(41.89832138326337, -87.70501680686738)",2013-05-04
41783,05/04/2013,Completed,05/06/2013,13-00532476,Sanitation Code Violation,Dog feces in yard,3137 W AUGUSTA BLVD,60622.0,1155239.33391524,1906487.38428685,26.0,12.0,23.0,41.899208493656616,-87.70525455975239,"(41.89920849365662, -87.70525455975239)",2013-05-04
41784,05/04/2013,Completed,05/06/2013,13-00532589,Sanitation Code Violation,Garbage in alley,8521 S BURLEY AVE,60617.0,1199291.10636819,1849091.92701318,10.0,4.0,46.0,41.740714443499506,-87.54538985185295,"(41.74071444349951, -87.54538985185295)",2013-05-04
41785,05/04/2013,Completed,05/06/2013,13-00532807,Sanitation Code Violation,Construction Site Cleanliness/Fence,4107 N KENNETH AVE,60641.0,1145812.17519099,1926948.55399725,38.0,17.0,16.0,41.95554006377112,-87.73935998358498,"(41.95554006377112, -87.73935998358499)",2013-05-04
41786,05/04/2013,Completed,05/06/2013,13-00532953,Sanitation Code Violation,Dog feces in yard,10644 S FOREST AVE,60628.0,1180131.96929965,1834448.76761783,9.0,5.0,49.0,41.700991705368686,-87.6160333158803,"(41.700991705368686, -87.61603331588029)",2013-05-04
41787,05/04/2013,Completed,05/06/2013,13-00533106,Sanitation Code Violation,Other,2007 W BIRCHWOOD AVE,60645.0,1161582.25740916,1949798.0423798,49.0,24.0,1.0,42.017925324584695,-87.68074567559219,"(42.017925324584695, -87.6807456755922)",2013-05-04
41788,05/04/2013,Completed,05/06/2013,13-00533121,Sanitation Code Violation,Overflowing carts,1037 W 48TH ST,60609.0,1170208.09737768,1872984.97991701,20.0,9.0,61.0,41.80696121623085,-87.65125229769144,"(41.806961216230846, -87.65125229769144)",2013-05-04
41789,05/04/2013,Completed,05/06/2013,13-00533329,Sanitation Code Violation,Overflowing carts,2230 N SAWYER AVE,60647.0,1154144.40089904,1914636.40212201,26.0,14.0,22.0,41.92159204297924,-87.70905839441157,"(41.92159204297924, -87.70905839441157)",2013-05-04
41790,05/05/2013,Completed,05/06/2013,13-00533431,Sanitation Code Violation,Garbage in yard,5745 W WINDSOR AVE,60630.0,1137217.46962137,1929692.28110419,38.0,16.0,15.0,41.963228229911365,-87.7708901709857,"(41.963228229911365, -87.77089017098571)",2013-05-05
41791,05/05/2013,Completed,05/06/2013,13-00533803,Sanitation Code Violation,Overflowing carts,6656 N GLENWOOD AVE,60626.0,1165723.37450981,1944394.63012386,40.0,24.0,1.0,42.003010623673504,-87.66566231573877,"(42.00301062367351, -87.66566231573877)",2013-05-05
41792,05/05/2013,Completed,05/06/2013,13-00533899,Sanitation Code Violation,Overflowing carts,5904 N CAMPBELL AVE,60659.0,1158591.29907103,1939122.0496314,40.0,20.0,2.0,41.98869207966753,-87.69204606586142,"(41.98869207966753, -87.69204606586142)",2013-05-05
41793,05/05/2013,Completed,05/06/2013,13-00533972,Sanitation Code Violation,Dumpster not being emptied,2047 W DIVISION ST,60622.0,1162534.65991313,1907985.60013146,1.0,12.0,24.0,41.9031700267909,-87.67841698162113,"(41.90317002679091, -87.67841698162113)",2013-05-05
41794,05/05/2013,Completed,05/06/2013,13-00533974,Sanitation Code Violation,Dumpster not being emptied,837 W WOLFRAM ST,60657.0,1170196.19016678,1919137.80999604,44.0,19.0,6.0,41.933608317722786,-87.64994834379142,"(41.933608317722786, -87.64994834379142)",2013-05-05
41795,05/05/2013,Completed,05/06/2013,13-00533989,Sanitation Code Violation,Overflowing carts,3038 S GRATTEN AVE,60608.0,1169293.75692335,1884744.30839826,11.0,9.0,60.0,41.83924985429215,-87.65426492486915,"(41.83924985429215, -87.65426492486915)",2013-05-05
41796,05/05/2013,Completed,05/06/2013,13-00534148,Sanitation Code Violation,Other,3330 N KENMORE AVE,60657.0,1168689.29422683,1922285.27639868,44.0,19.0,6.0,41.94227793574948,-87.65539460424581,"(41.94227793574948, -87.65539460424581)",2013-05-05
41797,05/05/2013,Completed,05/06/2013,13-00534186,Sanitation Code Violation,Garbage in yard,12021 S STATE ST,60628.0,1178418.99318402,1825175.35011849,9.0,5.0,53.0,41.675583072370145,-87.6225857517869,"(41.67558307237014, -87.6225857517869)",2013-05-05
41798,05/05/2013,Completed,05/06/2013,13-00534191,Sanitation Code Violation,Garbage in alley,5904 N FAIRFIELD AVE,60659.0,1156939.05770756,1939097.71742216,40.0,20.0,2.0,41.98865909924061,-87.69812387905769,"(41.988659099240614, -87.69812387905769)",2013-05-05
41799,05/05/2013,Completed,05/06/2013,13-00534216,Sanitation Code Violation,Dumpster not being emptied,210 S DESPLAINES ST,60661.0,1171964.79522516,1899256.41587498,2.0,1.0,28.0,41.87901382811765,-87.64403597257973,"(41.87901382811765, -87.64403597257973)",2013-05-05
41800,05/05/2013,Completed,05/06/2013,13-00534254,Sanitation Code Violation,Other,2452 S CALIFORNIA AVE,60608.0,1158088.51948989,1887570.94640971,12.0,10.0,30.0,41.8472422092495,-87.69530599759872,"(41.8472422092495, -87.69530599759872)",2013-05-05
41801,05/05/2013,Completed,05/06/2013,13-00534582,Sanitation Code Violation,Dumpster not being emptied,1231 W BELMONT AVE,60657.0,1167387.4105770001,1921377.86443335,32.0,19.0,6.0,41.93981610886735,-87.66020577325489,"(41.93981610886734, -87.66020577325489)",2013-05-05
41802,05/05/2013,Completed,05/06/2013,13-00534648,Sanitation Code Violation,Dumpster not being emptied,2100 W FARGO AVE,60645.0,1160972.22186974,1949268.11450076,49.0,24.0,1.0,42.01648393099144,-87.68300529916722,"(42.016483930991434, -87.68300529916722)",2013-05-05
41803,05/02/2013,Completed,05/06/2013,13-00521542,Sanitation Code Violation,Garbage in alley,1652 W HADDON AVE,60622.0,1165092.29882562,1907670.60651836,1.0,12.0,24.0,41.90225169682433,-87.66903123734173,"(41.90225169682433, -87.66903123734174)",2013-05-02
41804,05/02/2013,Completed,05/06/2013,13-00521895,Sanitation Code Violation,,2424 W LEXINGTON ST,60612.0,1160344.43989822,1896633.63999791,2.0,11.0,28.0,41.87206486213514,-87.68677628775677,"(41.87206486213514, -87.68677628775676)",2013-05-02
41805,05/02/2013,Completed,05/06/2013,13-00522928,Sanitation Code Violation,Other,4759 S ARCHER AVE,60632.0,1152642.26389422,1872896.73842096,14.0,8.0,57.0,41.80708355065829,-87.71568104932571,"(41.807083550658284, -87.71568104932572)",2013-05-02
41806,05/02/2013,Completed,05/06/2013,13-00524974,Sanitation Code Violation,Garbage in yard,548 W 62ND ST,60621.0,1173506.1557253,1863806.38607149,20.0,7.0,68.0,41.78170172748912,-87.63942783378245,"(41.781701727489114, -87.63942783378245)",2013-05-02
41807,05/02/2013,Completed,05/06/2013,13-00525464,Sanitation Code Violation,Other,2610 W WILSON AVE,60625.0,1158146.32342111,1930417.1344803001,47.0,19.0,4.0,41.964814504483336,-87.69392173190799,"(41.964814504483336, -87.693921731908)",2013-05-02
41808,05/02/2013,Completed,05/06/2013,13-00525617,Sanitation Code Violation,Garbage in alley,6546 S WOODLAWN AVE,60637.0,1185341.70073304,1861839.12470045,20.0,3.0,42.0,41.77603310520693,-87.59609814058334,"(41.77603310520693, -87.59609814058335)",2013-05-02
41809,05/03/2013,Completed,05/06/2013,13-00526302,Sanitation Code Violation,Other,6900 S EMERALD AVE,60621.0,1172496.12002277,1859118.06022114,6.0,7.0,68.0,41.76885872183691,-87.64326878161665,"(41.768858721836914, -87.64326878161664)",2013-05-03
41810,05/03/2013,Completed,05/06/2013,13-00526532,Sanitation Code Violation,Dog feces in yard,902 N RICHMOND ST,60622.0,1156554.3553738,1906078.82697661,26.0,12.0,24.0,41.89806085630763,-87.7004355707948,"(41.89806085630763, -87.7004355707948)",2013-05-03
41811,05/03/2013,Completed,05/06/2013,13-00526845,Sanitation Code Violation,Other,10212 S VAN VLISSINGEN RD,60617.0,1192991.81996968,1837740.07002141,10.0,4.0,51.0,41.709719822792714,-87.56883876494284,"(41.70971982279271, -87.56883876494284)",2013-05-03
41812,05/03/2013,Completed,05/06/2013,13-00526856,Sanitation Code Violation,Garbage in yard,2236 W 47TH PL,60609.0,1161997.15002047,1873129.81999415,12.0,9.0,61.0,41.8075335449499,-87.68136351336163,"(41.8075335449499, -87.68136351336162)",2013-05-03
41813,05/03/2013,Completed,05/06/2013,13-00526907,Sanitation Code Violation,Overflowing carts,10240 S EGGLESTON AVE,60628.0,1175314.57626576,1836910.72992688,9.0,22.0,73.0,41.70785643625114,-87.63359959202573,"(41.70785643625114, -87.63359959202573)",2013-05-03
41814,05/03/2013,Completed,05/06/2013,13-00527186,Sanitation Code Violation,Dumpster not being emptied,3044 W WARREN BLVD,60612.0,1156083.9284291,1900197.2038108998,2.0,12.0,27.0,41.881930637764505,-87.70232227631239,"(41.88193063776451, -87.70232227631239)",2013-05-03
41815,05/03/2013,Completed,05/06/2013,13-00528796,Sanitation Code Violation,Garbage in yard,6252 N NORDICA AVE,60631.0,1128582.53686642,1941315.34377458,41.0,16.0,10.0,41.99527422478099,-87.80237354126095,"(41.99527422478099, -87.80237354126095)",2013-05-03
41816,05/03/2013,Completed,05/06/2013,13-00528812,Sanitation Code Violation,Other,5522 W NEWPORT AVE,60641.0,1138935.97373296,1922390.81012352,38.0,16.0,15.0,41.94316116926036,-87.76474983827293,"(41.94316116926036, -87.76474983827293)",2013-05-03
41817,05/03/2013,Completed,05/06/2013,13-00529244,Sanitation Code Violation,Garbage in yard,2550 W ALBION AVE,60645.0,1158035.01477526,1943711.68338657,50.0,24.0,2.0,42.00129762811218,-87.69396610450273,"(42.00129762811217, -87.69396610450273)",2013-05-03
41818,05/03/2013,Completed,05/06/2013,13-00529824,Sanitation Code Violation,Other,6300 N FRANCISCO AVE,60659.0,1155865.13177856,1941668.54293194,50.0,24.0,2.0,41.99573534969477,-87.70200420365471,"(41.99573534969477, -87.7020042036547)",2013-05-03
41819,05/03/2013,Completed,05/06/2013,13-00530579,Sanitation Code Violation,Garbage in alley,3554 N HERMITAGE AVE,60657.0,1164033.06350572,1923645.05942053,32.0,19.0,6.0,41.946109026438975,-87.67246974433957,"(41.946109026438975, -87.67246974433957)",2013-05-03
41820,05/03/2013,Completed,05/06/2013,13-00530734,Sanitation Code Violation,,918 N DAMEN AVE,60622.0,1162901.39660293,1906206.399923,32.0,12.0,24.0,41.89828007611929,-87.67711987516115,"(41.89828007611929, -87.67711987516115)",2013-05-03
41821,05/03/2013,Completed,05/06/2013,13-00530876,Sanitation Code Violation,Dumpster not being emptied,5607 W MONTROSE AVE,60634.0,1138135.4573064,1928696.95041638,38.0,16.0,15.0,41.96048036567438,-87.7675391620013,"(41.96048036567438, -87.76753916200131)",2013-05-03
41840,05/01/2013,Completed,05/06/2013,13-00514348,Sanitation Code Violation,Other,5628 S WABASH AVE,60637.0,1177674.47716734,1867723.27251772,20.0,2.0,40.0,41.792356732846315,-87.62402737955404,"(41.79235673284631, -87.62402737955405)",2013-05-01
41841,05/01/2013,Completed,05/06/2013,13-00515214,Sanitation Code Violation,Dog feces in yard,6940 S GREEN ST,60621.0,1171832.83880447,1858830.64971189,17.0,7.0,68.0,41.76808460994938,-87.64570846286001,"(41.76808460994938, -87.64570846286001)",2013-05-01
41842,05/01/2013,Completed,05/06/2013,13-00516636,Sanitation Code Violation,Garbage in yard,7336 S MORGAN ST,60621.0,1170913.89601784,1856178.41351449,17.0,7.0,68.0,41.7608266525056,-87.64915413795538,"(41.7608266525056, -87.64915413795538)",2013-05-01
41843,05/01/2013,Completed,05/06/2013,13-00516840,Sanitation Code Violation,Dog feces in yard,2729 S CROWELL ST,60608.0,1168412.41400829,1886626.76353063,11.0,9.0,60.0,41.84443456136561,-87.65744467440581,"(41.84443456136561, -87.65744467440582)",2013-05-01
41844,05/01/2013,Completed,05/06/2013,13-00518840,Sanitation Code Violation,Garbage in alley,644 W 30TH ST,60616.0,1172386.3393946001,1885010.22408023,11.0,9.0,60.0,41.839911894907544,-87.64290879671911,"(41.83991189490755, -87.64290879671911)",2013-05-01
41845,05/01/2013,Completed,05/06/2013,13-00518939,Sanitation Code Violation,Garbage in alley,7254 S ABERDEEN ST,60621.0,1170237.92916804,1856702.95957969,17.0,7.0,68.0,41.762280800563275,-87.6516163543407,"(41.76228080056327, -87.6516163543407)",2013-05-01
41846,05/01/2013,Completed,05/06/2013,13-00519332,Sanitation Code Violation,Garbage in yard,4608 N PAULINA ST,60640.0,1164397.73791451,1930663.43138651,47.0,19.0,3.0,41.965360037584574,-87.67092992443614,"(41.965360037584574, -87.67092992443612)",2013-05-01
41847,05/01/2013,Completed,05/06/2013,13-00519337,Sanitation Code Violation,Overflowing carts,2400 W POLK ST,60612.0,1160513.49360426,1896305.25007655,2.0,11.0,28.0,41.871160233203604,-87.68616471004185,"(41.8711602332036, -87.68616471004184)",2013-05-01
41848,05/01/2013,Completed,05/06/2013,13-00519411,Sanitation Code Violation,Garbage in alley,1446 W CORTEZ ST,60642.0,1166513.49191588,1907106.5309029,27.0,12.0,24.0,41.900673517071816,-87.66382717071112,"(41.900673517071816, -87.66382717071112)",2013-05-01
41849,05/01/2013,Completed,05/06/2013,13-00520246,Sanitation Code Violation,Other,6910 S WESTERN AVE,60636.0,1161567.25790044,1858774.15937159,17.0,8.0,66.0,41.76814864103364,-87.68333830055519,"(41.76814864103364, -87.68333830055519)",2013-05-01
41850,05/01/2013,Completed,05/06/2013,13-00520248,Sanitation Code Violation,Other,6914 S WESTERN AVE,60636.0,1161567.95790044,1858747.45937159,17.0,8.0,66.0,41.76807535791063,-87.6833364743198,"(41.76807535791063, -87.68333647431979)",2013-05-01
41866,05/06/2013,Completed - Dup,05/07/2013,13-00539322,Sanitation Code Violation,Other,1808 N KEYSTONE AVE,60639.0,1149099.44890962,1911730.3544258,30.0,25.0,20.0,41.91371685851854,-87.72767040254067,"(41.91371685851854, -87.72767040254067)",2013-05-06
41867,05/06/2013,Completed,05/07/2013,13-00535589,Sanitation Code Violation,Garbage in yard,3648 N CENTRAL PARK AVE,60618.0,1151737.142425,1924062.974425,35.0,17.0,16.0,41.94750706884472,-87.71765460686136,"(41.947507068844715, -87.71765460686136)",2013-05-06
41868,05/06/2013,Completed,05/07/2013,13-00536121,Sanitation Code Violation,Dumpster not being emptied,2700 W LUNT AVE,60645.0,1157090.02308226,1946333.12042099,50.0,24.0,2.0,42.0085102582126,-87.69737095163444,"(42.0085102582126, -87.69737095163445)",2013-05-06
41869,05/06/2013,Completed,05/07/2013,13-00536355,Sanitation Code Violation,Overflowing carts,2424 W LEXINGTON ST,60612.0,1160344.43989822,1896633.63999791,2.0,11.0,28.0,41.87206486213514,-87.68677628775677,"(41.87206486213514, -87.68677628775676)",2013-05-06
41870,05/06/2013,Completed,05/07/2013,13-00538883,Sanitation Code Violation,Garbage in yard,2610 W 24TH PL,60608.0,1159349.93000936,1887750.23998168,12.0,10.0,30.0,41.84770840033111,-87.69067168675484,"(41.84770840033111, -87.69067168675485)",2013-05-06
41871,05/06/2013,Completed,05/07/2013,13-00538887,Sanitation Code Violation,Garbage in yard,2612 W 24TH PL,60608.0,1159336.43000936,1887749.83998168,12.0,10.0,30.0,41.847707579905965,-87.69072124319511,"(41.84770757990597, -87.69072124319511)",2013-05-06
41872,05/06/2013,Completed,05/07/2013,13-00539269,Sanitation Code Violation,Garbage in alley,1808 N KEYSTONE AVE,60639.0,1149099.44890962,1911730.3544258,30.0,25.0,20.0,41.91371685851854,-87.72767040254067,"(41.91371685851854, -87.72767040254067)",2013-05-06
41873,05/06/2013,Completed,05/07/2013,13-00539439,Sanitation Code Violation,Garbage in alley,2647 N SPAULDING AVE,60647.0,1153627.53392697,1917406.05797907,35.0,14.0,22.0,41.92920251481457,-87.71088363570738,"(41.92920251481457, -87.71088363570738)",2013-05-06
41874,05/06/2013,Completed,05/07/2013,13-00539512,Sanitation Code Violation,Garbage in alley,2639 N SPAULDING AVE,60647.0,1153628.93392697,1917352.05797907,35.0,14.0,22.0,41.92905430660253,-87.71087993166937,"(41.92905430660253, -87.71087993166937)",2013-05-06
41875,05/06/2013,Completed,05/07/2013,13-00539518,Sanitation Code Violation,Garbage in alley,2633 N SPAULDING AVE,60647.0,1153630.03392697,1917311.45797907,35.0,14.0,22.0,41.92894287503693,-87.71087697258206,"(41.92894287503693, -87.71087697258206)",2013-05-06
41876,05/06/2013,Completed,05/07/2013,13-00539595,Sanitation Code Violation,Garbage in alley,2615 N SPAULDING AVE,60647.0,1153633.23392697,1917189.85797907,35.0,14.0,22.0,41.928609131135346,-87.7108684575006,"(41.928609131135346, -87.7108684575006)",2013-05-06
41877,05/06/2013,Completed,05/07/2013,13-00539743,Sanitation Code Violation,Dog feces in yard,3426 W PARKER AVE,60647.0,1153068.87997805,1918077.69999049,35.0,14.0,22.0,41.93105666520919,-87.71291867140152,"(41.931056665209184, -87.71291867140152)",2013-05-06
41878,05/06/2013,Completed,05/07/2013,13-00540317,Sanitation Code Violation,Garbage in alley,1218 W MORSE AVE,60626.0,1166687.54289358,1946210.52357474,49.0,24.0,1.0,42.007972779606106,-87.66206283331495,"(42.007972779606106, -87.66206283331496)",2013-05-06
41879,05/06/2013,Completed,05/07/2013,13-00540435,Sanitation Code Violation,Garbage in alley,3712 W 56TH PL,60629.0,1152588.72888738,1866887.16020801,14.0,8.0,62.0,41.790593451322025,-87.71603568718956,"(41.79059345132202, -87.71603568718957)",2013-05-06
41880,05/06/2013,Completed,05/07/2013,13-00540580,Sanitation Code Violation,Other,1638 W ONTARIO ST,60622.0,1165364.70207008,1904217.02006815,1.0,12.0,24.0,41.892769013767136,-87.66812901958679,"(41.892769013767136, -87.6681290195868)",2013-05-06
41881,05/03/2013,Completed,05/07/2013,13-00528201,Sanitation Code Violation,Other,2942 N KOLMAR AVE,60641.0,1145544.4233792,1919170.89739094,31.0,25.0,20.0,41.9342025813648,-87.74054204570477,"(41.9342025813648, -87.74054204570477)",2013-05-03
41882,05/03/2013,Completed,05/07/2013,13-00528339,Sanitation Code Violation,Garbage in yard,2546 S SPRINGFIELD AVE,60623.0,1150782.81330795,1886798.63890948,22.0,10.0,30.0,41.84526871427485,-87.7221382867574,"(41.84526871427485, -87.72213828675739)",2013-05-03
41883,05/03/2013,Completed,05/07/2013,13-00529810,Sanitation Code Violation,Garbage in alley,3429 W DIVERSEY AVE,60647.0,1153048.1422164,1918410.39879857,35.0,14.0,22.0,41.93197002911002,-87.71298603293306,"(41.931970029110026, -87.71298603293307)",2013-05-03
41884,05/03/2013,Completed,05/07/2013,13-00531241,Sanitation Code Violation,Garbage in alley,3940 W GRAND AVE,60651.0,1149787.77802883,1908806.01609472,30.0,25.0,23.0,41.90567882500042,-87.72521776208656,"(41.90567882500042, -87.72521776208657)",2013-05-03
41885,05/03/2013,Completed,05/07/2013,13-00531243,Sanitation Code Violation,Garbage in alley,3950 W GRAND AVE,60651.0,1149732.67802883,1908835.11609472,30.0,25.0,23.0,41.905759749977676,-87.72541940756241,"(41.90575974997768, -87.7254194075624)",2013-05-03
41886,05/03/2013,Completed,05/07/2013,13-00531419,Sanitation Code Violation,Construction Site Cleanliness/Fence,3645 N MONTICELLO AVE,60618.0,1151403.29461693,1924211.80422736,35.0,17.0,16.0,41.94792204300636,-87.71887783330713,"(41.94792204300636, -87.71887783330713)",2013-05-03
41887,05/04/2013,Completed,05/07/2013,13-00531897,Sanitation Code Violation,Other,6471 N NEWARK AVE,60631.0,1129407.43999493,1942723.14002464,41.0,16.0,10.0,41.99912326924297,-87.7993067792919,"(41.99912326924297, -87.7993067792919)",2013-05-04
41888,05/04/2013,Completed,05/07/2013,13-00532120,Sanitation Code Violation,Other,4700 S HERMITAGE AVE,60609.0,1165471.0296003001,1873533.81787321,20.0,9.0,61.0,41.80856914039872,-87.66861081303455,"(41.808569140398724, -87.66861081303455)",2013-05-04
41889,05/04/2013,Completed,05/07/2013,13-00532319,Sanitation Code Violation,Garbage in yard,5924 S LA SALLE ST,60621.0,1176315.30763306,1865708.66532397,20.0,2.0,68.0,41.78685911072632,-87.62907173202187,"(41.78685911072632, -87.62907173202188)",2013-05-04
41890,05/04/2013,Completed,05/07/2013,13-00532354,Sanitation Code Violation,Dog feces in yard,2244 N LOREL AVE,60639.0,1140350.43357654,1914403.97522406,37.0,25.0,19.0,41.92121860788398,-87.75974731319462,"(41.92121860788398, -87.75974731319462)",2013-05-04
41891,05/04/2013,Completed,05/07/2013,13-00532624,Sanitation Code Violation,Garbage in alley,6216 S INDIANA AVE,60637.0,1178648.88942793,1863766.78622216,20.0,3.0,40.0,41.78147763100576,-87.62057465164013,"(41.781477631005764, -87.62057465164013)",2013-05-04
41892,05/05/2013,Completed,05/07/2013,13-00533757,Sanitation Code Violation,Garbage in yard,3846 W HIRSCH ST,60651.0,1150393.93979528,1909040.16360619,30.0,25.0,23.0,41.906309535092724,-87.7229849827566,"(41.906309535092724, -87.7229849827566)",2013-05-05
41893,05/05/2013,Completed,05/07/2013,13-00534213,Sanitation Code Violation,Dumpster not being emptied,7012 N RIDGE BLVD,60645.0,1161264.07000859,1946643.18001498,50.0,24.0,2.0,42.009274957074624,-87.68200487451261,"(42.009274957074624, -87.68200487451261)",2013-05-05
41894,05/05/2013,Completed,05/07/2013,13-00534362,Sanitation Code Violation,Garbage in alley,2420 S SPAULDING AVE,60623.0,1154744.43999325,1887728.99172974,22.0,10.0,30.0,41.847743424999095,-87.70757459865055,"(41.84774342499909, -87.70757459865054)",2013-05-05
41895,05/05/2013,Completed,05/07/2013,13-00534409,Sanitation Code Violation,Garbage in alley,1740 N HUMBOLDT BLVD,60647.0,1156103.06082585,1911456.78752205,35.0,14.0,23.0,41.912827570256184,-87.70194775149423,"(41.91282757025618, -87.70194775149423)",2013-05-05
41896,05/01/2013,Completed,05/07/2013,13-00519039,Sanitation Code Violation,Garbage in alley,5379 W JACKSON BLVD,60644.0,1140611.52297953,1898146.63669829,29.0,15.0,25.0,41.876601745824104,-87.75918775129469,"(41.8766017458241, -87.75918775129468)",2013-05-01
41897,05/01/2013,Completed,05/07/2013,13-00519047,Sanitation Code Violation,Garbage in alley,5939 W HURON ST,60644.0,1136717.68342607,1904036.34573133,29.0,15.0,25.0,41.892834473757645,-87.77334380003114,"(41.892834473757645, -87.77334380003116)",2013-05-01
41898,05/02/2013,Completed - Dup,05/07/2013,13-00523596,Sanitation Code Violation,Dog feces in yard,3858 W 24TH ST,60623.0,1150965.57420764,1887780.78452864,22.0,10.0,30.0,41.84796027358538,-87.72144188833109,"(41.847960273585386, -87.72144188833109)",2013-05-02
41899,05/02/2013,Completed,05/07/2013,13-00520481,Sanitation Code Violation,Dumpster not being emptied,826 N LOCKWOOD AVE,60651.0,1140871.84652052,1904995.25381705,37.0,15.0,25.0,41.895390420871294,-87.75806334032515,"(41.89539042087129, -87.75806334032514)",2013-05-02
41900,05/02/2013,Completed,05/07/2013,13-00522996,Sanitation Code Violation,Garbage in yard,4938 W IOWA ST,60651.0,1143270.73411602,1905526.91870827,37.0,15.0,25.0,41.89680489539853,-87.74923940252087,"(41.896804895398525, -87.74923940252087)",2013-05-02
41901,05/02/2013,Completed,05/07/2013,13-00523069,Sanitation Code Violation,Dog feces in yard,3858 W 24TH ST,60623.0,1150965.57420764,1887780.78452864,22.0,10.0,30.0,41.84796027358538,-87.72144188833109,"(41.847960273585386, -87.72144188833109)",2013-05-02
41902,05/02/2013,Completed,05/07/2013,13-00525471,Sanitation Code Violation,Overflowing carts,8501 S CICERO AVE,60652.0,1145919.22388347,1847742.50202927,18.0,8.0,70.0,41.7381859826465,-87.7409748855491,"(41.7381859826465, -87.7409748855491)",2013-05-02
41910,05/01/2013,Completed - Dup,05/07/2013,13-00514903,Sanitation Code Violation,Garbage in yard,5307 W JACKSON BLVD,60644.0,1141016.75880803,1898157.4094778,29.0,15.0,25.0,41.87662385939277,-87.75769956853577,"(41.876623859392765, -87.75769956853577)",2013-05-01
41911,05/01/2013,Completed,05/07/2013,13-00514384,Sanitation Code Violation,Other,6212 W GRAND AVE,60639.0,1134571.97688009,1914486.26842398,29.0,25.0,19.0,41.92154852708096,-87.78097714774248,"(41.92154852708096, -87.78097714774249)",2013-05-01
41916,05/07/2013,Completed,05/08/2013,13-00546336,Sanitation Code Violation,Garbage in yard,1727 N WASHTENAW AVE,60647.0,1158097.92552842,1911481.23760754,1.0,14.0,24.0,41.91285413204493,-87.694618416595,"(41.91285413204493, -87.694618416595)",2013-05-07
41917,05/07/2013,Completed,05/08/2013,13-00546364,Sanitation Code Violation,Dumpster not being emptied,1047 W WEBSTER AVE,60614.0,1168862.76970948,1914792.97980012,32.0,18.0,7.0,41.92171494652754,-87.6549748880382,"(41.92171494652754, -87.6549748880382)",2013-05-07
41918,05/07/2013,Completed,05/08/2013,13-00546384,Sanitation Code Violation,Dumpster not being emptied,2147 N KENMORE AVE,60614.0,1168947.86239518,1914448.06120129,32.0,18.0,7.0,41.92076662400754,-87.65467226625431,"(41.92076662400754, -87.65467226625431)",2013-05-07
41919,05/07/2013,Completed,05/08/2013,13-00546408,Sanitation Code Violation,Other,6549 N KEDZIE AVE,60645.0,1153852.50746907,1943245.72989923,50.0,24.0,2.0,42.00010370233874,-87.70936544061995,"(42.00010370233874, -87.70936544061996)",2013-05-07
41920,05/07/2013,Completed,05/08/2013,13-00546624,Sanitation Code Violation,Garbage in alley,1124 N LECLAIRE AVE,60651.0,1142157.2073148,1907006.90328721,37.0,15.0,25.0,41.90088687449641,-87.7532925075207,"(41.90088687449641, -87.75329250752068)",2013-05-07
41921,05/07/2013,Completed,05/08/2013,13-00546821,Sanitation Code Violation,Other,3700 N AVONDALE AVE,60618.0,1150403.97011711,1924255.1257675,30.0,17.0,16.0,41.9480605207919,-87.72255001310661,"(41.9480605207919, -87.72255001310661)",2013-05-07
41922,05/07/2013,Completed,05/08/2013,13-00546823,Sanitation Code Violation,Other,1025 W HOLLYWOOD AVE,60660.0,1168328.32177241,1938040.68730507,48.0,20.0,77.0,41.98551914163855,-87.65626374315237,"(41.98551914163855, -87.65626374315238)",2013-05-07
41923,05/07/2013,Completed,05/08/2013,13-00546874,Sanitation Code Violation,Dumpster not being emptied,3219 W HIRSCH ST,60651.0,1154643.27527628,1909129.88639238,26.0,14.0,23.0,41.90647171310589,-87.7073730565603,"(41.906471713105894, -87.70737305656031)",2013-05-07
41924,05/07/2013,Completed,05/08/2013,13-00546915,Sanitation Code Violation,Garbage in yard,847 W SHERIDAN RD,60613.0,1169909.03658372,1926104.04057545,46.0,19.0,6.0,41.95273021283045,-87.65079976630254,"(41.952730212830446, -87.65079976630255)",2013-05-07
41925,05/07/2013,Completed,05/08/2013,13-00547036,Sanitation Code Violation,Garbage in alley,725 N LOTUS AVE,60644.0,1139784.10369485,1904276.32907368,37.0,15.0,25.0,41.89343754741501,-87.76207599341429,"(41.89343754741501, -87.7620759934143)",2013-05-07
41926,05/07/2013,Completed,05/08/2013,13-00547095,Sanitation Code Violation,Garbage in yard,1349 N LEAVITT ST,60622.0,1161488.8875035,1909054.21979893,32.0,14.0,24.0,41.90612424502957,-87.68222852045227,"(41.90612424502957, -87.68222852045226)",2013-05-07
41927,05/08/2013,Completed - Dup,05/08/2013,13-00547499,Sanitation Code Violation,Other,6549 N KEDZIE AVE,60645.0,1153852.50746907,1943245.72989923,50.0,24.0,2.0,42.00010370233874,-87.70936544061995,"(42.00010370233874, -87.70936544061996)",2013-05-08
41928,05/08/2013,Completed,05/08/2013,13-00547449,Sanitation Code Violation,Other,2414 W CUYLER AVE,60618.0,1159555.7957808,1926826.66987359,47.0,19.0,5.0,41.95493309736272,-87.68883874877199,"(41.95493309736272, -87.688838748772)",2013-05-08
41929,05/08/2013,Completed,05/08/2013,13-00547457,Sanitation Code Violation,Dumpster not being emptied,1037 W 48TH ST,60609.0,1170208.09737768,1872984.97991701,20.0,9.0,61.0,41.80696121623085,-87.65125229769144,"(41.806961216230846, -87.65125229769144)",2013-05-08
41930,05/08/2013,Completed,05/08/2013,13-00548216,Sanitation Code Violation,Garbage in yard,10505 S AVENUE F,60617.0,1203491.1653703998,1835917.43561749,10.0,4.0,52.0,41.704456142167246,-87.53045181777416,"(41.70445614216725, -87.53045181777416)",2013-05-08
41931,05/07/2013,Completed - Dup,05/08/2013,13-00541022,Sanitation Code Violation,Garbage in yard,2818 E 97TH ST,60617.0,1196317.03613083,1841169.46988522,10.0,4.0,51.0,41.719048755859546,-87.55654828255443,"(41.719048755859546, -87.55654828255444)",2013-05-07
41932,05/07/2013,Completed,05/08/2013,13-00541008,Sanitation Code Violation,Overflowing carts,8201 S CICERO AVE,60652.0,1145855.81729528,1849650.73349028,13.0,8.0,70.0,41.74342372161977,-87.74115908716509,"(41.74342372161977, -87.74115908716509)",2013-05-07
41933,05/07/2013,Completed,05/08/2013,13-00541018,Sanitation Code Violation,Garbage in yard,2818 E 97TH ST,60617.0,1196317.03613083,1841169.46988522,10.0,4.0,51.0,41.719048755859546,-87.55654828255443,"(41.719048755859546, -87.55654828255444)",2013-05-07
41934,05/07/2013,Completed,05/08/2013,13-00541381,Sanitation Code Violation,Garbage in alley,2890 N MILWAUKEE AVE,60618.0,1152470.41368797,1919057.78482915,35.0,14.0,21.0,41.93375795946541,-87.71509195854709,"(41.93375795946541, -87.7150919585471)",2013-05-07
41935,05/07/2013,Completed,05/08/2013,13-00541506,Sanitation Code Violation,Garbage in yard,13288 S BRAINARD AVE,60633.0,1197545.08771157,1817394.61878775,10.0,4.0,55.0,41.65377761545994,-87.55283935366822,"(41.653777615459944, -87.55283935366822)",2013-05-07
41936,05/07/2013,Completed,05/08/2013,13-00541686,Sanitation Code Violation,Garbage in yard,1515 N KARLOV AVE,60651.0,1148770.5052324,1909841.5598035,30.0,25.0,23.0,41.908540188974435,-87.72892778640913,"(41.908540188974435, -87.72892778640913)",2013-05-07
41937,05/07/2013,Completed,05/08/2013,13-00541818,Sanitation Code Violation,Garbage in yard,4942 N SHERIDAN RD,60640.0,1168736.35733344,1933232.14001225,46.0,20.0,3.0,41.97231550352738,-87.65490309653063,"(41.97231550352738, -87.65490309653062)",2013-05-07
41938,05/07/2013,Completed,05/08/2013,13-00542009,Sanitation Code Violation,Garbage in yard,7154 W HIGGINS AVE,60656.0,1127577.47180317,1936087.8548740002,41.0,16.0,10.0,41.98094652617229,-87.80618910739071,"(41.98094652617229, -87.80618910739071)",2013-05-07
41939,05/07/2013,Completed,05/08/2013,13-00542020,Sanitation Code Violation,Garbage in yard,7120 W HIGGINS AVE,60656.0,1127791.37180317,1936026.6548740002,41.0,16.0,10.0,41.980774972237114,-87.80540382388351,"(41.980774972237114, -87.80540382388351)",2013-05-07
41940,05/07/2013,Completed,05/08/2013,13-00542062,Sanitation Code Violation,Garbage in yard,7118 W HIGGINS AVE,60656.0,1127811.67180317,1936020.8548740002,41.0,16.0,10.0,41.98075871309903,-87.80532929724846,"(41.98075871309903, -87.80532929724846)",2013-05-07
41941,05/07/2013,Completed,05/08/2013,13-00542085,Sanitation Code Violation,Garbage in yard,7020 W HIGGINS AVE,60656.0,1128437.78359907,1935842.55292561,41.0,16.0,10.0,41.980258820872656,-87.8030306817739,"(41.98025882087266, -87.8030306817739)",2013-05-07
41942,05/07/2013,Completed,05/08/2013,13-00542101,Sanitation Code Violation,Garbage in yard,5509 N HARLEM AVE,60656.0,1127368.65236769,1936225.02220886,41.0,16.0,10.0,41.981326451143225,-87.80695399313709,"(41.981326451143225, -87.8069539931371)",2013-05-07
41943,05/07/2013,Completed,05/08/2013,13-00542232,Sanitation Code Violation,Garbage in alley,1855 W GRAND AVE,60622.0,1163940.46808493,1903518.37813392,26.0,12.0,24.0,41.89088206636846,-87.67337939390825,"(41.89088206636846, -87.67337939390825)",2013-05-07
41944,05/07/2013,Completed,05/08/2013,13-00542325,Sanitation Code Violation,Construction Site Cleanliness/Fence,3823 N FREMONT ST,60613.0,1169577.61301578,1925661.54433286,46.0,19.0,6.0,41.95152322318131,-87.65203101803766,"(41.95152322318131, -87.65203101803766)",2013-05-07
41945,05/07/2013,Completed,05/08/2013,13-00542889,Sanitation Code Violation,Garbage in alley,2622 W FULLERTON AVE,60647.0,1158375.27987183,1915853.3203788002,1.0,14.0,22.0,41.92484578635985,-87.69347964153684,"(41.924845786359846, -87.69347964153684)",2013-05-07
41946,05/07/2013,Completed,05/08/2013,13-00543129,Sanitation Code Violation,Construction Site Cleanliness/Fence,1907 W ARMITAGE AVE,60622.0,1163298.23771347,1913322.50188354,32.0,14.0,22.0,41.917798828223695,-87.67546185132754,"(41.917798828223695, -87.67546185132753)",2013-05-07
41947,05/07/2013,Completed,05/08/2013,13-00543638,Sanitation Code Violation,Other,2236 W OAKDALE AVE,60618.0,1160934.94218411,1919554.91008729,1.0,19.0,5.0,41.93495039324519,-87.68397128438255,"(41.93495039324519, -87.68397128438257)",2013-05-07
41948,05/07/2013,Completed,05/08/2013,13-00544373,Sanitation Code Violation,Other,2037 N KOSTNER AVE,60639.0,1146724.26601499,1913295.05993232,30.0,25.0,20.0,41.918056260576854,-87.73635643763296,"(41.91805626057685, -87.73635643763295)",2013-05-07
41949,05/07/2013,Completed,05/08/2013,13-00544589,Sanitation Code Violation,Garbage in yard,5775 N LINCOLN AVE,60659.0,1156224.0519965,1938291.03236709,40.0,20.0,2.0,41.986460039842974,-87.70077567406089,"(41.986460039842974, -87.70077567406089)",2013-05-07
41950,05/07/2013,Completed,05/08/2013,13-00544850,Sanitation Code Violation,Dog feces in yard,2632 N ASHLAND AVE,60614.0,1165216.56457881,1917559.17122177,32.0,19.0,7.0,41.929383905287935,-87.6682931374557,"(41.92938390528794, -87.6682931374557)",2013-05-07
41951,05/07/2013,Completed,05/08/2013,13-00544908,Sanitation Code Violation,Garbage in alley,748 W CORNELIA AVE,60657.0,1170573.23002197,1923457.55092764,46.0,19.0,6.0,41.945453608237784,-87.64843591884168,"(41.94545360823778, -87.64843591884168)",2013-05-07
41952,05/07/2013,Completed,05/08/2013,13-00544962,Sanitation Code Violation,Garbage in yard,5452 W WALTON ST,60651.0,1139720.44340715,1905797.6667941,37.0,15.0,25.0,41.89761344634999,-87.76227260945568,"(41.89761344634999, -87.76227260945569)",2013-05-07
41953,05/07/2013,Completed,05/08/2013,13-00544973,Sanitation Code Violation,,2720 W ST HELEN ST,60647.0,1158026.26090298,1913910.04111048,1.0,14.0,22.0,41.9195204219556,-87.69481526374219,"(41.919520421955596, -87.69481526374217)",2013-05-07
41954,05/07/2013,Completed,05/08/2013,13-00545182,Sanitation Code Violation,Garbage in alley,1022 W LELAND AVE,60640.0,1168538.91290856,1931386.31262058,46.0,19.0,3.0,41.96725478517568,-87.65568281586889,"(41.96725478517568, -87.65568281586889)",2013-05-07
41955,05/07/2013,Completed,05/08/2013,13-00546027,Sanitation Code Violation,Other,909 N CENTRAL AVE,60651.0,1138852.11288283,1905539.2102128998,37.0,15.0,25.0,41.89692002577916,-87.7654682183844,"(41.89692002577916, -87.76546821838441)",2013-05-07
41956,05/07/2013,Completed,05/08/2013,13-00546302,Sanitation Code Violation,Garbage in alley,3941 W BELDEN AVE,60647.0,1149545.53992993,1914993.34450446,30.0,25.0,22.0,41.922662150995116,-87.72594663493362,"(41.92266215099512, -87.72594663493363)",2013-05-07
41957,05/03/2013,Completed,05/08/2013,13-00528722,Sanitation Code Violation,Garbage in alley,4649 N MALDEN ST,60640.0,1166676.0266173,1930998.84356914,46.0,19.0,3.0,41.96623178287307,-87.66254355088766,"(41.96623178287307, -87.66254355088766)",2013-05-03
41958,05/03/2013,Completed,05/08/2013,13-00529531,Sanitation Code Violation,Other,4739 N SHERIDAN RD,60640.0,1168772.9466148,1931761.12993372,46.0,19.0,3.0,41.96827821294043,-87.65481139221248,"(41.96827821294044, -87.65481139221248)",2013-05-03
41959,05/03/2013,Completed,05/08/2013,13-00529869,Sanitation Code Violation,Garbage in yard,3249 N OCONTO AVE,60634.0,1127181.78456965,1920755.61303323,36.0,16.0,17.0,41.93887981205511,-87.80799004231707,"(41.93887981205512, -87.80799004231706)",2013-05-03
41960,05/03/2013,Completed,05/08/2013,13-00530370,Sanitation Code Violation,Garbage in yard,2415 S KEELER AVE,60623.0,1148771.42998682,1887491.9499843998,22.0,10.0,30.0,41.847210292908244,-87.72950201276139,"(41.847210292908244, -87.72950201276137)",2013-05-03
41961,05/03/2013,Completed,05/08/2013,13-00531285,Sanitation Code Violation,Garbage in yard,8521 W GREGORY ST,60656.0,1118502.51068323,1935747.0092083,41.0,16.0,76.0,41.980159609991155,-87.83957190216795,"(41.980159609991155, -87.83957190216795)",2013-05-03
41962,05/04/2013,Completed,05/08/2013,13-00532299,Sanitation Code Violation,Garbage in yard,8109 S MUSKEGON AVE,60617.0,1196575.18850831,1851750.10629715,7.0,4.0,46.0,41.74807650085122,-87.55525243635992,"(41.74807650085122, -87.55525243635992)",2013-05-04
41963,05/04/2013,Completed,05/08/2013,13-00532302,Sanitation Code Violation,Garbage in yard,8107 S MUSKEGON AVE,60617.0,1196574.88850831,1851763.40629715,7.0,4.0,46.0,41.748113004500325,-87.55525309493099,"(41.748113004500325, -87.555253094931)",2013-05-04
41964,05/05/2013,Completed,05/08/2013,13-00533988,Sanitation Code Violation,Garbage in alley,4854 N ELSTON AVE,60630.0,1145149.88432014,1931863.18500136,39.0,17.0,14.0,41.96903877403783,-87.7416699747599,"(41.96903877403783, -87.7416699747599)",2013-05-05
41965,05/05/2013,Completed,05/08/2013,13-00534184,Sanitation Code Violation,Other,8500 S MANISTEE AVE,60617.0,1195968.26259346,1849144.19080342,7.0,4.0,46.0,41.74094070260911,-87.55756244933,"(41.74094070260911, -87.55756244933)",2013-05-05
41966,05/05/2013,Completed,05/08/2013,13-00534615,Sanitation Code Violation,Garbage in alley,3929 N ODELL AVE,60634.0,1126371.27779725,1925192.93537812,36.0,16.0,17.0,41.951069950022095,-87.81086952032896,"(41.951069950022095, -87.81086952032895)",2013-05-05
41967,05/06/2013,Completed,05/08/2013,13-00535515,Sanitation Code Violation,Other,8518 W GREGORY ST,60656.0,1118522.91068323,1935747.8092083,41.0,16.0,76.0,41.980161482571994,-87.83949685963155,"(41.98016148257199, -87.83949685963157)",2013-05-06
41968,05/06/2013,Completed,05/08/2013,13-00536865,Sanitation Code Violation,Other,440 W 45TH ST,60609.0,1174124.50161215,1875095.49586781,11.0,9.0,37.0,41.81266648655488,-87.63682548455576,"(41.812666486554875, -87.63682548455577)",2013-05-06
41969,05/06/2013,Completed,05/08/2013,13-00538269,Sanitation Code Violation,Garbage in yard,3640 N OKETO AVE,60634.0,1126114.3162851,1923262.4206668998,36.0,16.0,17.0,41.945776682204304,-87.81185729706883,"(41.945776682204304, -87.81185729706883)",2013-05-06
41970,05/06/2013,Completed,05/08/2013,13-00539818,Sanitation Code Violation,Dumpster not being emptied,740 W BRIAR PL,60657.0,1170768.25207806,1921145.24818158,44.0,19.0,6.0,41.939104280606585,-87.64778706774383,"(41.939104280606585, -87.64778706774385)",2013-05-06
41975,05/01/2013,Completed,05/08/2013,13-00515013,Sanitation Code Violation,Garbage in yard,5206 S WELLS ST,60609.0,1175484.7130938,1870455.9600689998,3.0,9.0,37.0,41.79990479811665,-87.63197511545273,"(41.79990479811665, -87.63197511545273)",2013-05-01
41976,05/01/2013,Completed,05/08/2013,13-00515343,Sanitation Code Violation,Other,4010 S DEARBORN ST,60609.0,1176625.08001898,1878444.77107915,3.0,2.0,38.0,41.821801209113204,-87.62755248965206,"(41.8218012091132, -87.62755248965207)",2013-05-01
41977,05/01/2013,Completed,05/08/2013,13-00518134,Sanitation Code Violation,Garbage in alley,4131 W GLADYS AVE,60624.0,1148906.1921275,1898034.42838877,24.0,11.0,26.0,41.8761375347947,-87.72873496264717,"(41.8761375347947, -87.72873496264717)",2013-05-01
41978,05/01/2013,Completed,05/08/2013,13-00519683,Sanitation Code Violation,Garbage in yard,1622 S HAMLIN AVE,60623.0,1151316.91431311,1891629.6180341998,24.0,10.0,29.0,41.8585150624804,-87.72005156018085,"(41.8585150624804, -87.72005156018086)",2013-05-01
41979,05/02/2013,Completed,05/08/2013,13-00522572,Sanitation Code Violation,Garbage in yard,717 N PARKSIDE AVE,60644.0,1138551.2435236,1904196.88567802,29.0,15.0,25.0,41.89324197994618,-87.7666058473592,"(41.89324197994618, -87.7666058473592)",2013-05-02
41989,05/08/2013,Completed - Dup,05/09/2013,13-00551789,Sanitation Code Violation,Garbage in yard,6549 N KEDZIE AVE,60645.0,1153852.50746907,1943245.72989923,50.0,24.0,2.0,42.00010370233874,-87.70936544061995,"(42.00010370233874, -87.70936544061996)",2013-05-08
41990,05/08/2013,Completed,05/09/2013,13-00548620,Sanitation Code Violation,Overflowing carts,2300 W 23RD ST,60608.0,1161394.50806762,1888692.5531856003,25.0,10.0,31.0,41.85025197402194,-87.68314184028137,"(41.85025197402194, -87.68314184028137)",2013-05-08
41991,05/08/2013,Completed,05/09/2013,13-00548873,Sanitation Code Violation,,1329 W TOUHY AVE,60626.0,1166099.16728349,1947971.44499004,49.0,24.0,1.0,42.0128174148427,-87.66417694838646,"(42.0128174148427, -87.66417694838646)",2013-05-08
41992,05/08/2013,Completed,05/09/2013,13-00548970,Sanitation Code Violation,Garbage in alley,10840 S DR MARTIN LUTHER KING JR DR,60628.0,1180833.97782827,1833166.81988493,9.0,5.0,49.0,41.69745779371479,-87.61350205846955,"(41.69745779371479, -87.61350205846954)",2013-05-08
41993,05/08/2013,Completed,05/09/2013,13-00549594,Sanitation Code Violation,Garbage in alley,3674 N ELSTON AVE,60618.0,1153737.92992938,1924118.70987636,35.0,17.0,16.0,41.94762033744826,-87.71029868821549,"(41.94762033744826, -87.71029868821549)",2013-05-08
41994,05/08/2013,Completed,05/09/2013,13-00550573,Sanitation Code Violation,,2600 N LAWNDALE AVE,60647.0,1151275.96320339,1917032.37702076,35.0,25.0,22.0,41.92822362295894,-87.7195348290272,"(41.92822362295894, -87.71953482902718)",2013-05-08
41995,05/08/2013,Completed,05/09/2013,13-00550593,Sanitation Code Violation,Other,6549 N KEDZIE AVE,60645.0,1153852.50746907,1943245.72989923,50.0,24.0,2.0,42.00010370233874,-87.70936544061995,"(42.00010370233874, -87.70936544061996)",2013-05-08
41996,05/08/2013,Completed,05/09/2013,13-00551154,Sanitation Code Violation,Other,1945 N LATROBE AVE,60639.0,1140931.74000702,1912794.94001426,37.0,25.0,19.0,41.916792551548866,-87.75765111175156,"(41.91679255154887, -87.75765111175157)",2013-05-08
41997,05/08/2013,Completed,05/09/2013,13-00553551,Sanitation Code Violation,Overflowing carts,2323 N CAMBRIDGE AVE,60614.0,1172233.77001059,1915680.5693948,43.0,18.0,7.0,41.924076690382,-87.64256275963841,"(41.924076690381995, -87.64256275963841)",2013-05-08
41998,05/09/2013,Completed,05/09/2013,13-00554003,Sanitation Code Violation,Garbage in yard,21 E 120TH ST,60628.0,1178531.47539484,1825403.84369693,9.0,5.0,53.0,41.6762075466396,-87.62216714318855,"(41.676207546639596, -87.62216714318855)",2013-05-09
41999,05/09/2013,Completed,05/09/2013,13-00554005,Sanitation Code Violation,Garbage in alley,2808 W PALMER ST,60647.0,1157251.49732884,1914693.61998463,35.0,14.0,22.0,41.9216864170405,-87.69764051982942,"(41.9216864170405, -87.69764051982942)",2013-05-09
42000,05/09/2013,Completed,05/09/2013,13-00554771,Sanitation Code Violation,Garbage in alley,5059 W POTOMAC AVE,60651.0,1142398.96001236,1908179.62020898,37.0,25.0,25.0,41.904100454303176,-87.75237534976368,"(41.90410045430318, -87.75237534976367)",2013-05-09
42001,05/09/2013,Completed,05/09/2013,13-00557648,Sanitation Code Violation,,1435 N LONG AVE,60651.0,1140089.08990497,1909022.0932947,37.0,25.0,25.0,41.90645491197351,-87.76083955996103,"(41.90645491197351, -87.76083955996103)",2013-05-09
42002,05/09/2013,Completed,05/09/2013,13-00557661,Sanitation Code Violation,,1457 N LONG AVE,60651.0,1140084.83379553,1909168.63151117,37.0,25.0,25.0,41.906857107759926,-87.76085160200047,"(41.906857107759926, -87.76085160200047)",2013-05-09
42003,05/09/2013,Completed,05/09/2013,13-00557667,Sanitation Code Violation,,1504 N LONG AVE,60651.0,1140075.73379553,1909475.03151117,37.0,25.0,25.0,41.90769807141663,-87.76087751903103,"(41.90769807141663, -87.76087751903103)",2013-05-09
42004,05/06/2013,Completed,05/09/2013,13-00535907,Sanitation Code Violation,Other,5217 S KIMBARK AVE,60615.0,1185551.83127693,1870858.18999498,4.0,2.0,41.0,41.80077721038601,-87.59504391310988,"(41.80077721038601, -87.59504391310988)",2013-05-06
42005,05/06/2013,Completed,05/09/2013,13-00538612,Sanitation Code Violation,Overflowing carts,6252 W NORTH AVE,60639.0,1134275.62009236,1909975.49610671,29.0,25.0,25.0,41.90917565200604,-87.78217256933466,"(41.90917565200604, -87.78217256933465)",2013-05-06
42006,05/06/2013,Completed,05/09/2013,13-00538621,Sanitation Code Violation,Garbage in yard,4817 S MARSHFIELD AVE,60609.0,1166152.71683084,1872769.32727674,20.0,9.0,61.0,41.80645679535813,-87.66613230101332,"(41.80645679535813, -87.66613230101332)",2013-05-06
42007,05/06/2013,Completed,05/09/2013,13-00540117,Sanitation Code Violation,Other,4400 N ELSTON AVE,60630.0,1148427.67447778,1928929.90198193,45.0,17.0,16.0,41.96092688535102,-87.72969346433817,"(41.96092688535102, -87.72969346433817)",2013-05-06
42008,05/06/2013,Completed,05/09/2013,13-00540527,Sanitation Code Violation,Garbage in alley,6311 W DIVERSEY AVE,60639.0,1133803.45940841,1917936.49581535,29.0,25.0,19.0,41.931029904272116,-87.78371967219152,"(41.93102990427212, -87.78371967219151)",2013-05-06
42009,05/06/2013,Completed,05/09/2013,13-00540964,Sanitation Code Violation,Garbage in yard,4942 W AINSLIE ST,60630.0,1142454.41807545,1932124.75940189,45.0,16.0,12.0,41.969807207287104,-87.75157475296056,"(41.969807207287104, -87.75157475296056)",2013-05-06
42010,05/07/2013,Completed - Dup,05/09/2013,13-00541642,Sanitation Code Violation,Dog feces in yard,1820 N MERRIMAC AVE,60639.0,1134534.84680414,1911444.88921234,29.0,25.0,25.0,41.913203272980155,-87.78118552190769,"(41.91320327298016, -87.78118552190769)",2013-05-07
42011,05/07/2013,Completed,05/09/2013,13-00541458,Sanitation Code Violation,Dumpster not being emptied,245 N MASON AVE,60644.0,1136728.14882072,1901093.92477875,29.0,15.0,25.0,41.88475989976397,-87.77337588307138,"(41.88475989976397, -87.77337588307137)",2013-05-07
42012,05/07/2013,Completed,05/09/2013,13-00541605,Sanitation Code Violation,Dog feces in yard,1820 N MERRIMAC AVE,60639.0,1134534.84680414,1911444.88921234,29.0,25.0,25.0,41.913203272980155,-87.78118552190769,"(41.91320327298016, -87.78118552190769)",2013-05-07
42013,05/02/2013,Completed,05/09/2013,13-00525382,Sanitation Code Violation,Other,5530 W HOMER ST,60639.0,1139228.63833351,1912148.03518581,29.0,25.0,25.0,41.91504857207271,-87.76392415134869,"(41.91504857207271, -87.76392415134869)",2013-05-02
42014,05/03/2013,Completed,05/09/2013,13-00529149,Sanitation Code Violation,Dumpster not being emptied,4814 W HUTCHINSON ST,60641.0,1143513.31258242,1927821.24730508,45.0,16.0,15.0,41.95797822041565,-87.74778925916054,"(41.957978220415654, -87.74778925916053)",2013-05-03
42015,05/04/2013,Completed,05/09/2013,13-00531788,Sanitation Code Violation,Garbage in yard,5401 W MONROE ST,60644.0,1140467.22531244,1899135.60270911,29.0,15.0,25.0,41.87931824374765,-87.75969330408611,"(41.87931824374765, -87.75969330408611)",2013-05-04
42016,05/04/2013,Completed,05/09/2013,13-00531832,Sanitation Code Violation,Dumpster not being emptied,6315 W GRAND AVE,60639.0,1133889.31379728,1914667.69940428,29.0,25.0,19.0,41.92205843407918,-87.7834811983136,"(41.92205843407918, -87.7834811983136)",2013-05-04
42017,05/05/2013,Completed,05/09/2013,13-00533435,Sanitation Code Violation,Other,4758 N SPAULDING AVE,60625.0,1153521.86072659,1931425.76599427,33.0,17.0,14.0,41.967675691968104,-87.71089781990068,"(41.9676756919681, -87.71089781990068)",2013-05-05
42018,05/05/2013,Completed,05/09/2013,13-00533561,Sanitation Code Violation,Other,4550 N BERNARD ST,60625.0,1152576.83883438,1929692.96558583,33.0,17.0,14.0,41.96293956250198,-87.71441861998184,"(41.96293956250198, -87.71441861998184)",2013-05-05
42019,05/05/2013,Completed,05/09/2013,13-00533644,Sanitation Code Violation,Other,4760 N ELSTON AVE,60630.0,1145821.1813005,1931294.78152816,45.0,17.0,16.0,41.967466284117975,-87.73921609296274,"(41.96746628411798, -87.73921609296274)",2013-05-05
42022,05/09/2013,Completed,05/10/2013,13-00554046,Sanitation Code Violation,Other,6549 N KEDZIE AVE,60645.0,1153852.50746907,1943245.72989923,50.0,24.0,2.0,42.00010370233874,-87.70936544061995,"(42.00010370233874, -87.70936544061996)",2013-05-09
42023,05/09/2013,Completed,05/10/2013,13-00554279,Sanitation Code Violation,Garbage in alley,2005 W DIVISION ST,60622.0,1162816.55991313,1907994.60013146,1.0,12.0,24.0,41.90318881314428,-87.67738125417345,"(41.903188813144276, -87.67738125417345)",2013-05-09
42024,05/09/2013,Completed,05/10/2013,13-00554317,Sanitation Code Violation,Other,565 E 105TH PL,60628.0,1181977.78638239,1835128.45989017,9.0,5.0,49.0,41.70281448500921,-87.60925371250326,"(41.70281448500921, -87.60925371250327)",2013-05-09
42025,05/09/2013,Completed,05/10/2013,13-00554810,Sanitation Code Violation,Other,6148 N NAGLE AVE,60646.0,1132617.02186747,1940379.19996653,41.0,16.0,10.0,41.9926357608297,-87.78755436778293,"(41.9926357608297, -87.78755436778293)",2013-05-09
42026,05/09/2013,Completed,05/10/2013,13-00555667,Sanitation Code Violation,Garbage in alley,2657 E 93RD ST,60617.0,1195625.41060267,1843814.31477567,7.0,4.0,48.0,41.72632354495844,-87.55899429538972,"(41.72632354495844, -87.55899429538974)",2013-05-09
42027,05/09/2013,Completed,05/10/2013,13-00556165,Sanitation Code Violation,Overflowing carts,1810 W 21ST ST,60608.0,1164625.93512417,1890109.79972217,25.0,12.0,31.0,41.85407328216245,-87.6712418563111,"(41.85407328216245, -87.6712418563111)",2013-05-09
42028,05/09/2013,Completed,05/10/2013,13-00556319,Sanitation Code Violation,Garbage in alley,4333 S SACRAMENTO AVE,60632.0,1157081.62962754,1875764.50800447,14.0,9.0,58.0,41.81486438308889,-87.69932108513771,"(41.81486438308889, -87.69932108513771)",2013-05-09
42029,05/09/2013,Completed,05/10/2013,13-00556505,Sanitation Code Violation,Garbage in alley,2200 N CALIFORNIA AVE,60647.0,1157338.59732884,1914695.31998463,35.0,14.0,22.0,41.92168930975305,-87.69732044418676,"(41.92168930975305, -87.69732044418676)",2013-05-09
42030,05/09/2013,Completed,05/10/2013,13-00556786,Sanitation Code Violation,Other,10035 S LA SALLE ST,60628.0,1177041.8034833,1838412.50226802,9.0,5.0,49.0,41.71193881892577,-87.62722934977847,"(41.71193881892577, -87.62722934977849)",2013-05-09
42031,05/09/2013,Completed,05/10/2013,13-00556927,Sanitation Code Violation,Other,1008 N DAMEN AVE,60622.0,1162885.53568166,1906758.31907919,32.0,12.0,24.0,41.899794917354505,-87.67716262646256,"(41.899794917354505, -87.67716262646256)",2013-05-09
42032,05/09/2013,Completed,05/10/2013,13-00557240,Sanitation Code Violation,Garbage in alley,2155 W POLK ST,60612.0,1162095.3906818,1896410.57412321,25.0,12.0,28.0,41.87141637756051,-87.68035404133451,"(41.871416377560514, -87.68035404133451)",2013-05-09
42033,05/09/2013,Completed,05/10/2013,13-00557441,Sanitation Code Violation,Other,8959 S ESSEX AVE,60617.0,1194388.64927107,1846024.00841944,7.0,4.0,48.0,41.73241758274036,-87.56345217493013,"(41.73241758274036, -87.56345217493012)",2013-05-09
42034,05/09/2013,Completed,05/10/2013,13-00557709,Sanitation Code Violation,Other,3106 W FULLERTON AVE,60647.0,1155271.45657138,1915791.38139031,26.0,14.0,22.0,41.92473880903199,-87.70488618073587,"(41.924738809031986, -87.70488618073587)",2013-05-09
42035,05/09/2013,Completed,05/10/2013,13-00558020,Sanitation Code Violation,Overflowing carts,7631 S YATES BLVD,60649.0,1193525.95229982,1854827.13409281,7.0,4.0,43.0,41.75659523554602,-87.56632509301414,"(41.75659523554602, -87.56632509301414)",2013-05-09
42036,05/09/2013,Completed,05/10/2013,13-00558283,Sanitation Code Violation,Other,10945 S STATE ST,60628.0,1178198.69701029,1832300.24990188,9.0,5.0,49.0,41.6951398355795,-87.62317710448292,"(41.6951398355795, -87.62317710448292)",2013-05-09
42037,05/09/2013,Completed,05/10/2013,13-00558408,Sanitation Code Violation,Overflowing carts,1707 S RACINE AVE,60608.0,1168641.99848207,1891862.2100119998,25.0,12.0,31.0,41.85879612419596,-87.65645069073692,"(41.858796124195955, -87.65645069073692)",2013-05-09
42038,05/09/2013,Completed,05/10/2013,13-00558435,Sanitation Code Violation,Garbage in yard,1921 N SAWYER AVE,60647.0,1154274.7831008001,1912669.85709442,35.0,14.0,22.0,41.91619307311702,-87.70863196851104,"(41.91619307311702, -87.70863196851104)",2013-05-09
42039,05/09/2013,Completed,05/10/2013,13-00558589,Sanitation Code Violation,Garbage in yard,5035 W HENDERSON ST,60641.0,1142207.25978832,1921803.57518404,38.0,16.0,15.0,41.9414895675993,-87.75274069126957,"(41.9414895675993, -87.75274069126958)",2013-05-09
42040,05/09/2013,Completed,05/10/2013,13-00558711,Sanitation Code Violation,Construction Site Cleanliness/Fence,1900 N LINCOLN AVE,60614.0,1173955.46910428,1912951.8877327,43.0,18.0,7.0,41.91655083765949,-87.63631809673893,"(41.91655083765949, -87.63631809673892)",2013-05-09
42041,05/09/2013,Completed,05/10/2013,13-00558840,Sanitation Code Violation,Other,304 N WABASH AVE,60601.0,1176750.59632806,1902223.049282,42.0,1.0,32.0,41.887047615718544,-87.62637383156151,"(41.88704761571854, -87.62637383156151)",2013-05-09
42042,05/09/2013,Completed,05/10/2013,13-00559294,Sanitation Code Violation,Construction Site Cleanliness/Fence,5018 S KEDVALE AVE,60632.0,1149549.77938079,1870969.65779058,23.0,8.0,57.0,41.80185578254083,-87.7270733260379,"(41.80185578254083, -87.7270733260379)",2013-05-09
42043,05/09/2013,Completed,05/10/2013,13-00559484,Sanitation Code Violation,Garbage in alley,3250 W EVERGREEN AVE,60651.0,1154780.61413276,1908802.76009288,26.0,14.0,23.0,41.905571298162606,-87.7068773306238,"(41.9055712981626, -87.7068773306238)",2013-05-09
42044,05/09/2013,Completed,05/10/2013,13-00559837,Sanitation Code Violation,Garbage in alley,10057 S PRINCETON AVE,60628.0,1176063.70131184,1838164.98257546,9.0,5.0,49.0,41.71128154504266,-87.63081880503331,"(41.71128154504266, -87.63081880503331)",2013-05-09
42045,05/10/2013,Completed - Dup,05/10/2013,13-00560263,Sanitation Code Violation,Other,6549 N KEDZIE AVE,60645.0,1153852.50746907,1943245.72989923,50.0,24.0,2.0,42.00010370233874,-87.70936544061995,"(42.00010370233874, -87.70936544061996)",2013-05-10
42046,05/10/2013,Completed,05/10/2013,13-00560184,Sanitation Code Violation,Garbage in yard,11739 S PRAIRIE AVE,60628.0,1180024.01483308,1827040.11419879,9.0,5.0,53.0,41.6806637797515,-87.61665430458143,"(41.6806637797515, -87.61665430458143)",2013-05-10
42047,05/10/2013,Completed,05/10/2013,13-00562452,Sanitation Code Violation,Other,4608 N MONTICELLO AVE,60625.0,1151225.26279887,1930377.20532619,33.0,17.0,14.0,41.96484384433201,-87.71936987680971,"(41.96484384433201, -87.71936987680972)",2013-05-10
42048,05/10/2013,Completed,05/10/2013,13-00562655,Sanitation Code Violation,Other,2207 N MANGO AVE,60639.0,1137695.65369191,1914089.95012894,37.0,25.0,19.0,41.92040519990862,-87.76950934249645,"(41.92040519990862, -87.76950934249646)",2013-05-10
42049,05/07/2013,Completed,05/10/2013,13-00542238,Sanitation Code Violation,Garbage in alley,5629 S SAWYER AVE,60629.0,1155674.56513412,1867111.54838787,14.0,8.0,63.0,41.791147846372745,-87.70471456899483,"(41.791147846372745, -87.70471456899483)",2013-05-07
42050,05/07/2013,Completed,05/10/2013,13-00542581,Sanitation Code Violation,Other,3232 N OSAGE AVE,60634.0,1122529.23647558,1920519.92490401,36.0,16.0,17.0,41.93831001899125,-87.82509487682955,"(41.938310018991245, -87.82509487682955)",2013-05-07
42051,05/07/2013,Completed,05/10/2013,13-00542624,Sanitation Code Violation,Garbage in yard,6540 S FAIRFIELD AVE,60629.0,1159170.4426855,1861149.23849627,15.0,8.0,66.0,41.77471557313981,-87.6920589021115,"(41.77471557313981, -87.6920589021115)",2013-05-07
42052,05/07/2013,Completed,05/10/2013,13-00543036,Sanitation Code Violation,Other,9667 S VAN VLISSINGEN RD,60617.0,1190529.09863135,1841232.05900406,7.0,4.0,51.0,41.71936185675255,-87.57774523451187,"(41.71936185675255, -87.57774523451187)",2013-05-07
42053,05/07/2013,Completed,05/10/2013,13-00543991,Sanitation Code Violation,,7748 S ESSEX AVE,60649.0,1194205.46770487,1854074.03200882,7.0,4.0,43.0,41.75451201339736,-87.56385953189938,"(41.75451201339736, -87.56385953189937)",2013-05-07
42054,05/07/2013,Completed,05/10/2013,13-00544996,Sanitation Code Violation,Dog feces in yard,2833 N NEWLAND AVE,60634.0,1129596.68121845,1918185.89997175,36.0,25.0,18.0,41.93178725866253,-87.79917334590073,"(41.931787258662524, -87.79917334590073)",2013-05-07
42055,05/07/2013,Completed,05/10/2013,13-00546859,Sanitation Code Violation,Dumpster not being emptied,2945 W IRVING PARK RD,60618.0,1155932.11187877,1926443.20831215,33.0,17.0,16.0,41.95395486251223,-87.70217046060912,"(41.95395486251223, -87.70217046060912)",2013-05-07
42056,05/07/2013,Completed,05/10/2013,13-00546978,Sanitation Code Violation,Overflowing carts,5245 S TRUMBULL AVE,60632.0,1154265.46111962,1869626.50952149,14.0,8.0,63.0,41.7980774191034,-87.70981461054203,"(41.7980774191034, -87.70981461054203)",2013-05-07
42057,05/08/2013,Completed - Dup,05/10/2013,13-00547822,Sanitation Code Violation,Other,3447 W MONTROSE AVE,60618.0,1152514.54948141,1929025.78519779,33.0,17.0,16.0,41.96111000971553,-87.7146653473364,"(41.961110009715526, -87.7146653473364)",2013-05-08
42058,05/08/2013,Completed,05/10/2013,13-00549696,Sanitation Code Violation,Other,5135 W NEWPORT AVE,60641.0,1141494.29367301,1922452.03700638,38.0,16.0,15.0,41.943282230254994,-87.75534509215166,"(41.94328223025499, -87.75534509215166)",2013-05-08
42059,05/08/2013,Completed,05/10/2013,13-00549939,Sanitation Code Violation,Overflowing carts,4029 N MEADE AVE,60634.0,1134969.25788988,1926158.72830571,38.0,16.0,15.0,41.95357200685621,-87.77924020654076,"(41.953572006856206, -87.77924020654076)",2013-05-08
42060,05/08/2013,Completed,05/10/2013,13-00550213,Sanitation Code Violation,Dumpster not being emptied,2147 N KENMORE AVE,60614.0,1168947.86239518,1914448.06120129,32.0,18.0,7.0,41.92076662400754,-87.65467226625431,"(41.92076662400754, -87.65467226625431)",2013-05-08
42061,05/08/2013,Completed,05/10/2013,13-00550572,Sanitation Code Violation,Other,3139 N PAULINA ST,60657.0,1164434.22211398,1921001.67741721,32.0,19.0,6.0,41.938846951369975,-87.67107028953023,"(41.93884695136998, -87.67107028953023)",2013-05-08
42062,05/08/2013,Completed,05/10/2013,13-00550731,Sanitation Code Violation,Dog feces in yard,5731 S ST LOUIS AVE,60629.0,1154026.68997831,1866265.85002409,14.0,8.0,63.0,41.78886003143142,-87.71077948355259,"(41.78886003143142, -87.71077948355259)",2013-05-08
42063,05/08/2013,Completed,05/10/2013,13-00550802,Sanitation Code Violation,Garbage in yard,6235 S MOODY AVE,60638.0,1136480.98588778,1862544.41132616,23.0,8.0,64.0,41.778978355543096,-87.77520325565105,"(41.778978355543096, -87.77520325565105)",2013-05-08
42064,05/08/2013,Completed,05/10/2013,13-00551551,Sanitation Code Violation,Garbage in alley,1326 N WOLCOTT AVE,60622.0,1163655.35779661,1908993.26648884,1.0,14.0,24.0,41.905911584252635,-87.67427200030485,"(41.905911584252635, -87.67427200030485)",2013-05-08
42065,05/08/2013,Completed,05/10/2013,13-00551824,Sanitation Code Violation,Other,7134 S EXCHANGE AVE,60649.0,1193554.08727,1858039.12532387,7.0,3.0,43.0,41.76540849658273,-87.566117000158,"(41.76540849658273, -87.566117000158)",2013-05-08
42066,05/08/2013,Completed,05/10/2013,13-00551894,Sanitation Code Violation,Other,7163 S EXCHANGE AVE,60649.0,1193674.39471786,1857883.87999548,7.0,3.0,43.0,41.764979546375116,-87.56568112259602,"(41.764979546375116, -87.56568112259602)",2013-05-08
42067,05/08/2013,Completed,05/10/2013,13-00552851,Sanitation Code Violation,,2148 N TRIPP AVE,60639.0,1147699.71152636,1913939.01229495,30.0,25.0,20.0,41.919804639254,-87.73275599265949,"(41.91980463925399, -87.7327559926595)",2013-05-08
42068,05/08/2013,Completed,05/10/2013,13-00553201,Sanitation Code Violation,Garbage in yard,2450 N DRAKE AVE,60647.0,1152309.5999215,1915726.22319634,26.0,14.0,22.0,41.92461906003075,-87.71577113036606,"(41.92461906003075, -87.71577113036606)",2013-05-08
42069,05/08/2013,Completed,05/10/2013,13-00553223,Sanitation Code Violation,Garbage in yard,5542 W EDDY ST,60641.0,1138779.43808572,1923053.33823237,38.0,16.0,15.0,41.94498206047168,-87.7653090562503,"(41.94498206047168, -87.76530905625029)",2013-05-08
42070,05/08/2013,Completed,05/10/2013,13-00553475,Sanitation Code Violation,Garbage in alley,7617 S COLFAX AVE,60649.0,1194845.63998864,1854958.31141599,7.0,4.0,43.0,41.75692280749694,-87.56148447125669,"(41.75692280749694, -87.56148447125669)",2013-05-08
42071,05/08/2013,Completed,05/10/2013,13-00553901,Sanitation Code Violation,Dumpster not being emptied,3124 W WALTON ST,60622.0,1155331.42796843,1906164.99540269,26.0,12.0,23.0,41.8983219784451,-87.70492497259865,"(41.89832197844509, -87.70492497259865)",2013-05-08
42072,05/04/2013,Completed,05/10/2013,13-00532914,Sanitation Code Violation,Other,5210 S DR MARTIN LUTHER KING JR DR,60615.0,1179809.56193095,1870545.20620472,3.0,2.0,40.0,41.800051768178974,-87.61611207548272,"(41.80005176817898, -87.6161120754827)",2013-05-04
42073,05/05/2013,Completed,05/10/2013,13-00534849,Sanitation Code Violation,Overflowing carts,3626 W 117TH ST,60655.0,1154178.67329382,1826758.68481366,19.0,22.0,74.0,41.680442505714396,-87.71126920709763,"(41.680442505714396, -87.71126920709762)",2013-05-05
42074,05/05/2013,Completed,05/10/2013,13-00534879,Sanitation Code Violation,Garbage in alley,5047 S KOSTNER AVE,60632.0,1147881.63479492,1870794.13370827,23.0,8.0,57.0,41.8014062420357,-87.73319564829607,"(41.8014062420357, -87.73319564829607)",2013-05-05
42075,05/06/2013,Completed,05/10/2013,13-00535517,Sanitation Code Violation,Overflowing carts,2346 E 79TH ST,60649.0,1193304.04556671,1853047.48703255,7.0,4.0,43.0,41.751717167194364,-87.56719640269816,"(41.751717167194364, -87.56719640269816)",2013-05-06
42076,05/06/2013,Completed,05/10/2013,13-00536416,Sanitation Code Violation,Other,12236 S MAY ST,60643.0,1170877.96991686,1823651.84368089,34.0,5.0,53.0,41.67156969261251,-87.65023163493916,"(41.67156969261251, -87.65023163493915)",2013-05-06
42077,05/06/2013,Completed,05/10/2013,13-00536962,Sanitation Code Violation,Garbage in yard,2740 N OAK PARK AVE,60707.0,1130619.24958517,1917467.34947495,36.0,25.0,18.0,41.92979792606025,-87.79543205590478,"(41.929797926060246, -87.7954320559048)",2013-05-06
42078,05/06/2013,Completed,05/10/2013,13-00536963,Sanitation Code Violation,Garbage in yard,2752 N OAK PARK AVE,60707.0,1130616.99547952,1917547.79359231,36.0,25.0,18.0,41.93001871323833,-87.79543848476234,"(41.930018713238326, -87.79543848476234)",2013-05-06
42079,05/06/2013,Completed,05/10/2013,13-00536968,Sanitation Code Violation,Garbage in yard,2745 N NEWCASTLE AVE,60707.0,1130284.86950252,1917493.49307957,36.0,25.0,18.0,41.929875417170784,-87.79666023619652,"(41.92987541717078, -87.79666023619652)",2013-05-06
42080,05/06/2013,Completed,05/10/2013,13-00537388,Sanitation Code Violation,Garbage in yard,3447 W MONTROSE AVE,60618.0,1152514.54948141,1929025.78519779,33.0,17.0,16.0,41.96111000971553,-87.7146653473364,"(41.961110009715526, -87.7146653473364)",2013-05-06
42081,05/06/2013,Completed,05/10/2013,13-00538432,Sanitation Code Violation,Garbage in yard,3225 W 111TH ST,60655.0,1156735.82609829,1830826.60399695,19.0,22.0,74.0,41.691554610340546,-87.7017995283651,"(41.691554610340546, -87.70179952836509)",2013-05-06
42082,05/06/2013,Completed,05/10/2013,13-00539516,Sanitation Code Violation,Dumpster not being emptied,5340 W DIVERSEY AVE,60639.0,1140293.12806737,1918097.82767384,31.0,25.0,19.0,41.93135598205332,-87.75986710025484,"(41.93135598205332, -87.75986710025484)",2013-05-06
42083,05/06/2013,Completed,05/10/2013,13-00540203,Sanitation Code Violation,Garbage in yard,2507 N NEW ENGLAND AVE,60707.0,1130001.36860329,1915906.60697977,36.0,25.0,18.0,41.92552567145781,-87.79773847396092,"(41.925525671457805, -87.79773847396092)",2013-05-06
42084,05/07/2013,Completed - Dup,05/10/2013,13-00545895,Sanitation Code Violation,Other,3447 W MONTROSE AVE,60618.0,1152514.54948141,1929025.78519779,33.0,17.0,16.0,41.96111000971553,-87.7146653473364,"(41.961110009715526, -87.7146653473364)",2013-05-07
42085,05/07/2013,Completed,05/10/2013,13-00541851,Sanitation Code Violation,Garbage in yard,131 E 104TH PL,60628.0,1179050.2621821002,1835635.9800722,9.0,5.0,49.0,41.704274234397424,-87.61995811243496,"(41.704274234397424, -87.61995811243497)",2013-05-07
42090,05/01/2013,Completed,05/10/2013,13-00515604,Sanitation Code Violation,Garbage in yard,7953 S ESCANABA AVE,60617.0,1196887.10942378,1852790.03738693,7.0,4.0,46.0,41.75092240298875,-87.55407496976362,"(41.75092240298875, -87.55407496976363)",2013-05-01
42091,05/01/2013,Completed,05/10/2013,13-00515818,Sanitation Code Violation,Garbage in yard,7148 S MOZART ST,60629.0,1158609.29008077,1857106.7253014,18.0,8.0,66.0,41.76363378306034,-87.69422613346676,"(41.76363378306034, -87.69422613346677)",2013-05-01
42092,05/01/2013,Completed,05/10/2013,13-00517319,Sanitation Code Violation,Garbage in yard,3407 W 73RD PL,60629.0,1154945.58381935,1855664.48010824,18.0,8.0,66.0,41.759749947086355,-87.70769297306231,"(41.75974994708636, -87.7076929730623)",2013-05-01
42093,05/01/2013,Completed,05/10/2013,13-00517917,Sanitation Code Violation,Garbage in yard,1814 W 95TH ST,60643.0,1165859.20527851,1841675.38439397,19.0,22.0,72.0,41.721137035230754,-87.66809077707774,"(41.72113703523075, -87.66809077707774)",2013-05-01
42094,05/01/2013,Completed,05/10/2013,13-00518169,Sanitation Code Violation,Dog feces in yard,7126 S SACRAMENTO AVE,60629.0,1157604.24008062,1857225.12771475,18.0,8.0,66.0,41.76397912996862,-87.69790668036997,"(41.76397912996862, -87.69790668036997)",2013-05-01
42095,05/01/2013,Completed,05/10/2013,13-00519307,Sanitation Code Violation,Other,3934 W 85TH ST,60652.0,1151653.4584186,1847913.36102493,18.0,8.0,70.0,41.738544620628,-87.71996124326397,"(41.73854462062799, -87.71996124326397)",2013-05-01
42096,05/01/2013,Completed,05/10/2013,13-00519326,Sanitation Code Violation,Garbage in yard,3931 W 81ST PL,60652.0,1151603.3127108,1850247.92911852,18.0,8.0,70.0,41.74495206384493,-87.7200840150124,"(41.74495206384493, -87.7200840150124)",2013-05-01
42097,05/01/2013,Completed,05/10/2013,13-00519327,Sanitation Code Violation,Garbage in yard,3919 W 81ST PL,60652.0,1151684.1127108,1850250.32911852,18.0,8.0,70.0,41.74495706929272,-87.71978788522148,"(41.744957069292724, -87.71978788522148)",2013-05-01
42098,05/02/2013,Completed,05/10/2013,13-00521016,Sanitation Code Violation,Garbage in yard,3151 S KEDVALE AVE,60623.0,1149216.03592626,1883374.29720431,22.0,10.0,30.0,41.83590232499868,-87.7279768067102,"(41.83590232499868, -87.7279768067102)",2013-05-02
42099,05/02/2013,Completed,05/10/2013,13-00521793,Sanitation Code Violation,,5880 S WESTERN AVE,60636.0,1161378.5725144,1865598.60483295,16.0,8.0,63.0,41.78687977462194,-87.68384099538928,"(41.786879774621944, -87.68384099538926)",2013-05-02
42100,05/03/2013,Completed - Dup,05/10/2013,13-00528380,Sanitation Code Violation,Dumpster not being emptied,10317 S WALLACE ST,60628.0,1174127.48459915,1836398.13008683,34.0,22.0,49.0,41.70647617561959,-87.6379619139514,"(41.706476175619585, -87.63796191395139)",2013-05-03
42101,05/03/2013,Completed,05/10/2013,13-00526574,Sanitation Code Violation,Garbage in alley,11550 S CHURCH ST,60643.0,1165525.48260392,1827976.23890178,19.0,22.0,75.0,41.68355136958867,-87.66969979497166,"(41.68355136958867, -87.66969979497166)",2013-05-03
42102,05/03/2013,Completed,05/10/2013,13-00526899,Sanitation Code Violation,Garbage in alley,2800 W MARQUETTE RD,60629.0,1158865.40610496,1860093.15418897,15.0,8.0,66.0,41.771823760520356,-87.69320594284754,"(41.77182376052036, -87.69320594284754)",2013-05-03
42103,05/03/2013,Completed,05/10/2013,13-00527254,Sanitation Code Violation,Other,8700 S CONSTANCE AVE,60617.0,1190031.62051095,1847656.92290924,8.0,4.0,48.0,41.737004296498796,-87.5793611918489,"(41.737004296498796, -87.5793611918489)",2013-05-03
42104,05/03/2013,Completed,05/10/2013,13-00529878,Sanitation Code Violation,Garbage in alley,7155 S ALBANY AVE,60629.0,1156942.68038771,1857010.89042976,18.0,8.0,66.0,41.76340461509096,-87.7003372503014,"(41.76340461509096, -87.70033725030139)",2013-05-03
42105,05/04/2013,Completed,05/10/2013,13-00532006,Sanitation Code Violation,Garbage in alley,6817 W ADDISON ST,60634.0,1130238.64882422,1923174.07809879,36.0,16.0,17.0,41.94546440450755,-87.79669941661963,"(41.945464404507554, -87.79669941661963)",2013-05-04
42106,05/04/2013,Completed,05/10/2013,13-00532026,Sanitation Code Violation,Dumpster not being emptied,3002 W 111TH ST,60655.0,1158257.10979262,1830862.2041964,19.0,22.0,74.0,41.69162156229428,-87.69622891754514,"(41.69162156229428, -87.69622891754514)",2013-05-04
42107,05/04/2013,Completed,05/10/2013,13-00532260,Sanitation Code Violation,Garbage in yard,249 E 37TH ST,60653.0,1178622.36406838,1880513.33658426,3.0,2.0,35.0,41.827432262769925,-87.62016245751758,"(41.82743226276992, -87.6201624575176)",2013-05-04
42124,05/11/2013,Completed - Dup,05/13/2013,13-00566599,Sanitation Code Violation,Other,6549 N KEDZIE AVE,60645.0,1153852.50746907,1943245.72989923,50.0,24.0,2.0,42.00010370233874,-87.70936544061995,"(42.00010370233874, -87.70936544061996)",2013-05-11
42125,05/11/2013,Completed,05/13/2013,13-00565891,Sanitation Code Violation,Garbage in yard,2150 W COULTER ST,60608.0,1162746.62862539,1888072.54342743,25.0,10.0,31.0,41.84852240441858,-87.67819668671271,"(41.84852240441858, -87.6781966867127)",2013-05-11
42126,05/11/2013,Completed,05/13/2013,13-00566072,Sanitation Code Violation,Construction Site Cleanliness/Fence,1112 W ARDMORE AVE,60660.0,1167748.33252516,1938686.11872787,48.0,20.0,77.0,41.98730278253101,-87.6583781856475,"(41.98730278253101, -87.65837818564752)",2013-05-11
42127,05/11/2013,Completed,05/13/2013,13-00566089,Sanitation Code Violation,Garbage in alley,3936 S TALMAN AVE,60632.0,1159374.90998473,1878339.65990051,12.0,9.0,58.0,41.821884177195834,-87.6908383353388,"(41.82188417719583, -87.6908383353388)",2013-05-11
42128,05/11/2013,Completed,05/13/2013,13-00566500,Sanitation Code Violation,Dog feces in yard,2834 S HARDING AVE,60623.0,1150504.08238481,1884859.48870611,22.0,10.0,30.0,41.839952876941396,-87.72321176063299,"(41.8399528769414, -87.72321176063299)",2013-05-11
42129,05/11/2013,Completed,05/13/2013,13-00566661,Sanitation Code Violation,Garbage in alley,5935 S KEDVALE AVE,60629.0,1149717.35998127,1864921.86190367,13.0,8.0,65.0,41.78525645944385,-87.72661526762373,"(41.78525645944385, -87.72661526762373)",2013-05-11
42130,05/11/2013,Completed,05/13/2013,13-00566799,Sanitation Code Violation,Other,2470 N GREENVIEW AVE,60614.0,1165906.48750771,1916554.26621695,32.0,19.0,7.0,41.92661167713469,-87.66578663144735,"(41.92661167713469, -87.66578663144736)",2013-05-11
42131,05/11/2013,Completed,05/13/2013,13-00566809,Sanitation Code Violation,Garbage in yard,3759 S CALIFORNIA AVE,60632.0,1158319.59941957,1879518.21001816,12.0,9.0,58.0,41.825139852302364,-87.69467766776714,"(41.825139852302364, -87.69467766776714)",2013-05-11
42132,05/11/2013,Completed,05/13/2013,13-00567126,Sanitation Code Violation,Dumpster not being emptied,2219 S WOOD ST,60608.0,1164719.93009008,1889238.33997647,25.0,10.0,31.0,41.851679924393956,-87.67092153352293,"(41.85167992439396, -87.67092153352293)",2013-05-11
42133,05/12/2013,Completed,05/13/2013,13-00567505,Sanitation Code Violation,Garbage in yard,2524 W 46TH ST,60632.0,1160267.96527043,1874089.52111266,12.0,9.0,58.0,41.81020290605476,-87.68767926339007,"(41.81020290605476, -87.68767926339007)",2013-05-12
42134,05/12/2013,Completed,05/13/2013,13-00567512,Sanitation Code Violation,Overflowing carts,2352 W CERMAK RD,60608.0,1161026.11778424,1889343.61098793,25.0,12.0,31.0,41.852046190062225,-87.68447584148066,"(41.852046190062225, -87.68447584148065)",2013-05-12
42135,05/12/2013,Completed,05/13/2013,13-00567534,Sanitation Code Violation,Construction Site Cleanliness/Fence,4440 S WOLCOTT AVE,60609.0,1164429.94079579,1875234.669969,12.0,9.0,61.0,41.8132585088556,-87.67238132380574,"(41.813258508855604, -87.67238132380574)",2013-05-12
42136,05/12/2013,Completed,05/13/2013,13-00567645,Sanitation Code Violation,Overflowing carts,2022 W SHAKESPEARE AVE,60647.0,1162522.88158116,1914406.06002004,32.0,14.0,22.0,41.920788470544046,-87.67828012976042,"(41.92078847054405, -87.67828012976042)",2013-05-12
42137,05/12/2013,Completed,05/13/2013,13-00567710,Sanitation Code Violation,Other,4024 N MEADE AVE,60634.0,1134970.35788988,1926123.62830571,38.0,16.0,15.0,41.953475669358994,-87.77923699701654,"(41.95347566935899, -87.77923699701654)",2013-05-12
42138,05/12/2013,Completed,05/13/2013,13-00567879,Sanitation Code Violation,Overflowing carts,2105 W SCHILLER ST,60622.0,1162109.7196091001,1909412.53267487,32.0,14.0,24.0,41.907094528411314,-87.67993794854189,"(41.90709452841131, -87.67993794854189)",2013-05-12
42139,05/12/2013,Completed,05/13/2013,13-00568391,Sanitation Code Violation,Overflowing carts,2800 N DAMEN AVE,60618.0,1162530.29020412,1918595.60030966,1.0,19.0,5.0,41.932284681103795,-87.67813528629341,"(41.932284681103795, -87.67813528629341)",2013-05-12
42140,05/12/2013,Completed,05/13/2013,13-00568394,Sanitation Code Violation,Overflowing carts,2815 N DAMEN AVE,60618.0,1162527.69020412,1918756.40030966,32.0,19.0,5.0,41.93272598062046,-87.67814032514308,"(41.93272598062046, -87.67814032514308)",2013-05-12
42141,05/13/2013,Completed - Dup,05/13/2013,13-00568634,Sanitation Code Violation,Other,6549 N KEDZIE AVE,60645.0,1153852.50746907,1943245.72989923,50.0,24.0,2.0,42.00010370233874,-87.70936544061995,"(42.00010370233874, -87.70936544061996)",2013-05-13
42142,05/13/2013,Completed,05/13/2013,13-00568647,Sanitation Code Violation,Garbage in yard,1312 W THORNDALE AVE,60660.0,1166437.30257176,1939644.19701112,48.0,20.0,77.0,41.989960024243175,-87.66317260441834,"(41.98996002424317, -87.66317260441834)",2013-05-13
42143,05/13/2013,Completed,05/13/2013,13-00568804,Sanitation Code Violation,Overflowing carts,245 N MASON AVE,60644.0,1136728.14882072,1901093.92477875,29.0,15.0,25.0,41.88475989976397,-87.77337588307138,"(41.88475989976397, -87.77337588307137)",2013-05-13
42144,05/13/2013,Completed,05/13/2013,13-00571648,Sanitation Code Violation,Overflowing carts,1047 W GRANVILLE AVE,60660.0,1168048.18721116,1941344.14662618,48.0,24.0,77.0,41.99458997772656,-87.6571981292906,"(41.99458997772656, -87.65719812929059)",2013-05-13
42145,05/09/2013,Completed,05/13/2013,13-00554599,Sanitation Code Violation,Garbage in alley,7343 W ADDISON ST,60634.0,1126390.51592083,1923049.84636595,36.0,16.0,17.0,41.94518873720026,-87.8108468243021,"(41.94518873720026, -87.81084682430209)",2013-05-09
42146,05/09/2013,Completed,05/13/2013,13-00554822,Sanitation Code Violation,Construction Site Cleanliness/Fence,6346 N NORTHWEST HWY,60631.0,1127666.80999293,1941699.45318393,41.0,16.0,10.0,41.996343788303705,-87.80573340492172,"(41.996343788303705, -87.80573340492172)",2013-05-09
42147,05/09/2013,Completed,05/13/2013,13-00555587,Sanitation Code Violation,Garbage in yard,2751 W GREENLEAF AVE,60645.0,1156753.81257138,1946650.15708343,50.0,24.0,2.0,42.00938706480505,-87.69859931136467,"(42.00938706480505, -87.69859931136467)",2013-05-09
42148,05/09/2013,Completed,05/13/2013,13-00557333,Sanitation Code Violation,Overflowing carts,2515 S SPRINGFIELD AVE,60623.0,1150776.91330795,1887008.53890948,22.0,10.0,30.0,41.84584482153111,-87.72215445727575,"(41.84584482153111, -87.72215445727575)",2013-05-09
42149,05/09/2013,Completed,05/13/2013,13-00557365,Sanitation Code Violation,Other,2735 N SAYRE AVE,60707.0,1129120.7863948,1917402.03357012,36.0,25.0,18.0,41.92964435566077,-87.80094010922492,"(41.92964435566077, -87.80094010922492)",2013-05-09
42150,05/09/2013,Completed,05/13/2013,13-00557424,Sanitation Code Violation,Other,4028 N CENTRAL AVE,60634.0,1138293.74747507,1926227.4148263999,38.0,16.0,15.0,41.95370085697503,-87.76701720098153,"(41.95370085697503, -87.76701720098151)",2013-05-09
42151,05/09/2013,Completed,05/13/2013,13-00557610,Sanitation Code Violation,Garbage in alley,1919 W FOSTER AVE,60640.0,1162671.91381662,1934551.11659806,40.0,20.0,4.0,41.97606444621001,-87.67716589790246,"(41.97606444621001, -87.67716589790246)",2013-05-09
42152,05/09/2013,Completed,05/13/2013,13-00559093,Sanitation Code Violation,Overflowing carts,1816 S ST LOUIS AVE,60623.0,1153325.02859455,1890985.77771084,24.0,10.0,29.0,41.85670869323318,-87.71269752129982,"(41.85670869323318, -87.71269752129983)",2013-05-09
42153,05/09/2013,Completed,05/13/2013,13-00559379,Sanitation Code Violation,Garbage in alley,1340 W ESTES AVE,60626.0,1166125.5030167,1947525.21057469,49.0,24.0,1.0,42.011592376018065,-87.66409288272516,"(42.01159237601806, -87.66409288272517)",2013-05-09
42154,05/09/2013,Completed,05/13/2013,13-00559393,Sanitation Code Violation,Garbage in alley,2711 N KILBOURN AVE,60639.0,1145923.49282842,1917615.03012255,31.0,25.0,20.0,41.92992593603085,-87.7391885809634,"(41.92992593603084, -87.7391885809634)",2013-05-09
42155,05/09/2013,Completed,05/13/2013,13-00559429,Sanitation Code Violation,Garbage in alley,2837 N NEWLAND AVE,60634.0,1129596.08121845,1918205.09997175,36.0,25.0,18.0,41.93183995605368,-87.79917511126577,"(41.93183995605368, -87.79917511126578)",2013-05-09
42156,05/09/2013,Completed,05/13/2013,13-00559643,Sanitation Code Violation,Garbage in yard,5648 N RICHMOND ST,60659.0,1155672.71991896,1937384.88251345,40.0,20.0,2.0,41.9839846761159,-87.70282800829024,"(41.9839846761159, -87.70282800829024)",2013-05-09
42157,05/10/2013,Completed,05/13/2013,13-00560264,Sanitation Code Violation,Dog feces in yard,1820 N MERRIMAC AVE,60639.0,1134534.84680414,1911444.88921234,29.0,25.0,25.0,41.913203272980155,-87.78118552190769,"(41.91320327298016, -87.78118552190769)",2013-05-10
42158,05/10/2013,Completed,05/13/2013,13-00560387,Sanitation Code Violation,Dumpster not being emptied,216 W CERMAK RD,60616.0,1175194.51929676,1889749.39482459,25.0,9.0,34.0,41.85285413527252,-87.63246212217697,"(41.852854135272516, -87.63246212217697)",2013-05-10
42159,05/10/2013,Completed,05/13/2013,13-00560492,Sanitation Code Violation,Other,6549 N KEDZIE AVE,60645.0,1153852.50746907,1943245.72989923,50.0,24.0,2.0,42.00010370233874,-87.70936544061995,"(42.00010370233874, -87.70936544061996)",2013-05-10
42160,05/10/2013,Completed,05/13/2013,13-00561555,Sanitation Code Violation,Dog feces in yard,6141 S KARLOV AVE,60629.0,1150090.34450158,1863560.58258022,13.0,8.0,65.0,41.78151366433781,-87.72528301683498,"(41.78151366433781, -87.72528301683498)",2013-05-10
42161,05/10/2013,Completed,05/13/2013,13-00561719,Sanitation Code Violation,Other,1110 W POLK ST,60607.0,1169105.21011144,1896610.87802066,25.0,12.0,28.0,41.871816815750435,-87.65461259821353,"(41.87181681575043, -87.65461259821353)",2013-05-10
42162,05/10/2013,Completed,05/13/2013,13-00562060,Sanitation Code Violation,Garbage in yard,2220 S SPAULDING AVE,60623.0,1154707.76631834,1889051.94033261,22.0,10.0,30.0,41.85137448336182,-87.70767381843076,"(41.85137448336183, -87.70767381843076)",2013-05-10
42163,05/10/2013,Completed,05/13/2013,13-00564552,Sanitation Code Violation,Overflowing carts,1709 S RACINE AVE,60608.0,1168642.19848207,1891855.610012,25.0,12.0,31.0,41.85877800891381,-87.65645014760109,"(41.858778008913816, -87.65645014760109)",2013-05-10
42164,05/10/2013,Completed,05/13/2013,13-00564682,Sanitation Code Violation,Construction Site Cleanliness/Fence,3444 N CLAREMONT AVE,60618.0,1160096.00283153,1922817.90249327,32.0,19.0,5.0,41.94392164362106,-87.68696399191316,"(41.94392164362106, -87.68696399191317)",2013-05-10
42165,05/10/2013,Completed,05/13/2013,13-00565199,Sanitation Code Violation,Other,5054 N WINTHROP AVE,60640.0,1167952.81138092,1933965.6297983,48.0,20.0,3.0,41.97434521216717,-87.65776304528431,"(41.974345212167165, -87.65776304528431)",2013-05-10
42166,05/10/2013,Completed,05/13/2013,13-00565281,Sanitation Code Violation,Other,3741 W 59TH ST,60629.0,1152441.40798184,1865225.38787483,13.0,8.0,65.0,41.786036199328365,-87.71661959004999,"(41.786036199328365, -87.71661959004999)",2013-05-10
42167,05/10/2013,Completed,05/13/2013,13-00565388,Sanitation Code Violation,Other,5141 S LAVERGNE AVE,60638.0,1143896.66932996,1870072.58201331,23.0,8.0,56.0,41.79950160910944,-87.7478282437458,"(41.799501609109434, -87.7478282437458)",2013-05-10
42168,05/10/2013,Completed,05/13/2013,13-00565400,Sanitation Code Violation,Construction Site Cleanliness/Fence,3600 N IB KENNEDY EXPY,60618.0,1151438.13388992,1923689.58781144,30.0,17.0,16.0,41.946488356318405,-87.71876353489628,"(41.946488356318405, -87.71876353489628)",2013-05-10
42169,05/10/2013,Completed,05/13/2013,13-00565483,Sanitation Code Violation,Other,5820 S KEDZIE AVE,60629.0,1156044.84010008,1865856.85667746,14.0,8.0,63.0,41.78769735525716,-87.703390548793,"(41.78769735525716, -87.703390548793)",2013-05-10
42170,05/10/2013,Completed,05/13/2013,13-00565622,Sanitation Code Violation,Dumpster not being emptied,1700 W CORTLAND ST,60622.0,1164714.30759897,1912704.72229485,32.0,14.0,22.0,41.91607367548044,-87.67027671228914,"(41.91607367548044, -87.67027671228914)",2013-05-10
42171,05/07/2013,Completed,05/13/2013,13-00543441,Sanitation Code Violation,Garbage in alley,3630 W FLOURNOY ST,60624.0,1152285.13571408,1896786.72337669,24.0,11.0,27.0,41.87264771148503,-87.71636149204483,"(41.87264771148503, -87.71636149204483)",2013-05-07
42172,05/07/2013,Completed,05/13/2013,13-00544459,Sanitation Code Violation,Other,2110 N LAMON AVE,60639.0,1143381.10922985,1913630.34468035,31.0,25.0,19.0,41.9190395196981,-87.7486311284071,"(41.9190395196981, -87.7486311284071)",2013-05-07
42173,05/07/2013,Completed,05/13/2013,13-00544465,Sanitation Code Violation,Other,2112 N LAMON AVE,60639.0,1143380.50922985,1913653.34468035,31.0,25.0,19.0,41.919102645314695,-87.74863275674545,"(41.919102645314695, -87.74863275674545)",2013-05-07
42174,05/07/2013,Completed,05/13/2013,13-00546719,Sanitation Code Violation,Other,6034 S ALBANY AVE,60629.0,1156750.78110151,1864456.80260147,16.0,8.0,66.0,41.7838411833481,-87.70083989624035,"(41.7838411833481, -87.70083989624035)",2013-05-07
42175,05/07/2013,Completed,05/13/2013,13-00547172,Sanitation Code Violation,Construction Site Cleanliness/Fence,3837 S CALUMET AVE,60653.0,1179154.53990596,1879615.36229338,3.0,2.0,35.0,41.82495601244453,-87.61823742166322,"(41.82495601244453, -87.61823742166324)",2013-05-07
42176,05/08/2013,Completed,05/13/2013,13-00549035,Sanitation Code Violation,Dumpster not being emptied,3312 W 26TH ST,60623.0,1154652.16372536,1886538.011322,22.0,10.0,30.0,41.84447707845303,-87.7079450866844,"(41.84447707845303, -87.7079450866844)",2013-05-08
42177,05/08/2013,Completed,05/13/2013,13-00549871,Sanitation Code Violation,Garbage in yard,3543 N OAK PARK AVE,60634.0,1130445.82517167,1922802.63067572,36.0,16.0,17.0,41.94444154871163,-87.79594645735838,"(41.94444154871163, -87.79594645735837)",2013-05-08
42178,05/08/2013,Completed,05/13/2013,13-00550557,Sanitation Code Violation,Overflowing carts,2652 S CENTRAL PARK AVE,60623.0,1152797.31058354,1886139.98883429,22.0,10.0,30.0,41.843421718369655,-87.7147626672904,"(41.843421718369655, -87.7147626672904)",2013-05-08
42179,05/08/2013,Completed,05/13/2013,13-00551079,Sanitation Code Violation,Garbage in yard,3602 N NOTTINGHAM AVE,60634.0,1128104.51472238,1923118.43751622,36.0,16.0,17.0,41.94534811656524,-87.80454513260064,"(41.945348116565235, -87.80454513260064)",2013-05-08
42180,05/08/2013,Completed,05/13/2013,13-00551221,Sanitation Code Violation,Dog feces in yard,2217 S ST LOUIS AVE,60623.0,1153382.70011318,1888928.76549164,22.0,10.0,30.0,41.85106286695914,-87.71254042123148,"(41.85106286695914, -87.71254042123148)",2013-05-08
42181,05/08/2013,Completed,05/13/2013,13-00552337,Sanitation Code Violation,Other,3204 S KEDVALE AVE,60623.0,1149223.53592626,1883026.29720431,22.0,10.0,30.0,41.83494722140416,-87.72795828569176,"(41.834947221404164, -87.72795828569177)",2013-05-08
