,Creation Date,Status,Completion Date,Service Request Number,Type of Service Request,Street Address,ZIP Code,X Coordinate,Y Coordinate,Ward,Police District,Community Area,Latitude,Longitude,Location,date
227337,12/01/2014,Completed - Dup,12/01/2014,14-02057021,Street Lights - All/Out,8100 S PRAIRIE AVE,60619.0,1179439.31009948,1851359.19889044,6.0,6.0,44.0,41.74741186968736,-87.61805507807644,"(41.74741186968736, -87.61805507807644)",2014-12-01
227338,12/01/2014,Completed - Dup,12/01/2014,14-02058051,Street Lights - All/Out,2800 W WARREN BLVD,60612.0,1157721.12427288,1900232.09758176,2.0,12.0,27.0,41.88199319931132,-87.69630954774439,"(41.88199319931132, -87.69630954774439)",2014-12-01
227339,12/01/2014,Completed - Dup,12/01/2014,14-02058212,Street Lights - All/Out,8100 S PRAIRIE AVE,60619.0,1179439.31009948,1851359.19889044,6.0,6.0,44.0,41.74741186968736,-87.61805507807644,"(41.74741186968736, -87.61805507807644)",2014-12-01
227340,12/01/2014,Completed,12/01/2014,14-02056729,Street Lights - All/Out,8700 S DORCHESTER AVE,60619.0,1186974.12999189,1847573.38787417,8.0,4.0,48.0,41.736848025469506,-87.59056539054417,"(41.736848025469506, -87.59056539054417)",2014-12-01
227341,12/01/2014,Completed,12/01/2014,14-02056854,Street Lights - All/Out,2700 S WELLS ST,60616.0,1175064.78608231,1886544.08790676,11.0,9.0,34.0,41.844061435582276,-87.63303421645254,"(41.84406143558227, -87.63303421645254)",2014-12-01
227342,12/01/2014,Completed,12/01/2014,14-02058604,Street Lights - All/Out,2315 S WOLCOTT AVE,60608.0,1164064.37001548,1888714.59000755,25.0,10.0,31.0,41.850256555292006,-87.67334237559614,"(41.85025655529201, -87.67334237559614)",2014-12-01
227343,12/01/2014,Completed,12/01/2014,14-02060461,Street Lights - All/Out,300 N STATE ST,60654.0,1176305.95490992,1902374.25198164,42.0,18.0,8.0,41.88747256454026,-87.62800209608477,"(41.88747256454026, -87.62800209608477)",2014-12-01
227344,12/01/2014,Completed,12/01/2014,14-02063046,Street Lights - All/Out,200 N WESTERN AVE,60612.0,1160377.42717704,1901214.6471244,27.0,12.0,28.0,41.884634882895405,-87.68652842708599,"(41.88463488289541, -87.686528427086)",2014-12-01
227345,12/01/2014,Completed,12/01/2014,14-02063056,Street Lights - All/Out,2900 W WARREN BLVD,60612.0,1157051.5018661998,1900218.24529477,2.0,12.0,27.0,41.881968800390695,-87.69876877746691,"(41.881968800390695, -87.69876877746691)",2014-12-01
227427,12/02/2014,Completed - Dup,12/02/2014,14-02064279,Street Lights - All/Out,2300 N HARLEM AVE,,1127718.95077357,1914270.11001437,0.0,0.0,0.0,41.92107372775532,-87.8061623333617,"(41.92107372775532, -87.80616233336171)",2014-12-02
227428,12/02/2014,Completed - Dup,12/02/2014,14-02064485,Street Lights - All/Out,6900 S DAMEN AVE,60636.0,1164216.24773036,1858900.85210107,17.0,7.0,67.0,41.76844095861192,-87.67362490525043,"(41.76844095861192, -87.67362490525043)",2014-12-02
227429,12/02/2014,Completed - Dup,12/02/2014,14-02064499,Street Lights - All/Out,2000 W 107TH ST,60643.0,1165072.16520062,1833681.87928772,19.0,22.0,72.0,41.699218202559365,-87.67119869413486,"(41.69921820255937, -87.67119869413486)",2014-12-02
227430,12/02/2014,Completed,12/02/2014,14-02063831,Street Lights - All/Out,2900 W WARREN BLVD,60612.0,1157051.5018661998,1900218.24529477,2.0,12.0,27.0,41.881968800390695,-87.69876877746691,"(41.881968800390695, -87.69876877746691)",2014-12-02
227431,12/02/2014,Completed,12/02/2014,14-02064274,Street Lights - All/Out,2300 N HARLEM AVE,,1127718.95077357,1914270.11001437,0.0,0.0,0.0,41.92107372775532,-87.8061623333617,"(41.92107372775532, -87.80616233336171)",2014-12-02
227432,12/02/2014,Completed,12/02/2014,14-02064292,Street Lights - All/Out,6201 S HARLEM AVE,60638.0,1129441.60511166,1862556.85507715,23.0,8.0,64.0,41.779134982022384,-87.80101061478477,"(41.779134982022384, -87.80101061478476)",2014-12-02
227433,12/02/2014,Completed,12/02/2014,14-02064355,Street Lights - All/Out,3135 N KEATING AVE,60641.0,1144168.06360362,1920423.6060152,31.0,25.0,19.0,41.93766613515198,-87.74556863930971,"(41.93766613515198, -87.7455686393097)",2014-12-02
227434,12/02/2014,Completed,12/02/2014,14-02069381,Street Lights - All/Out,8300 S BURLEY AVE,60617.0,1199254.09503056,1850556.50381815,10.0,4.0,46.0,41.74473427714267,-87.54547632616921,"(41.74473427714267, -87.5454763261692)",2014-12-02
227451,12/01/2014,Completed - Dup,12/02/2014,14-02058175,Street Lights - All/Out,308 W 29TH ST,60616.0,1174677.05317313,1885473.90370324,11.0,9.0,34.0,41.84113343223568,-87.63448906859112,"(41.84113343223568, -87.63448906859111)",2014-12-01
227452,12/01/2014,Completed,12/02/2014,14-02056944,Street Lights - All/Out,2827 S WELLS ST,60616.0,1175083.38251102,1885870.66981574,11.0,9.0,34.0,41.842213107607996,-87.63298612390041,"(41.84221310760799, -87.63298612390042)",2014-12-01
227453,12/01/2014,Completed,12/02/2014,14-02057077,Street Lights - All/Out,9158 S STONY ISLAND AVE,60617.0,1188393.12147676,1844560.59779436,8.0,4.0,48.0,41.72854689767029,-87.58546263297656,"(41.72854689767029, -87.58546263297654)",2014-12-01
227454,12/01/2014,Completed,12/02/2014,14-02057083,Street Lights - All/Out,1900 E 95TH ST,60617.0,1190508.08987427,1842353.03392842,8.0,4.0,51.0,41.722438433421026,-87.57778614864185,"(41.72243843342102, -87.57778614864186)",2014-12-01
227455,12/01/2014,Completed,12/02/2014,14-02057802,Street Lights - All/Out,5700 S NEENAH AVE,60638.0,1133695.32441733,1866038.82818828,23.0,8.0,56.0,41.788616847095426,-87.78533432715841,"(41.788616847095426, -87.7853343271584)",2014-12-01
227456,12/01/2014,Completed,12/02/2014,14-02057843,Street Lights - All/Out,4600 W MARQUETTE RD,60629.0,1146866.85541524,1859780.26831635,13.0,8.0,64.0,41.771201794899476,-87.73719732820801,"(41.771201794899476, -87.73719732820801)",2014-12-01
227457,12/01/2014,Completed,12/02/2014,14-02057867,Street Lights - All/Out,3900 W 49TH ST,60632.0,1151195.62989988,1871850.86340833,14.0,8.0,57.0,41.804241924883215,-87.72101424749535,"(41.804241924883215, -87.72101424749535)",2014-12-01
227458,12/01/2014,Completed,12/02/2014,14-02057893,Street Lights - All/Out,6400 S WESTERN AVE,60636.0,1161471.99268562,1862151.11010275,15.0,8.0,66.0,41.777417443339,-87.68359397902405,"(41.777417443339, -87.68359397902405)",2014-12-01
227459,12/01/2014,Completed,12/02/2014,14-02057905,Street Lights - All/Out,6300 S WESTERN AVE,60636.0,1161454.66559886,1862806.40249086,15.0,8.0,66.0,41.779216015212285,-87.68363935063114,"(41.77921601521228, -87.68363935063114)",2014-12-01
227460,12/01/2014,Completed,12/02/2014,14-02057931,Street Lights - All/Out,2000 W 69TH ST,60636.0,1164216.24773036,1858900.85210107,17.0,7.0,67.0,41.76844095861192,-87.67362490525043,"(41.76844095861192, -87.67362490525043)",2014-12-01
227461,12/01/2014,Completed,12/02/2014,14-02058168,Street Lights - All/Out,625 W 116TH PL,60628.0,1174119.89328437,1827829.17421982,34.0,5.0,53.0,41.682961824255564,-87.63824293863634,"(41.68296182425556, -87.63824293863635)",2014-12-01
227462,12/01/2014,Completed,12/02/2014,14-02058373,Street Lights - All/Out,19 W SUPERIOR ST,60654.0,1176054.40311884,1905359.41929224,42.0,18.0,8.0,41.89566969041137,-87.62883585285317,"(41.89566969041137, -87.62883585285316)",2014-12-01
227463,12/01/2014,Completed,12/02/2014,14-02058377,Street Lights - All/Out,300 E ERIE ST,60611.0,1178384.7399895,1904843.55937885,42.0,18.0,8.0,41.89420132087117,-87.62029290824086,"(41.894201320871176, -87.62029290824086)",2014-12-01
227464,12/01/2014,Completed,12/02/2014,14-02058608,Street Lights - All/Out,1012 N HOYNE AVE,60622.0,1162219.0816294,1906777.26560233,32.0,12.0,24.0,41.89986086966683,-87.67960998592787,"(41.89986086966683, -87.67960998592787)",2014-12-01
227465,12/01/2014,Completed,12/02/2014,14-02058746,Street Lights - All/Out,231 W 106TH PL,60628.0,1176608.00393122,1834318.66368926,34.0,5.0,49.0,41.70071449847352,-87.62894067022467,"(41.700714498473516, -87.62894067022467)",2014-12-01
227466,12/01/2014,Completed,12/02/2014,14-02059204,Street Lights - All/Out,7500 W PRATT AVE,60631.0,1125481.61998098,1944564.91907825,41.0,16.0,9.0,42.004243563403,-87.81370796214314,"(42.004243563403, -87.81370796214314)",2014-12-01
227467,12/01/2014,Completed,12/02/2014,14-02059211,Street Lights - All/Out,4900 N MULLIGAN AVE,60630.0,1132881.78039495,1932218.50477999,45.0,16.0,11.0,41.97023742746397,-87.78677202224978,"(41.97023742746397, -87.78677202224976)",2014-12-01
227468,12/01/2014,Completed,12/02/2014,14-02059250,Street Lights - All/Out,4200 W HENDERSON ST,60641.0,1147820.91259176,1921941.19431533,30.0,17.0,16.0,41.94176101835586,-87.73210450427948,"(41.94176101835587, -87.73210450427949)",2014-12-01
227469,12/01/2014,Completed,12/02/2014,14-02059714,Street Lights - All/Out,2335 N OAKLEY AVE,60647.0,1160633.54968758,1915665.30120561,32.0,14.0,22.0,41.92428330828126,-87.68518696693987,"(41.92428330828126, -87.68518696693988)",2014-12-01
227470,12/01/2014,Completed,12/02/2014,14-02062383,Street Lights - All/Out,1840 W BRYN MAWR AVE,60660.0,1163124.77271674,1937201.94141278,40.0,20.0,4.0,41.98332887637599,-87.67542569001918,"(41.983328876375985, -87.67542569001918)",2014-12-01
227471,12/01/2014,Completed,12/02/2014,14-02062610,Street Lights - All/Out,4813 S KIMBARK AVE,60615.0,1185494.24541579,1873345.52732197,4.0,2.0,39.0,41.80760400525204,-87.59517675624167,"(41.80760400525204, -87.59517675624166)",2014-12-01
227472,12/01/2014,Completed,12/02/2014,14-02062791,Street Lights - All/Out,1900 W 107TH ST,60643.0,1165399.66001542,1833693.62928022,19.0,22.0,72.0,41.699243531122995,-87.66999921953129,"(41.69924353112299, -87.66999921953129)",2014-12-01
227473,12/01/2014,Completed,12/02/2014,14-02062892,Street Lights - All/Out,5200 S FAIRFIELD AVE,60632.0,1158921.06372847,1870064.06718186,14.0,9.0,63.0,41.79918419855887,-87.69272960052679,"(41.79918419855887, -87.69272960052679)",2014-12-01
227474,12/01/2014,Completed,12/02/2014,14-02062917,Street Lights - All/Out,5147 S RUTHERFORD AVE,60638.0,1132261.84610693,1869694.80672458,23.0,8.0,56.0,41.79867447684989,-87.79050585541971,"(41.79867447684989, -87.79050585541971)",2014-12-01
227500,12/02/2014,Completed - Dup,12/03/2014,14-02064269,Street Lights - All/Out,3200 N AUSTIN AVE,60634.0,1135828.07112165,1920652.89532124,36.0,16.0,17.0,41.93844814726421,-87.7762146293351,"(41.93844814726421, -87.7762146293351)",2014-12-02
227501,12/02/2014,Completed - Dup,12/03/2014,14-02064514,Street Lights - All/Out,600 W 87TH ST,60620.0,1173823.93909491,1847213.9046073998,21.0,6.0,71.0,41.73616289570917,-87.63875392889976,"(41.736162895709164, -87.63875392889976)",2014-12-02
227502,12/02/2014,Completed - Dup,12/03/2014,14-02069917,Street Lights - All/Out,10000 S TORRENCE AVE,60617.0,1195461.44918055,1839124.85353225,7.0,4.0,51.0,41.71345927797663,-87.55974924099844,"(41.71345927797663, -87.55974924099844)",2014-12-02
227503,12/02/2014,Completed,12/03/2014,14-02063869,Street Lights - All/Out,600 S FEDERAL ST,60605.0,1175890.75009247,1897655.80779418,2.0,1.0,32.0,41.87453423504676,-87.62966890776876,"(41.87453423504676, -87.62966890776877)",2014-12-02
227504,12/02/2014,Completed,12/03/2014,14-02064248,Street Lights - All/Out,4932 N RIDGEWAY AVE,60625.0,1150499.15850888,1932513.5596242,39.0,17.0,14.0,41.970720390444676,-87.72198354682419,"(41.970720390444676, -87.72198354682418)",2014-12-02
227505,12/02/2014,Completed,12/03/2014,14-02064257,Street Lights - All/Out,7724 W SHERWIN AVE,60631.0,1123991.58080492,1948159.82998701,41.0,16.0,9.0,42.01413301852259,-87.8191105195045,"(42.01413301852259, -87.81911051950452)",2014-12-02
227506,12/02/2014,Completed,12/03/2014,14-02064266,Street Lights - All/Out,6745 N OSHKOSH AVE,60631.0,1124555.68020803,1944320.20022102,41.0,16.0,9.0,42.00358740194053,-87.81712001336125,"(42.003587401940536, -87.81712001336125)",2014-12-02
227507,12/02/2014,Completed,12/03/2014,14-02064402,Street Lights - All/Out,6700 N ROCKWELL ST,60645.0,1157774.40343378,1944367.95189759,50.0,24.0,2.0,42.00310378902038,-87.69490685193468,"(42.00310378902038, -87.69490685193469)",2014-12-02
227508,12/02/2014,Completed,12/03/2014,14-02064990,Street Lights - All/Out,2900 S VERNON AVE,60616.0,1179800.33622915,1885865.01661007,4.0,1.0,35.0,41.84209074274782,-87.61567665073744,"(41.84209074274782, -87.61567665073744)",2014-12-02
227509,12/02/2014,Completed,12/03/2014,14-02065541,Street Lights - All/Out,7129 S PEORIA ST,60621.0,1171537.77537646,1857570.20093369,17.0,7.0,68.0,41.76463225163572,-87.64682688087716,"(41.76463225163572, -87.64682688087716)",2014-12-02
227510,12/02/2014,Completed,12/03/2014,14-02065746,Street Lights - All/Out,5600 S COTTAGE GROVE AVE,60637.0,1182536.25732052,1868054.72002584,20.0,2.0,40.0,41.7931547963696,-87.60618985685622,"(41.79315479636959, -87.60618985685622)",2014-12-02
227511,12/02/2014,Completed,12/03/2014,14-02067496,Street Lights - All/Out,4900 S WESTERN AVE,60609.0,1161185.32990244,1872072.14840085,12.0,9.0,58.0,41.80464802283277,-87.684370345456,"(41.80464802283277, -87.68437034545602)",2014-12-02
227512,12/02/2014,Completed,12/03/2014,14-02069166,Street Lights - All/Out,6605 S ELLIS AVE,60637.0,1184024.92921621,1861422.12890524,5.0,3.0,42.0,41.77491970589272,-87.60093827847878,"(41.77491970589272, -87.60093827847876)",2014-12-02
227513,12/02/2014,Completed,12/03/2014,14-02069307,Street Lights - All/Out,10656 S SEELEY AVE,60643.0,1164626.6900199,1833957.9215974999,19.0,22.0,72.0,41.69998509606759,-87.6728220791755,"(41.69998509606759, -87.67282207917552)",2014-12-02
227514,12/02/2014,Completed,12/03/2014,14-02069375,Street Lights - All/Out,9400 S RACINE AVE,60620.0,1169975.16250524,1842445.95757736,21.0,22.0,73.0,41.72316333425304,-87.65299255068224,"(41.723163334253044, -87.65299255068224)",2014-12-02
227515,12/02/2014,Completed,12/03/2014,14-02069458,Street Lights - All/Out,9500 S SEELEY AVE,60643.0,1164360.51970551,1841636.37752157,19.0,22.0,72.0,41.721061642628285,-87.6735812715246,"(41.72106164262828, -87.67358127152461)",2014-12-02
227516,12/02/2014,Completed,12/03/2014,14-02069570,Street Lights - All/Out,126 W 104TH ST,60628.0,1177268.96788659,1835996.35280951,34.0,5.0,49.0,41.7053034546292,-87.62647005247034,"(41.7053034546292, -87.62647005247035)",2014-12-02
227517,12/02/2014,Completed,12/03/2014,14-02070759,Street Lights - All/Out,9237 S INDIANA AVE,60619.0,1179214.87179909,1843776.62619596,6.0,6.0,49.0,41.726609491814585,-87.61910806047388,"(41.726609491814585, -87.61910806047388)",2014-12-02
227518,12/02/2014,Completed,12/03/2014,14-02070910,Street Lights - All/Out,5830 W CULLOM AVE,60634.0,1136574.58688891,1927992.53847589,38.0,16.0,15.0,41.958575528949645,-87.77329470936805,"(41.95857552894965, -87.77329470936803)",2014-12-02
227519,12/02/2014,Completed,12/03/2014,14-02070916,Street Lights - All/Out,4320 N MENARD AVE,60634.0,1136899.96238472,1928231.05008599,38.0,16.0,15.0,41.95922418630593,-87.77209274178276,"(41.95922418630593, -87.77209274178276)",2014-12-02
227520,12/02/2014,Completed,12/03/2014,14-02070919,Street Lights - All/Out,9925 S GREEN ST,60643.0,1172396.33988806,1839030.82380657,34.0,22.0,73.0,41.713738863574335,-87.64422413364358,"(41.713738863574335, -87.64422413364356)",2014-12-02
227521,12/03/2014,Completed - Dup,12/03/2014,14-02071877,Street Lights - All/Out,8644 S MANISTEE AVE,60617.0,1195987.56286771,1848187.34502093,7.0,4.0,46.0,41.73831456274873,-87.55752334053562,"(41.73831456274873, -87.55752334053562)",2014-12-03
227522,12/03/2014,Completed,12/03/2014,14-02074964,Street Lights - All/Out,7030 N OLEANDER AVE,60631.0,1125110.1789733,1946080.07987629,41.0,16.0,9.0,42.00840748316617,-87.81504078308039,"(42.00840748316617, -87.81504078308039)",2014-12-03
227523,12/03/2014,Completed,12/03/2014,14-02075071,Street Lights - All/Out,10 E BURTON PL,60610.0,1176105.18142167,1910395.08312156,43.0,18.0,8.0,41.9094866444868,-87.62849740009848,"(41.9094866444868, -87.62849740009848)",2014-12-03
227551,12/01/2014,Completed - Dup,12/03/2014,14-02057028,Street Lights - All/Out,508 E 109TH ST,60628.0,1181587.34278823,1832791.04410279,9.0,5.0,49.0,41.69640930319304,-87.61075521667526,"(41.696409303193036, -87.61075521667527)",2014-12-01
227552,12/01/2014,Completed - Dup,12/03/2014,14-02058203,Street Lights - All/Out,300 W 109TH PL,60628.0,1176232.15891705,1832317.73002052,34.0,5.0,49.0,41.695232071266716,-87.63037666938497,"(41.69523207126671, -87.63037666938497)",2014-12-01
227553,12/01/2014,Completed - Dup,12/03/2014,14-02058249,Street Lights - All/Out,5241 N HOYNE AVE,60625.0,1161387.88450161,1934892.44977672,40.0,20.0,4.0,41.97702797056836,-87.68187822394633,"(41.97702797056836, -87.68187822394633)",2014-12-01
227554,12/01/2014,Completed - Dup,12/03/2014,14-02063371,Street Lights - All/Out,5200 N HOYNE AVE,60625.0,1161399.64993361,1934516.8342145002,40.0,20.0,4.0,41.9759970202206,-87.68184546246356,"(41.9759970202206, -87.68184546246354)",2014-12-01
227555,12/01/2014,Completed,12/03/2014,14-02056652,Street Lights - All/Out,200 W 109TH PL,60628.0,1176889.62048896,1832333.32700943,34.0,5.0,49.0,41.695260122090026,-87.62796903366453,"(41.69526012209003, -87.62796903366453)",2014-12-01
227556,12/01/2014,Completed,12/03/2014,14-02057050,Street Lights - All/Out,4600 S NB OUTER LAKE SHORE DR,60653.0,1186586.71158623,1875421.71953053,4.0,2.0,39.0,41.81327540130928,-87.59110418652908,"(41.81327540130928, -87.59110418652908)",2014-12-01
227557,12/01/2014,Completed,12/03/2014,14-02057128,Street Lights - All/Out,9900 S TORRENCE AVE,60617.0,1195448.00387816,1839833.40131522,7.0,4.0,51.0,41.715403931615576,-87.55977516772069,"(41.71540393161558, -87.55977516772067)",2014-12-01
227558,12/01/2014,Completed,12/03/2014,14-02057632,Street Lights - All/Out,9700 S PRAIRIE AVE,60628.0,1179629.39332995,1840711.37751595,6.0,5.0,49.0,41.71818861234633,-87.61768297716257,"(41.71818861234633, -87.61768297716256)",2014-12-01
227559,12/01/2014,Completed,12/03/2014,14-02057883,Street Lights - All/Out,4235 S RICHMOND ST,60632.0,1157396.07721413,1876418.40561124,14.0,9.0,58.0,41.816652389453886,-87.69814990995695,"(41.81665238945388, -87.69814990995695)",2014-12-01
227560,12/01/2014,Completed,12/03/2014,14-02058261,Street Lights - All/Out,1901 N ASHLAND AVE,60622.0,1165388.12251545,1912741.41118022,32.0,14.0,22.0,41.916160030360224,-87.66780011640971,"(41.91616003036023, -87.66780011640971)",2014-12-01
227561,12/01/2014,Completed,12/03/2014,14-02059231,Street Lights - All/Out,5065 N ELSTON AVE,60630.0,1143398.19600197,1933287.92867904,45.0,16.0,12.0,41.972981397111134,-87.74807519341617,"(41.97298139711113, -87.74807519341617)",2014-12-01
227562,12/01/2014,Completed,12/03/2014,14-02059243,Street Lights - All/Out,4200 W LAWRENCE AVE,60630.0,1147518.58751477,1931568.79671929,39.0,17.0,14.0,41.96818573349892,-87.73296778939094,"(41.96818573349892, -87.73296778939093)",2014-12-01
227563,12/01/2014,Completed,12/03/2014,14-02059680,Street Lights - All/Out,715 E 104TH PL,60628.0,1182683.45528872,1835814.23017566,9.0,5.0,50.0,41.704680016937104,-87.60664856192574,"(41.704680016937104, -87.60664856192574)",2014-12-01
227564,12/01/2014,Completed,12/03/2014,14-02063047,Street Lights - All/Out,6600 N TALMAN AVE,60645.0,1157460.76469476,1943693.60018936,50.0,24.0,2.0,42.00125975450829,-87.69607917934471,"(42.00125975450829, -87.69607917934472)",2014-12-01
227565,12/01/2014,Completed,12/03/2014,14-02063153,Street Lights - All/Out,11625 S ADA ST,60643.0,1169419.05632459,1827668.91520876,34.0,5.0,53.0,41.6826248347088,-87.65545556765692,"(41.682624834708804, -87.65545556765692)",2014-12-01
227566,12/01/2014,Completed,12/03/2014,14-02063183,Street Lights - All/Out,5352 W CORNELIA AVE,60641.0,1140060.1282875,1922750.85337761,38.0,16.0,15.0,41.94412862708556,-87.76060910907772,"(41.94412862708556, -87.76060910907772)",2014-12-01
227567,12/01/2014,Completed,12/03/2014,14-02063369,Street Lights - All/Out,3900 N CLARK ST,60613.0,1167182.01337264,1926028.16008677,47.0,19.0,6.0,41.95258115149506,-87.66082656876024,"(41.95258115149506, -87.66082656876023)",2014-12-01
227568,12/01/2014,Completed,12/03/2014,14-02063752,Street Lights - All/Out,10923 S AVENUE G,60617.0,1203187.08621376,1833142.55720433,10.0,4.0,52.0,41.69684942059323,-87.53165986189848,"(41.69684942059323, -87.53165986189848)",2014-12-01
227577,12/04/2014,Completed - Dup,12/04/2014,14-02078582,Street Lights - All/Out,2340 N LINCOLN PARK,60614.0,1173872.44747633,1915870.63989903,43.0,18.0,7.0,41.92456187054755,-87.63653598125357,"(41.92456187054755, -87.63653598125357)",2014-12-04
227578,12/04/2014,Completed - Dup,12/04/2014,14-02079897,Street Lights - All/Out,4000 N LAPORTE AVE,60641.0,1142642.3201015,1926137.4878051002,45.0,16.0,15.0,41.95337412357157,-87.75103343212864,"(41.953374123571564, -87.75103343212864)",2014-12-04
227579,12/04/2014,Completed,12/04/2014,14-02078404,Street Lights - All/Out,4300 S HALSTED ST,60609.0,1171687.6396796003,1876357.63000236,11.0,9.0,61.0,41.816183758268,-87.64572684373293,"(41.81618375826799, -87.64572684373292)",2014-12-04
227580,12/04/2014,Completed,12/04/2014,14-02078579,Street Lights - All/Out,1200 W MADISON ST,60607.0,1168388.2832711001,1900176.27518046,27.0,12.0,28.0,41.88161606198453,-87.65714158619707,"(41.88161606198453, -87.65714158619708)",2014-12-04
227581,12/04/2014,Completed,12/04/2014,14-02078656,Street Lights - All/Out,4300 N LOWELL AVE,60641.0,1146453.41300367,1928221.20140752,38.0,17.0,16.0,41.95902008985831,-87.73697007677478,"(41.95902008985831, -87.73697007677478)",2014-12-04
227582,12/04/2014,Completed,12/04/2014,14-02078660,Street Lights - All/Out,4900 W CUYLER AVE,60641.0,1143132.61013267,1926581.32262495,45.0,16.0,15.0,41.954582889702046,-87.74921994185452,"(41.954582889702046, -87.74921994185452)",2014-12-04
227586,12/01/2014,Completed - Dup,12/04/2014,14-02062961,Street Lights - All/Out,3900 S CICERO AVE,60638.0,1145011.52120541,1878283.80012921,14.0,10.0,56.0,41.82201354026214,-87.7435330613438,"(41.82201354026214, -87.74353306134381)",2014-12-01
227587,12/01/2014,Completed,12/04/2014,14-02057109,Street Lights - All/Out,10200 S OGLESBY AVE,60617.0,1193836.31449653,1837805.72800379,10.0,4.0,51.0,41.70987937878247,-87.56574401754636,"(41.70987937878247, -87.56574401754638)",2014-12-01
227588,12/01/2014,Completed,12/04/2014,14-02057781,Street Lights - All/Out,6327 S HARLEM AVE,60638.0,1129477.54468114,1861815.30672678,23.0,8.0,64.0,41.77709941742231,-87.80089568588457,"(41.77709941742231, -87.80089568588457)",2014-12-01
227589,12/01/2014,Completed,12/04/2014,14-02057949,Street Lights - All/Out,4518 S WOOD ST,60609.0,1165105.48582558,1874732.58317346,20.0,9.0,61.0,41.8118664408431,-87.66991760717266,"(41.81186644084309, -87.66991760717266)",2014-12-01
227590,12/01/2014,Completed,12/04/2014,14-02058143,Street Lights - All/Out,4400 S WOOD ST,60609.0,1165084.89642003,1875514.60866706,12.0,9.0,61.0,41.814012843878906,-87.66997098608734,"(41.814012843878906, -87.66997098608734)",2014-12-01
227591,12/01/2014,Completed,12/04/2014,14-02058223,Street Lights - All/Out,228 E 81ST ST,60619.0,1179123.51997576,1851348.83488658,6.0,6.0,44.0,41.747390627458245,-87.619212530852,"(41.747390627458245, -87.619212530852)",2014-12-01
227592,12/02/2014,Completed - Dup,12/04/2014,14-02064299,Street Lights - All/Out,4800 W CULLOM AVE,60641.0,1143596.02719412,1928157.10987555,45.0,16.0,15.0,41.95889830437362,-87.74747672608267,"(41.95889830437362, -87.74747672608267)",2014-12-02
227593,12/02/2014,Completed - Dup,12/04/2014,14-02065312,Street Lights - All/Out,11400 S LOWE AVE,60628.0,1174016.9522976002,1829280.41920031,34.0,22.0,49.0,41.68694654712814,-87.63857692420203,"(41.68694654712814, -87.63857692420203)",2014-12-02
227594,12/02/2014,Completed - Dup,12/04/2014,14-02066896,Street Lights - All/Out,11400 S WALLACE ST,60628.0,1174346.51902771,1829289.16337596,34.0,22.0,49.0,41.68696324253063,-87.63737017339795,"(41.68696324253063, -87.63737017339797)",2014-12-02
227595,12/02/2014,Completed - Dup,12/04/2014,14-02069855,Street Lights - All/Out,10200 S OGLESBY AVE,60617.0,1193836.31449653,1837805.72800379,10.0,4.0,51.0,41.70987937878247,-87.56574401754636,"(41.70987937878247, -87.56574401754638)",2014-12-02
227596,12/02/2014,Completed - Dup,12/04/2014,14-02069877,Street Lights - All/Out,10200 S CRANDON AVE,60617.0,1193507.31759996,1837795.84471214,10.0,4.0,51.0,41.70986029957188,-87.56694915463457,"(41.70986029957188, -87.56694915463457)",2014-12-02
227597,12/02/2014,Completed - Dup,12/04/2014,14-02071235,Street Lights - All/Out,9100 S ASHLAND AVE,60620.0,1167268.65197526,1844362.96669311,21.0,22.0,73.0,41.728482166380225,-87.66285157763208,"(41.72848216638023, -87.66285157763208)",2014-12-02
227598,12/02/2014,Completed,12/04/2014,14-02063988,Street Lights - All/Out,3345 N WESTERN AVE,60618.0,1159804.90042185,1922149.41033074,32.0,19.0,5.0,41.9420932787633,-87.68805244827509,"(41.942093278763295, -87.68805244827509)",2014-12-02
227599,12/02/2014,Completed,12/04/2014,14-02064509,Street Lights - All/Out,1400 N STATE PKWY,60610.0,1176032.00701992,1909779.61791322,42.0,18.0,8.0,41.90779943041815,-87.62878477904871,"(41.90779943041815, -87.62878477904871)",2014-12-02
227600,12/02/2014,Completed,12/04/2014,14-02065021,Street Lights - All/Out,10100 S INDIANAPOLIS AVE,60617.0,1202393.63999567,1838648.87002918,10.0,4.0,52.0,41.71197942768772,-87.53437788000885,"(41.71197942768773, -87.53437788000886)",2014-12-02
227601,12/02/2014,Completed,12/04/2014,14-02070881,Street Lights - All/Out,3900 S CICERO AVE,60638.0,1145011.52120541,1878283.80012921,14.0,10.0,56.0,41.82201354026214,-87.7435330613438,"(41.82201354026214, -87.74353306134381)",2014-12-02
227602,12/02/2014,Completed,12/04/2014,14-02071233,Street Lights - All/Out,9300 S ASHLAND AVE,60620.0,1167302.34448579,1843038.45523191,21.0,22.0,73.0,41.724846786632384,-87.6627659515565,"(41.724846786632384, -87.6627659515565)",2014-12-02
227603,12/03/2014,Completed - Dup,12/04/2014,14-02071880,Street Lights - All/Out,8100 S PRAIRIE AVE,60619.0,1179439.31009948,1851359.19889044,6.0,6.0,44.0,41.74741186968736,-87.61805507807644,"(41.74741186968736, -87.61805507807644)",2014-12-03
227604,12/03/2014,Completed - Dup,12/04/2014,14-02072007,Street Lights - All/Out,10700 S RHODES AVE,60628.0,1181808.3385036,1834124.19253078,9.0,5.0,49.0,41.700062550397355,-87.60990507316905,"(41.70006255039735, -87.60990507316903)",2014-12-03
227605,12/03/2014,Completed - Dup,12/04/2014,14-02077487,Street Lights - All/Out,4900 W CUYLER AVE,60641.0,1143132.61013267,1926581.32262495,45.0,16.0,15.0,41.954582889702046,-87.74921994185452,"(41.954582889702046, -87.74921994185452)",2014-12-03
227606,12/03/2014,Completed - Dup,12/04/2014,14-02077654,Street Lights - All/Out,1400 N STATE PKWY,60610.0,1176032.00701992,1909779.61791322,42.0,18.0,8.0,41.90779943041815,-87.62878477904871,"(41.90779943041815, -87.62878477904871)",2014-12-03
227607,12/03/2014,Completed,12/04/2014,14-02071902,Street Lights - All/Out,5200 N HONORE ST,60640.0,1163141.61998936,1934563.60568619,40.0,20.0,4.0,41.97608883103009,-87.67543825573645,"(41.976088831030104, -87.67543825573644)",2014-12-03
227608,12/03/2014,Completed,12/04/2014,14-02071961,Street Lights - All/Out,2600 S PULASKI RD,60623.0,1150127.42139714,1886424.63048787,22.0,10.0,30.0,41.844255161505416,-87.72455325058485,"(41.844255161505416, -87.72455325058485)",2014-12-03
227609,12/03/2014,Completed,12/04/2014,14-02072044,Street Lights - All/Out,5609 W CORCORAN PL,60644.0,1138879.53488772,1902002.85552928,29.0,15.0,25.0,41.8872153283508,-87.76545346351078,"(41.8872153283508, -87.76545346351078)",2014-12-03
227610,12/03/2014,Completed,12/04/2014,14-02072045,Street Lights - All/Out,5000 W AGATITE AVE,60630.0,1142239.21170944,1929123.78013021,45.0,16.0,15.0,41.961576277032925,-87.75244089587167,"(41.96157627703293, -87.75244089587167)",2014-12-03
227611,12/03/2014,Completed,12/04/2014,14-02072047,Street Lights - All/Out,2900 N WASHTENAW AVE,60618.0,1157873.51871821,1919153.60491746,1.0,14.0,21.0,41.93391226308738,-87.69523309040451,"(41.933912263087386, -87.69523309040451)",2014-12-03
227612,12/03/2014,Completed,12/04/2014,14-02072999,Street Lights - All/Out,10017 S CALHOUN AVE,60617.0,1194802.63368164,1839041.34809393,7.0,4.0,51.0,41.71324634845692,-87.5621647501127,"(41.71324634845692, -87.56216475011271)",2014-12-03
227613,12/03/2014,Completed,12/04/2014,14-02074966,Street Lights - All/Out,5700 W WAVELAND AVE,60634.0,1137698.69260428,1924027.49889687,38.0,16.0,15.0,41.94767483984043,-87.76925794440571,"(41.94767483984043, -87.7692579444057)",2014-12-03
227614,12/03/2014,Completed,12/04/2014,14-02075441,Street Lights - All/Out,8511 S INGLESIDE AVE,60619.0,1184038.33783157,1848752.10161758,8.0,6.0,44.0,41.74015157044752,-87.60128435521251,"(41.740151570447516, -87.60128435521251)",2014-12-03
227615,12/03/2014,Completed,12/04/2014,14-02076481,Street Lights - All/Out,513 E 89TH ST,60619.0,1181221.63800848,1846083.02357338,6.0,6.0,44.0,41.732892596079246,-87.61168629294707,"(41.73289259607925, -87.61168629294707)",2014-12-03
227616,12/03/2014,Completed,12/04/2014,14-02076714,Street Lights - All/Out,218 W MENOMONEE ST,60614.0,1174143.5973723,1912307.11170505,43.0,18.0,7.0,41.91477734560943,-87.63564619670868,"(41.91477734560943, -87.63564619670868)",2014-12-03
227617,12/03/2014,Completed,12/04/2014,14-02077191,Street Lights - All/Out,3200 S CARPENTER ST,60608.0,1169842.97999789,1883292.19060033,11.0,9.0,60.0,41.83525317611321,-87.65229178785988,"(41.83525317611321, -87.65229178785988)",2014-12-03
227618,12/03/2014,Completed,12/04/2014,14-02077423,Street Lights - All/Out,6900 S KIMBARK AVE,60637.0,1185922.47993439,1859606.04198557,5.0,3.0,69.0,41.769891646777566,-87.59403945010794,"(41.76989164677756, -87.59403945010794)",2014-12-03
227619,12/03/2014,Completed,12/04/2014,14-02077495,Street Lights - All/Out,9100 S ASHLAND AVE,60620.0,1167268.65197526,1844362.96669311,21.0,22.0,73.0,41.728482166380225,-87.66285157763208,"(41.72848216638023, -87.66285157763208)",2014-12-03
227631,12/05/2014,Completed - Dup,12/05/2014,14-02085136,Street Lights - All/Out,5804 N CALIFORNIA AVE,60659.0,1156629.62610637,1938429.23037272,40.0,20.0,2.0,41.98683103222506,-87.69928021018255,"(41.98683103222506, -87.69928021018254)",2014-12-05
227632,12/05/2014,Completed - Dup,12/05/2014,14-02085205,Street Lights - All/Out,2200 N HARLEM AVE,,1127732.55348285,1913826.30150936,0.0,0.0,0.0,41.919855630018986,-87.80612237782337,"(41.919855630018986, -87.80612237782337)",2014-12-05
227633,12/05/2014,Completed,12/05/2014,14-02087549,Street Lights - All/Out,1000 W HOLLYWOOD AVE,60660.0,1168605.77499909,1938053.87947824,48.0,20.0,77.0,41.985549318097476,-87.65524291055723,"(41.98554931809748, -87.65524291055723)",2014-12-05
227634,12/05/2014,Completed,12/05/2014,14-02088260,Street Lights - All/Out,400 S PAULINA ST,60612.0,1165133.02069529,1898219.87762977,2.0,12.0,28.0,41.87631730748257,-87.66915035824827,"(41.87631730748257, -87.66915035824826)",2014-12-05
227635,12/05/2014,Completed,12/05/2014,14-02088808,Street Lights - All/Out,3300 N CLARK ST,60657.0,1169575.1859243999,1922106.61950088,44.0,19.0,6.0,41.941768421795686,-87.65214379499659,"(41.941768421795686, -87.6521437949966)",2014-12-05
227636,12/05/2014,Completed,12/05/2014,14-02089390,Street Lights - All/Out,7999 S COMMERCIAL AVE,60617.0,1197591.28010338,1852501.15723174,7.0,4.0,46.0,41.750112165031254,-87.55150422214253,"(41.75011216503125, -87.55150422214251)",2014-12-05
227637,12/05/2014,Completed,12/05/2014,14-02091811,Street Lights - All/Out,4800 S STATE ST,60609.0,1177082.61357663,1873206.11012859,3.0,2.0,38.0,41.80741553873809,-87.62603220780609,"(41.80741553873809, -87.62603220780609)",2014-12-05
227638,12/03/2014,Completed - Dup,12/05/2014,14-02077703,Street Lights - All/Out,1955 S AVERS AVE,60623.0,1151051.36537753,1890007.43868179,24.0,10.0,29.0,41.85406880813701,-87.72106876298928,"(41.85406880813701, -87.72106876298928)",2014-12-03
227639,12/03/2014,Completed - Dup,12/05/2014,14-02077771,Street Lights - All/Out,4900 N MERRIMAC AVE,60630.0,1133540.97110031,1932253.77549247,45.0,16.0,11.0,41.970322648256385,-87.78434726683172,"(41.97032264825638, -87.78434726683172)",2014-12-03
227640,12/03/2014,Completed,12/05/2014,14-02071968,Street Lights - All/Out,5100 S AVERS AVE,60632.0,1151564.0799852,1870527.98002329,23.0,8.0,62.0,41.80060452961401,-87.71969756749388,"(41.80060452961401, -87.71969756749388)",2014-12-03
227641,12/03/2014,Completed,12/05/2014,14-02077158,Street Lights - All/Out,3748 W 56TH ST,60629.0,1152337.36351849,1867211.8833748002,14.0,8.0,62.0,41.791489489227736,-87.71694885511097,"(41.791489489227736, -87.71694885511097)",2014-12-03
227642,12/03/2014,Completed,12/05/2014,14-02077365,Street Lights - All/Out,1000 W HOLLYWOOD AVE,60660.0,1168605.77499909,1938053.87947824,48.0,20.0,77.0,41.985549318097476,-87.65524291055723,"(41.98554931809748, -87.65524291055723)",2014-12-03
227643,12/03/2014,Completed,12/05/2014,14-02077593,Street Lights - All/Out,9000 S OGLESBY AVE,60617.0,1193403.25312657,1845754.49628304,7.0,4.0,48.0,41.73170214736422,-87.56707083103151,"(41.73170214736422, -87.56707083103151)",2014-12-03
227644,12/03/2014,Completed,12/05/2014,14-02077772,Street Lights - All/Out,4800 N MERRIMAC AVE,60630.0,1133536.98998085,1931573.32769506,45.0,16.0,11.0,41.96845550363891,-87.78437793778025,"(41.96845550363891, -87.78437793778025)",2014-12-03
227645,12/03/2014,Completed,12/05/2014,14-02077825,Street Lights - All/Out,4900 N MERRIMAC AVE,60630.0,1133540.97110031,1932253.77549247,45.0,16.0,11.0,41.970322648256385,-87.78434726683172,"(41.97032264825638, -87.78434726683172)",2014-12-03
227646,12/04/2014,Completed - Dup,12/05/2014,14-02078614,Street Lights - All/Out,8600 S MANISTEE AVE,60617.0,1195981.76286771,1848481.34502093,7.0,4.0,46.0,41.73912146619286,-87.55753487992462,"(41.73912146619286, -87.55753487992463)",2014-12-04
227647,12/04/2014,Completed - Dup,12/05/2014,14-02078655,Street Lights - All/Out,4900 N MERRIMAC AVE,60630.0,1133540.97110031,1932253.77549247,45.0,16.0,11.0,41.970322648256385,-87.78434726683172,"(41.97032264825638, -87.78434726683172)",2014-12-04
227648,12/04/2014,Completed - Dup,12/05/2014,14-02078658,Street Lights - All/Out,4824 N MELVINA AVE,60630.0,1133866.69998386,1931739.84667293,45.0,16.0,11.0,41.968906644378315,-87.7831616562788,"(41.96890664437831, -87.7831616562788)",2014-12-04
227649,12/04/2014,Completed - Dup,12/05/2014,14-02080534,Street Lights - All/Out,2710 E 89TH ST,60617.0,1195840.150125,1846485.01651684,7.0,4.0,46.0,41.733646877045885,-87.55811959361648,"(41.73364687704588, -87.55811959361648)",2014-12-04
227650,12/04/2014,Completed,12/05/2014,14-02078578,Street Lights - All/Out,1000 W MAXWELL ST,60608.0,1170117.06697081,1894022.11608842,25.0,12.0,28.0,41.86469103992194,-87.65097323311045,"(41.86469103992194, -87.65097323311043)",2014-12-04
227651,12/04/2014,Completed,12/05/2014,14-02078581,Street Lights - All/Out,5758 N CALIFORNIA AVE,60659.0,1156644.68142743,1937960.67773235,40.0,20.0,2.0,41.98554499610928,-87.699237595432,"(41.985544996109276, -87.699237595432)",2014-12-04
227652,12/04/2014,Completed,12/05/2014,14-02078611,Street Lights - All/Out,7600 S VERNON AVE,60619.0,1180560.78543234,1854718.67266902,6.0,6.0,69.0,41.75660498088393,-87.61384275967058,"(41.75660498088393, -87.61384275967058)",2014-12-04
227653,12/04/2014,Completed,12/05/2014,14-02078613,Street Lights - All/Out,5900 S STATE ST,60621.0,1177284.26121793,1865899.99312228,20.0,2.0,40.0,41.787362299087036,-87.6255132760561,"(41.78736229908703, -87.6255132760561)",2014-12-04
227654,12/04/2014,Completed,12/05/2014,14-02078628,Street Lights - All/Out,2318 W 107TH ST,60643.0,1162757.04997412,1833608.29986629,19.0,22.0,72.0,41.69906481707877,-87.67967769347807,"(41.699064817078764, -87.67967769347808)",2014-12-04
227655,12/04/2014,Completed,12/05/2014,14-02078657,Street Lights - All/Out,4253 N LOWELL AVE,60641.0,1146445.01300367,1928054.00140752,38.0,17.0,16.0,41.95856144023431,-87.73700523658249,"(41.95856144023431, -87.73700523658248)",2014-12-04
227656,12/04/2014,Completed,12/05/2014,14-02078869,Street Lights - All/Out,6141 S FRANCISCO AVE,60629.0,1158100.24997855,1863784.65019861,15.0,8.0,66.0,41.781969355121156,-87.69591048012596,"(41.781969355121156, -87.69591048012597)",2014-12-04
227657,12/04/2014,Completed,12/05/2014,14-02078871,Street Lights - All/Out,8213 S WOOD ST,60620.0,1165776.84881005,1850221.4732070998,18.0,6.0,71.0,41.74459054072447,-87.66815051337866,"(41.74459054072447, -87.66815051337866)",2014-12-04
227658,12/04/2014,Completed,12/05/2014,14-02079869,Street Lights - All/Out,4905 W CULLOM AVE,60641.0,1142894.43783343,1928139.86077801,45.0,16.0,15.0,41.95886410461802,-87.75005651379169,"(41.95886410461802, -87.75005651379169)",2014-12-04
227659,12/04/2014,Completed,12/05/2014,14-02079943,Street Lights - All/Out,4800 W CULLOM AVE,60641.0,1143596.02719412,1928157.10987555,45.0,16.0,15.0,41.95889830437362,-87.74747672608267,"(41.95889830437362, -87.74747672608267)",2014-12-04
227660,12/04/2014,Completed,12/05/2014,14-02080358,Street Lights - All/Out,5556 W PENSACOLA AVE,60641.0,1138517.38841171,1928372.82160966,38.0,16.0,15.0,41.95958399748301,-87.76614286132632,"(41.95958399748301, -87.76614286132632)",2014-12-04
227661,12/04/2014,Completed,12/05/2014,14-02081180,Street Lights - All/Out,6016 S KNOX AVE,60629.0,1146401.50599421,1864314.68991722,13.0,8.0,64.0,41.78365384377364,-87.73878824309429,"(41.783653843773635, -87.73878824309429)",2014-12-04
227662,12/04/2014,Completed,12/05/2014,14-02081218,Street Lights - All/Out,6254 S MONITOR AVE,60638.0,1138484.61028581,1862481.19502878,13.0,8.0,64.0,41.778768957694986,-87.76785916028027,"(41.778768957694986, -87.76785916028027)",2014-12-04
227663,12/04/2014,Completed,12/05/2014,14-02083200,Street Lights - All/Out,1940 N HUDSON AVE,60614.0,1172952.40161953,1913189.15728693,43.0,18.0,7.0,41.917224227506594,-87.63999625552003,"(41.917224227506594, -87.63999625552005)",2014-12-04
227664,12/04/2014,Completed,12/05/2014,14-02083764,Street Lights - All/Out,3900 S CICERO AVE,60638.0,1145011.52120541,1878283.80012921,14.0,10.0,56.0,41.82201354026214,-87.7435330613438,"(41.82201354026214, -87.74353306134381)",2014-12-04
227665,12/04/2014,Completed,12/05/2014,14-02084460,Street Lights - All/Out,5000 W BELMONT AVE,60641.0,1142472.6724852,1920812.11578276,30.0,16.0,15.0,41.938763971371884,-87.75178990156411,"(41.93876397137188, -87.7517899015641)",2014-12-04
227671,12/01/2014,Completed,12/05/2014,14-02057986,Street Lights - All/Out,8320 S WOLCOTT AVE,60620.0,1165134.10393147,1849494.12198931,18.0,6.0,71.0,41.742608192103845,-87.67052614866955,"(41.74260819210384, -87.67052614866954)",2014-12-01
227672,12/01/2014,Completed,12/05/2014,14-02058045,Street Lights - All/Out,5607 N WESTERN AVE,60659.0,1159311.45999497,1937161.23002487,40.0,20.0,4.0,41.983296681579105,-87.68945144744902,"(41.9832966815791, -87.68945144744902)",2014-12-01
227673,12/01/2014,Completed,12/05/2014,14-02058267,Street Lights - All/Out,1700 W VAN BUREN ST,60612.0,1165133.02069529,1898219.87762977,2.0,12.0,28.0,41.87631730748257,-87.66915035824827,"(41.87631730748257, -87.66915035824826)",2014-12-01
227674,12/01/2014,Completed,12/05/2014,14-02058394,Street Lights - All/Out,2200 N LINCOLN PARK,60614.0,1173901.42137075,1914934.65599774,43.0,18.0,7.0,41.92199284555354,-87.63645746915611,"(41.92199284555354, -87.63645746915611)",2014-12-01
227675,12/02/2014,Completed - Dup,12/05/2014,14-02070998,Street Lights - All/Out,3800 S LA SALLE ST,60609.0,1176035.97270869,1879765.83061109,3.0,2.0,34.0,41.825439568209106,-87.6296739429764,"(41.82543956820911, -87.6296739429764)",2014-12-02
227676,12/02/2014,Completed,12/05/2014,14-02070997,Street Lights - All/Out,3700 S LA SALLE ST,60609.0,1176017.31672216,1880450.30988438,3.0,2.0,34.0,41.827318256268796,-87.62972182040963,"(41.8273182562688, -87.62972182040963)",2014-12-02
227680,12/05/2014,Completed,12/06/2014,14-02091772,Street Lights - All/Out,10501 S ARTESIAN AVE,60655.0,1161899.66249503,1834932.32019415,19.0,22.0,72.0,41.70271597357492,-87.68278045237591,"(41.70271597357492, -87.6827804523759)",2014-12-05
227682,12/07/2014,Completed,12/08/2014,14-02095580,Street Lights - All/Out,4323 W DRUMMOND PL,60639.0,1147110.35983251,1917269.24182288,31.0,25.0,20.0,41.928954409539735,-87.73483598261991,"(41.928954409539735, -87.73483598261991)",2014-12-07
227683,12/07/2014,Completed,12/08/2014,14-02096029,Street Lights - All/Out,1300 W MADISON ST,60607.0,1167714.43808924,1900155.48500473,27.0,12.0,28.0,41.88157355472799,-87.65961651122471,"(41.881573554727986, -87.65961651122471)",2014-12-07
227684,12/08/2014,Completed - Dup,12/08/2014,14-02097619,Street Lights - All/Out,3901 E 134TH ST,60633.0,1203766.68001078,1816738.86979603,10.0,4.0,55.0,41.65182133644766,-87.5300976485428,"(41.65182133644766, -87.53009764854279)",2014-12-08
227685,12/08/2014,Completed,12/08/2014,14-02096876,Street Lights - All/Out,1200 S INDIANA AVE,60605.0,1177849.24642443,1895102.75222541,2.0,1.0,33.0,41.867484216989546,-87.62255587141607,"(41.867484216989546, -87.62255587141608)",2014-12-08
227686,12/08/2014,Completed,12/08/2014,14-02100744,Street Lights - All/Out,1500 N STATE PKWY,60610.0,1176014.28142167,1910392.48312156,42.0,18.0,8.0,41.909481559186155,-87.62883140181472,"(41.909481559186155, -87.62883140181474)",2014-12-08
227687,12/08/2014,Completed,12/08/2014,14-02101127,Street Lights - All/Out,13412 S AVENUE K,60633.0,1202419.48906736,1816651.66818982,10.0,4.0,55.0,41.65161638627157,-87.5350296610254,"(41.65161638627157, -87.5350296610254)",2014-12-08
227688,12/04/2014,Completed,12/08/2014,14-02080566,Street Lights - All/Out,11900 S AVENUE O,60617.0,1200952.51766559,1826644.47503239,10.0,4.0,55.0,41.67907485352949,-87.54006042513613,"(41.679074853529485, -87.54006042513613)",2014-12-04
227689,12/04/2014,Completed,12/08/2014,14-02083819,Street Lights - All/Out,4300 S CALIFORNIA AVE,60632.0,1158413.95492797,1876021.93852606,12.0,9.0,58.0,41.81554372632669,-87.6944268795101,"(41.81554372632669, -87.6944268795101)",2014-12-04
227690,12/04/2014,Completed,12/08/2014,14-02084385,Street Lights - All/Out,3100 N KEATING AVE,60641.0,1144176.66360362,1920188.9060152,31.0,25.0,19.0,41.937021934561365,-87.74554294656363,"(41.93702193456137, -87.74554294656362)",2014-12-04
227691,12/04/2014,Completed,12/08/2014,14-02084538,Street Lights - All/Out,11802 S PRAIRIE AVE,60628.0,1180032.03659373,1826762.89987826,9.0,5.0,53.0,41.67990287994104,-87.61663338217127,"(41.67990287994104, -87.61663338217126)",2014-12-04
227692,12/04/2014,Completed,12/08/2014,14-02084611,Street Lights - All/Out,635 E 90TH PL,60619.0,1182056.69651732,1845109.64989689,6.0,6.0,44.0,41.73020229095529,-87.60865713854194,"(41.73020229095529, -87.60865713854196)",2014-12-04
227693,12/05/2014,Completed - Dup,12/08/2014,14-02085164,Street Lights - All/Out,3650 W 79TH PL,60652.0,1153735.89996627,1851644.30000456,18.0,8.0,70.0,41.74874196819079,-87.71223287173338,"(41.748741968190785, -87.71223287173338)",2014-12-05
227694,12/05/2014,Completed - Dup,12/08/2014,14-02087528,Street Lights - All/Out,842 N MOZART ST,60622.0,1157228.86989025,1905577.79343356,26.0,12.0,24.0,41.896672294911816,-87.69797176056545,"(41.896672294911816, -87.69797176056545)",2014-12-05
227695,12/05/2014,Completed - Dup,12/08/2014,14-02087543,Street Lights - All/Out,900 N MOZART ST,60622.0,1157215.55158435,1906083.77577434,26.0,12.0,24.0,41.8980610258717,-87.69800691479128,"(41.898061025871705, -87.69800691479128)",2014-12-05
227696,12/05/2014,Completed,12/08/2014,14-02085137,Street Lights - All/Out,259 S WESTERN AVE,60612.0,1160443.86067393,1898786.26592011,2.0,12.0,28.0,41.87796981222546,-87.68635169926299,"(41.87796981222546, -87.68635169926299)",2014-12-05
227697,12/05/2014,Completed,12/08/2014,14-02085153,Street Lights - All/Out,4100 W CREST LINE ST,60652.0,1150705.16999329,1850009.67998928,13.0,8.0,70.0,41.744315784186576,-87.7233811761501,"(41.744315784186576, -87.7233811761501)",2014-12-05
227698,12/05/2014,Completed,12/08/2014,14-02085167,Street Lights - All/Out,3650 W 79TH PL,60652.0,1153735.89996627,1851644.30000456,18.0,8.0,70.0,41.74874196819079,-87.71223287173338,"(41.748741968190785, -87.71223287173338)",2014-12-05
227699,12/05/2014,Completed,12/08/2014,14-02085209,Street Lights - All/Out,2223 N HARLEM AVE,60707.0,1127729.45348285,1913925.90150936,36.0,25.0,25.0,41.920128997692686,-87.80613151824123,"(41.92012899769269, -87.80613151824124)",2014-12-05
227700,12/05/2014,Completed,12/08/2014,14-02086531,Street Lights - All/Out,3931 W SCHOOL ST,60618.0,1149476.53000436,1921650.10143097,30.0,17.0,21.0,41.94093020959952,-87.72602694853032,"(41.940930209599514, -87.72602694853032)",2014-12-05
227701,12/05/2014,Completed,12/08/2014,14-02087748,Street Lights - All/Out,6523 S ARTESIAN AVE,60629.0,1161162.5031978001,1861332.13380605,15.0,8.0,66.0,41.77517646938743,-87.6847512170599,"(41.77517646938743, -87.6847512170599)",2014-12-05
227702,12/05/2014,Completed,12/08/2014,14-02087827,Street Lights - All/Out,4437 N LA CROSSE AVE,60630.0,1143236.07988725,1929062.35331804,45.0,16.0,15.0,41.96138911391458,-87.74877734982397,"(41.96138911391458, -87.74877734982397)",2014-12-05
227703,12/05/2014,Completed,12/08/2014,14-02089475,Street Lights - All/Out,647 E 88TH PL,60619.0,1182100.73881539,1846441.54460425,6.0,6.0,44.0,41.73385614788785,-87.60845470820166,"(41.73385614788785, -87.60845470820165)",2014-12-05
227704,12/05/2014,Completed,12/08/2014,14-02091101,Street Lights - All/Out,50 W 47TH ST,60609.0,1176675.42399567,1873856.76011203,3.0,2.0,38.0,41.80921016785,-87.62750605220697,"(41.809210167850004, -87.62750605220697)",2014-12-05
227705,12/05/2014,Completed,12/08/2014,14-02091334,Street Lights - All/Out,3450 N LAVERGNE AVE,60641.0,1142422.11999327,1922570.82648082,38.0,16.0,15.0,41.9435909814646,-87.7519318567903,"(41.9435909814646, -87.75193185679032)",2014-12-05
227706,12/05/2014,Completed,12/08/2014,14-02091422,Street Lights - All/Out,7639 S CHAPPEL AVE,60649.0,1191196.57121389,1854719.99067851,8.0,4.0,43.0,41.756357897259285,-87.57486514371101,"(41.756357897259285, -87.57486514371101)",2014-12-05
227707,12/06/2014,Completed,12/08/2014,14-02093596,Street Lights - All/Out,2211 N LOWELL AVE,60639.0,1147022.7100326,1914342.02112886,31.0,25.0,20.0,41.920923517787244,-87.73523309914779,"(41.92092351778724, -87.7352330991478)",2014-12-06
227708,12/06/2014,Completed,12/08/2014,14-02093928,Street Lights - All/Out,8241 S WOOD ST,60620.0,1165782.14881005,1850033.6732071,18.0,6.0,71.0,41.744075077754246,-87.66813641285431,"(41.744075077754246, -87.66813641285431)",2014-12-06
227709,12/07/2014,Completed - Dup,12/08/2014,14-02095912,Street Lights - All/Out,99 N THROOP ST,60607.0,1167688.91992082,1900652.08357269,27.0,12.0,28.0,41.88293680798667,-87.65969589919484,"(41.88293680798667, -87.65969589919484)",2014-12-07
227715,12/02/2014,Completed,12/08/2014,14-02064491,Street Lights - All/Out,1920 W GRAND AVE,60622.0,1163510.46808493,1903505.77813392,26.0,12.0,24.0,41.89085655551551,-87.67495892058176,"(41.89085655551551, -87.67495892058176)",2014-12-02
227716,12/03/2014,Completed,12/08/2014,14-02077176,Street Lights - All/Out,349 W 100TH PL,60628.0,1175771.20131184,1838284.48257546,9.0,5.0,49.0,41.711616013546326,-87.63188643895616,"(41.711616013546326, -87.63188643895616)",2014-12-03
227717,12/03/2014,Completed,12/08/2014,14-02077534,Street Lights - All/Out,4400 W LELAND AVE,60630.0,1145955.02736827,1930870.76950191,45.0,17.0,16.0,41.966300214927436,-87.73873476962996,"(41.966300214927436, -87.73873476962996)",2014-12-03
227718,12/03/2014,Completed,12/08/2014,14-02077974,Street Lights - All/Out,700 E 90TH PL,60619.0,1182483.84462074,1845122.91398537,6.0,6.0,44.0,41.73022880992811,-87.60709196793584,"(41.730228809928114, -87.60709196793584)",2014-12-03
227719,12/03/2014,Completed,12/08/2014,14-02078226,Street Lights - All/Out,4411 S BERKELEY AVE,60653.0,1183995.77598371,1875977.25849796,4.0,2.0,39.0,41.81486085549994,-87.60059035226517,"(41.81486085549994, -87.60059035226517)",2014-12-03
227720,12/04/2014,Completed - Dup,12/08/2014,14-02078664,Street Lights - All/Out,4730 N KENNETH AVE,60630.0,1145607.3236292,1931055.35512156,45.0,17.0,16.0,41.96681334634522,-87.74000852979263,"(41.96681334634522, -87.74000852979262)",2014-12-04
227721,12/04/2014,Completed - Dup,12/08/2014,14-02082878,Street Lights - All/Out,4700 N KENNETH AVE,60630.0,1145612.4236292,1930863.35512156,45.0,17.0,16.0,41.96628638666081,-87.73999466648097,"(41.966286386660805, -87.73999466648095)",2014-12-04
227722,12/04/2014,Completed - Dup,12/08/2014,14-02083702,Street Lights - All/Out,4300 S CALIFORNIA AVE,60632.0,1158413.95492797,1876021.93852606,12.0,9.0,58.0,41.81554372632669,-87.6944268795101,"(41.81554372632669, -87.6944268795101)",2014-12-04
227723,12/04/2014,Completed,12/08/2014,14-02079172,Street Lights - All/Out,10900 S MORGAN ST,60643.0,1171591.79728704,1832536.31987672,34.0,22.0,75.0,41.695934585129415,-87.64736013044033,"(41.695934585129415, -87.64736013044033)",2014-12-04
227728,12/08/2014,Completed,12/09/2014,14-02103971,Street Lights - All/Out,4700 S INDIANA AVE,60615.0,1178390.79350649,1873907.72766929,3.0,2.0,38.0,41.809311195746815,-87.62121289792076,"(41.80931119574681, -87.62121289792076)",2014-12-08
227729,12/09/2014,Completed - Dup,12/09/2014,14-02107277,Street Lights - All/Out,3200 S CARPENTER ST,60608.0,1169842.97999789,1883292.19060033,11.0,9.0,60.0,41.83525317611321,-87.65229178785988,"(41.83525317611321, -87.65229178785988)",2014-12-09
227730,12/09/2014,Completed,12/09/2014,14-02104588,Street Lights - All/Out,1100 W WASHBURNE AVE,60608.0,1169221.49151065,1894478.58472142,2.0,12.0,28.0,41.86596311268433,-87.65424761478197,"(41.86596311268433, -87.65424761478197)",2014-12-09
227731,12/09/2014,Completed,12/09/2014,14-02104970,Street Lights - All/Out,5210 W BELLE PLAINE AVE,60641.0,1140891.18972008,1926761.7343826,38.0,16.0,15.0,41.95511958206114,-87.7574554009728,"(41.955119582061144, -87.75745540097279)",2014-12-09
227732,12/09/2014,Completed,12/09/2014,14-02109161,Street Lights - All/Out,4100 S WESTERN BLVD,60609.0,1161201.93739524,1877426.20002426,12.0,9.0,58.0,41.819339849676815,-87.68416110254026,"(41.81933984967681, -87.68416110254027)",2014-12-09
227733,12/05/2014,Completed,12/09/2014,14-02088065,Street Lights - All/Out,4246 W POTOMAC AVE,60651.0,1147831.4360718,1908319.45763404,37.0,25.0,23.0,41.904381491273796,-87.73241666903225,"(41.9043814912738, -87.73241666903225)",2014-12-05
227734,12/05/2014,Completed,12/09/2014,14-02089449,Street Lights - All/Out,1400 W THORNDALE AVE,60660.0,1165902.13216745,1939637.3472198,48.0,20.0,77.0,41.98995270302219,-87.66514125092905,"(41.98995270302219, -87.66514125092905)",2014-12-05
227735,12/05/2014,Completed,12/09/2014,14-02091456,Street Lights - All/Out,8200 S ABERDEEN ST,60620.0,1170412.21002342,1850431.93002147,21.0,6.0,71.0,41.745068479009845,-87.65115983438886,"(41.74506847900984, -87.65115983438886)",2014-12-05
227736,12/07/2014,Completed - Dup,12/09/2014,14-02095891,Street Lights - All/Out,2000 E 93RD ST,60617.0,1191135.16151784,1843698.59850717,8.0,4.0,48.0,41.72611567183253,-87.57544591464642,"(41.72611567183253, -87.5754459146464)",2014-12-07
227737,12/07/2014,Completed,12/09/2014,14-02095770,Street Lights - All/Out,8000 S SACRAMENTO AVE,60652.0,1157768.44442979,1851423.73233273,18.0,8.0,70.0,41.74805586620327,-87.69746199119815,"(41.748055866203266, -87.69746199119815)",2014-12-07
227738,12/07/2014,Completed,12/09/2014,14-02096042,Street Lights - All/Out,3578 W CORTLAND ST,60647.0,1152238.59988316,1912392.23117137,26.0,14.0,22.0,41.91547169837798,-87.71612018750065,"(41.91547169837798, -87.71612018750065)",2014-12-07
227739,12/07/2014,Completed,12/09/2014,14-02096219,Street Lights - All/Out,2000 E 93RD ST,60617.0,1191135.16151784,1843698.59850717,8.0,4.0,48.0,41.72611567183253,-87.57544591464642,"(41.72611567183253, -87.5754459146464)",2014-12-07
227740,12/08/2014,Completed - Dup,12/09/2014,14-02096881,Street Lights - All/Out,2000 W OGDEN AVE,60612.0,1163163.04881678,1896907.40362665,25.0,12.0,28.0,41.87275736797848,-87.67642030309528,"(41.87275736797848, -87.67642030309528)",2014-12-08
227741,12/08/2014,Completed - Dup,12/09/2014,14-02096921,Street Lights - All/Out,2623 W 104TH PL,60655.0,1160651.3877104,1835243.88988986,19.0,22.0,72.0,41.70359676063354,-87.68734279462812,"(41.70359676063354, -87.68734279462812)",2014-12-08
227742,12/08/2014,Completed - Dup,12/09/2014,14-02097245,Street Lights - All/Out,2000 E 93RD ST,60617.0,1191135.16151784,1843698.59850717,8.0,4.0,48.0,41.72611567183253,-87.57544591464642,"(41.72611567183253, -87.5754459146464)",2014-12-08
227743,12/08/2014,Completed - Dup,12/09/2014,14-02102492,Street Lights - All/Out,1834 N LOWELL AVE,60639.0,1147100.2826796998,1911891.47122413,31.0,25.0,20.0,41.914197483905724,-87.73501089435933,"(41.914197483905724, -87.73501089435935)",2014-12-08
227744,12/08/2014,Completed - Dup,12/09/2014,14-02103486,Street Lights - All/Out,1550 W GARFIELD BLVD,60609.0,1166858.30007405,1868251.80588427,16.0,9.0,61.0,41.79404513156409,-87.66367354367209,"(41.79404513156409, -87.66367354367209)",2014-12-08
227745,12/08/2014,Completed - Dup,12/09/2014,14-02103652,Street Lights - All/Out,3300 N SPRINGFIELD AVE,60618.0,1149812.03650959,1921658.2641071999,30.0,17.0,21.0,41.940946079547686,-87.7247936154599,"(41.940946079547686, -87.7247936154599)",2014-12-08
227746,12/08/2014,Completed - Dup,12/09/2014,14-02103999,Street Lights - All/Out,8700 S THROOP ST,60620.0,1169180.25469882,1847080.48137567,21.0,22.0,71.0,41.735898345421695,-87.65577059833586,"(41.735898345421695, -87.65577059833586)",2014-12-08
227747,12/08/2014,Completed,12/09/2014,14-02096879,Street Lights - All/Out,99 S THROOP ST,60607.0,1167741.33007178,1899688.09777685,27.0,12.0,28.0,41.88029042964517,-87.65953123967276,"(41.88029042964517, -87.65953123967276)",2014-12-08
227748,12/08/2014,Completed,12/09/2014,14-02096882,Street Lights - All/Out,2800 W WILSON AVE,60625.0,1156849.79139993,1930393.01890865,33.0,17.0,14.0,41.96477478114888,-87.6986894146751,"(41.964774781148876, -87.69868941467509)",2014-12-08
227749,12/08/2014,Completed,12/09/2014,14-02096917,Street Lights - All/Out,10519 S TRUMBULL AVE,60655.0,1155205.64819918,1834578.36762872,19.0,22.0,74.0,41.70188081018497,-87.70730191045915,"(41.70188081018497, -87.70730191045915)",2014-12-08
227750,12/08/2014,Completed,12/09/2014,14-02096922,Street Lights - All/Out,10700 S VINCENNES AVE,60643.0,1168473.4248207,1833790.40743425,19.0,22.0,75.0,41.699443590468654,-87.65874167218502,"(41.69944359046866, -87.65874167218502)",2014-12-08
227751,12/08/2014,Completed,12/09/2014,14-02097359,Street Lights - All/Out,5716 N ORIOLE AVE,60631.0,1124678.07667867,1937110.17127546,41.0,16.0,10.0,41.98380033859625,-87.81682969990514,"(41.98380033859625, -87.81682969990514)",2014-12-08
227752,12/08/2014,Completed,12/09/2014,14-02097373,Street Lights - All/Out,6100 N AVONDALE AVE,60631.0,1128932.15780301,1940333.58730085,41.0,16.0,10.0,41.992574238245076,-87.80110988071958,"(41.992574238245076, -87.8011098807196)",2014-12-08
227753,12/08/2014,Completed,12/09/2014,14-02097376,Street Lights - All/Out,4900 W CUYLER AVE,60641.0,1143132.61013267,1926581.32262495,45.0,16.0,15.0,41.954582889702046,-87.74921994185452,"(41.954582889702046, -87.74921994185452)",2014-12-08
227754,12/08/2014,Completed,12/09/2014,14-02098709,Street Lights - All/Out,9032 S EAST END AVE,60617.0,1189128.69327907,1845423.78631272,8.0,4.0,48.0,41.730898005828784,-87.58274054194841,"(41.730898005828784, -87.58274054194841)",2014-12-08
227755,12/08/2014,Completed,12/09/2014,14-02099669,Street Lights - All/Out,2233 N LOREL AVE,60639.0,1140352.63357654,1914330.17522406,37.0,25.0,19.0,41.921016052306726,-87.75974104347969,"(41.921016052306726, -87.75974104347968)",2014-12-08
227756,12/08/2014,Completed,12/09/2014,14-02101878,Street Lights - All/Out,1041 N WOOD ST,60622.0,1164202.05002558,1907130.86996866,1.0,12.0,24.0,41.90078949117544,-87.67231652292921,"(41.90078949117544, -87.6723165229292)",2014-12-08
227757,12/08/2014,Completed,12/09/2014,14-02102275,Street Lights - All/Out,1540 W THORNDALE AVE,60660.0,1164868.78937535,1939619.65392566,48.0,20.0,77.0,41.98992621289311,-87.6689425726421,"(41.98992621289311, -87.6689425726421)",2014-12-08
227758,12/08/2014,Completed,12/09/2014,14-02103590,Street Lights - All/Out,1000 W MADISON ST,60607.0,1169779.60888652,1900217.88997544,27.0,12.0,28.0,41.881700060465405,-87.6520315009713,"(41.88170006046541, -87.6520315009713)",2014-12-08
227759,12/08/2014,Completed,12/09/2014,14-02103650,Street Lights - All/Out,3316 N SPRINGFIELD AVE,60618.0,1149809.03650959,1921765.4641071998,30.0,17.0,21.0,41.941240303523294,-87.72480184466909,"(41.9412403035233, -87.7248018446691)",2014-12-08
227760,12/08/2014,Completed,12/09/2014,14-02103905,Street Lights - All/Out,10700 S WESTERN AVE,60643.0,1162290.01822288,1833609.91431221,19.0,22.0,75.0,41.699078961421336,-87.68138771497543,"(41.699078961421336, -87.68138771497543)",2014-12-08
227761,12/02/2014,Completed,12/09/2014,14-02064476,Street Lights - All/Out,2200 N KENMORE AVE,60614.0,1168936.56970948,1914795.17980012,32.0,18.0,7.0,41.92171938114481,-87.65470366480325,"(41.92171938114481, -87.65470366480325)",2014-12-02
227762,12/02/2014,Completed,12/09/2014,14-02066715,Street Lights - All/Out,1942 N SPRINGFIELD AVE,60647.0,1150057.86969271,1912622.56787023,30.0,25.0,20.0,41.91614654961928,-87.72412603788504,"(41.91614654961928, -87.72412603788503)",2014-12-02
227763,12/03/2014,Completed,12/09/2014,14-02071970,Street Lights - All/Out,8749 S ADA ST,60620.0,1168858.03007933,1846742.39487334,21.0,22.0,71.0,41.734977542751054,-87.65696084630238,"(41.734977542751054, -87.65696084630237)",2014-12-03
227764,12/03/2014,Completed,12/09/2014,14-02077284,Street Lights - All/Out,4900 S LECLAIRE AVE,60638.0,1143187.25353238,1871662.15598971,23.0,8.0,56.0,41.80387688695216,-87.75039036497586,"(41.80387688695216, -87.75039036497584)",2014-12-03
227765,12/03/2014,Completed,12/09/2014,14-02078011,Street Lights - All/Out,7815 S WOOD ST,60620.0,1165707.50112547,1852862.41792843,17.0,6.0,71.0,41.75183914372735,-87.66832982457163,"(41.751839143727345, -87.66832982457163)",2014-12-03
227766,12/04/2014,Completed - Dup,12/09/2014,14-02078666,Street Lights - All/Out,3414 W 12TH PL,60623.0,1153804.8006936,1894080.62003161,24.0,10.0,29.0,41.86519175966175,-87.71085412542679,"(41.86519175966175, -87.7108541254268)",2014-12-04
227767,12/04/2014,Completed - Dup,12/09/2014,14-02084502,Street Lights - All/Out,8200 S ABERDEEN ST,60620.0,1170412.21002342,1850431.93002147,21.0,6.0,71.0,41.745068479009845,-87.65115983438886,"(41.74506847900984, -87.65115983438886)",2014-12-04
227768,12/04/2014,Completed,12/09/2014,14-02078625,Street Lights - All/Out,2300 W 47TH ST,60609.0,1161824.65000508,1873456.46999598,12.0,9.0,61.0,41.80843350178471,-87.68198711761963,"(41.80843350178471, -87.68198711761963)",2014-12-04
227769,12/04/2014,Completed,12/09/2014,14-02078631,Street Lights - All/Out,10400 S TALMAN AVE,60655.0,1160398.82707191,1835573.05128809,19.0,22.0,72.0,41.704505232490405,-87.68825859901453,"(41.70450523249041, -87.68825859901453)",2014-12-04
227770,12/04/2014,Completed,12/09/2014,14-02078647,Street Lights - All/Out,1800 N ASHLAND AVE,60622.0,1165393.43242089,1912057.74402065,32.0,14.0,22.0,41.91428389120718,-87.6678000993858,"(41.91428389120718, -87.66780009938579)",2014-12-04
227771,12/04/2014,Completed,12/09/2014,14-02083441,Street Lights - All/Out,9031 S RACINE AVE,60620.0,1169908.73329697,1844898.53907613,21.0,22.0,73.0,41.729895015631925,-87.65316489069849,"(41.72989501563192, -87.65316489069848)",2014-12-04
227772,12/04/2014,Completed,12/09/2014,14-02083922,Street Lights - All/Out,515 W 28TH PL,60616.0,1173135.35056579,1886024.52671485,11.0,9.0,60.0,41.842678670931356,-87.64013022129889,"(41.84267867093135, -87.64013022129889)",2014-12-04
227773,12/04/2014,Completed,12/09/2014,14-02084026,Street Lights - All/Out,6552 S PEORIA ST,60621.0,1171433.78257434,1861391.0378847,17.0,7.0,68.0,41.775119369275686,-87.6470963036099,"(41.77511936927569, -87.6470963036099)",2014-12-04
227774,12/04/2014,Completed,12/09/2014,14-02084463,Street Lights - All/Out,1101 N CENTRAL AVE,60651.0,1138810.7087171,1906787.85222746,37.0,15.0,25.0,41.90034720365474,-87.76558994259365,"(41.90034720365474, -87.76558994259366)",2014-12-04
227775,12/05/2014,Completed - Dup,12/09/2014,14-02088064,Street Lights - All/Out,4246 W POTOMAC AVE,60651.0,1147831.4360718,1908319.45763404,37.0,25.0,23.0,41.904381491273796,-87.73241666903225,"(41.9043814912738, -87.73241666903225)",2014-12-05
227776,12/05/2014,Completed,12/09/2014,14-02085149,Street Lights - All/Out,4832 S ARCHER AVE,60632.0,1152005.71211646,1872360.04732533,14.0,8.0,57.0,41.805623323385255,-87.71802984359304,"(41.80562332338526, -87.71802984359304)",2014-12-05
227777,12/05/2014,Completed,12/09/2014,14-02085210,Street Lights - All/Out,6936 N OWEN AVE,60631.0,1123827.92029081,1945332.15108859,41.0,16.0,9.0,42.00637630107934,-87.81977515482409,"(42.00637630107934, -87.8197751548241)",2014-12-05
227789,12/07/2014,Completed,12/10/2014,14-02094629,Street Lights - All/Out,5700 W WAVELAND AVE,60634.0,1137698.69260428,1924027.49889687,38.0,16.0,15.0,41.94767483984043,-87.76925794440571,"(41.94767483984043, -87.7692579444057)",2014-12-07
227790,12/07/2014,Completed,12/10/2014,14-02095077,Street Lights - All/Out,2242 S OAKLEY AVE,60608.0,1161387.16299644,1888968.38011692,25.0,10.0,31.0,41.85100902411458,-87.68316113321863,"(41.851009024114575, -87.68316113321862)",2014-12-07
227791,12/07/2014,Completed,12/10/2014,14-02096091,Street Lights - All/Out,6700 S KEELER AVE,60629.0,1149524.70710658,1859840.71283097,13.0,8.0,65.0,41.771316697312734,-87.72745288807108,"(41.771316697312734, -87.72745288807108)",2014-12-07
227792,12/07/2014,Completed,12/10/2014,14-02096202,Street Lights - All/Out,7224 S EBERHART AVE,60619.0,1180827.06002206,1857228.35062294,6.0,3.0,69.0,41.763485688007215,-87.61278988328772,"(41.76348568800722, -87.61278988328772)",2014-12-07
227793,12/07/2014,Completed,12/10/2014,14-02096223,Street Lights - All/Out,698 E 102ND ST,60628.0,1182557.96317333,1837475.04009228,9.0,5.0,49.0,41.70924039676249,-87.6070567998273,"(41.709240396762496, -87.60705679982732)",2014-12-07
227794,12/08/2014,Completed - Dup,12/10/2014,14-02096920,Street Lights - All/Out,6800 S KEDVALE AVE,60629.0,1149875.06807677,1859184.40718348,13.0,8.0,65.0,41.76950890673723,-87.7261855527301,"(41.76950890673723, -87.7261855527301)",2014-12-08
227795,12/08/2014,Completed - Dup,12/10/2014,14-02098530,Street Lights - All/Out,5700 W WAVELAND AVE,60634.0,1137698.69260428,1924027.49889687,38.0,16.0,15.0,41.94767483984043,-87.76925794440571,"(41.94767483984043, -87.7692579444057)",2014-12-08
227796,12/08/2014,Completed - Dup,12/10/2014,14-02104437,Street Lights - All/Out,5700 N CALIFORNIA AVE,60659.0,1156651.57047526,1937740.00218343,40.0,20.0,2.0,41.98493931207383,-87.69921826699026,"(41.98493931207383, -87.69921826699026)",2014-12-08
227797,12/08/2014,Completed,12/10/2014,14-02097380,Street Lights - All/Out,4100 W HENDERSON ST,60641.0,1148469.08192279,1921948.84008723,30.0,17.0,16.0,41.941769499315456,-87.72972199260154,"(41.94176949931545, -87.72972199260155)",2014-12-08
227798,12/08/2014,Completed,12/10/2014,14-02100281,Street Lights - All/Out,1150 N KEDZIE AVE,60651.0,1154819.77731344,1907548.82993339,26.0,11.0,23.0,41.90212961601683,-87.70676711355931,"(41.90212961601683, -87.70676711355931)",2014-12-08
227799,12/08/2014,Completed,12/10/2014,14-02103505,Street Lights - All/Out,7111 S ASHLAND AVE,60636.0,1166912.37679802,1857517.06451205,17.0,7.0,67.0,41.76458648930861,-87.66378174232868,"(41.764586489308606, -87.66378174232868)",2014-12-08
227800,12/08/2014,Completed,12/10/2014,14-02103536,Street Lights - All/Out,4700 S WESTERN AVE,60609.0,1161159.93821061,1873448.6174251998,12.0,9.0,58.0,41.808425751617435,-87.68442535585243,"(41.80842575161744, -87.68442535585244)",2014-12-08
227801,12/08/2014,Completed,12/10/2014,14-02104258,Street Lights - All/Out,8141 S SCOTTSDALE AVE,60652.0,1147050.86720766,1850313.53778606,13.0,8.0,70.0,41.74521992624731,-87.73676344173737,"(41.74521992624731, -87.73676344173737)",2014-12-08
227802,12/08/2014,Completed,12/10/2014,14-02104261,Street Lights - All/Out,1399 W CRYSTAL ST,60642.0,1166825.09229022,1908478.86007907,32.0,14.0,24.0,41.90443260118358,-87.66264323989817,"(41.90443260118358, -87.66264323989817)",2014-12-08
227803,12/08/2014,Completed,12/10/2014,14-02104304,Street Lights - All/Out,1200 W MADISON ST,60607.0,1168388.2832711001,1900176.27518046,27.0,12.0,28.0,41.88161606198453,-87.65714158619707,"(41.88161606198453, -87.65714158619708)",2014-12-08
227804,12/09/2014,Completed - Dup,12/10/2014,14-02104571,Street Lights - All/Out,1900 W 107TH ST,60643.0,1165399.66001542,1833693.62928022,19.0,22.0,72.0,41.699243531122995,-87.66999921953129,"(41.69924353112299, -87.66999921953129)",2014-12-09
227805,12/09/2014,Completed - Dup,12/10/2014,14-02104663,Street Lights - All/Out,3400 S CARPENTER ST,60608.0,1169867.95988303,1882339.13187248,11.0,9.0,60.0,41.83263735018994,-87.65222785763528,"(41.832637350189934, -87.6522278576353)",2014-12-09
227806,12/09/2014,Completed - Dup,12/10/2014,14-02104724,Street Lights - All/Out,8000 S DOBSON AVE,60619.0,1184612.39217813,1852172.08021955,8.0,6.0,44.0,41.74952293111474,-87.59907419487217,"(41.74952293111474, -87.59907419487217)",2014-12-09
227807,12/09/2014,Completed - Dup,12/10/2014,14-02111472,Street Lights - All/Out,1200 W MADISON ST,60607.0,1168388.2832711001,1900176.27518046,27.0,12.0,28.0,41.88161606198453,-87.65714158619707,"(41.88161606198453, -87.65714158619708)",2014-12-09
227808,12/09/2014,Completed,12/10/2014,14-02104580,Street Lights - All/Out,5700 N CALIFORNIA AVE,60659.0,1156651.57047526,1937740.00218343,40.0,20.0,2.0,41.98493931207383,-87.69921826699026,"(41.98493931207383, -87.69921826699026)",2014-12-09
227809,12/09/2014,Completed,12/10/2014,14-02104581,Street Lights - All/Out,6447 N WESTERN AVE,60645.0,1159146.01949946,1942733.55971215,50.0,24.0,2.0,41.99859078449101,-87.68990592898662,"(41.99859078449101, -87.68990592898663)",2014-12-09
227810,12/09/2014,Completed,12/10/2014,14-02104655,Street Lights - All/Out,4208 W 69TH ST,60629.0,1149474.91002238,1858507.65141396,13.0,8.0,65.0,41.76765951905997,-87.72766984014488,"(41.76765951905997, -87.72766984014487)",2014-12-09
227811,12/09/2014,Completed,12/10/2014,14-02104656,Street Lights - All/Out,4140 W 69TH ST,60629.0,1149807.39000004,1858519.01942178,13.0,8.0,65.0,41.76768428366443,-87.72645084304888,"(41.76768428366443, -87.72645084304887)",2014-12-09
227812,12/09/2014,Completed,12/10/2014,14-02104657,Street Lights - All/Out,3800 W 110TH ST,60655.0,1152982.2729216001,1831381.09437489,19.0,22.0,74.0,41.69315093668721,-87.71552732369408,"(41.69315093668721, -87.71552732369408)",2014-12-09
227813,12/09/2014,Completed,12/10/2014,14-02104659,Street Lights - All/Out,3900 S WESTERN BLVD,60609.0,1161170.43060141,1878759.70351666,12.0,9.0,58.0,41.82299979327086,-87.6842397271036,"(41.82299979327086, -87.6842397271036)",2014-12-09
227814,12/09/2014,Completed,12/10/2014,14-02104660,Street Lights - All/Out,4128 S OAKLEY AVE,60609.0,1161562.84953175,1877125.33767736,12.0,9.0,61.0,41.81850675780343,-87.68284548484094,"(41.81850675780344, -87.68284548484095)",2014-12-09
227815,12/09/2014,Completed,12/10/2014,14-02104706,Street Lights - All/Out,4728 N AVERS AVE,60625.0,1149867.419825,1931265.93955,39.0,17.0,14.0,41.967309183104966,-87.72433912875404,"(41.96730918310497, -87.72433912875404)",2014-12-09
227816,12/09/2014,Completed,12/10/2014,14-02104731,Street Lights - All/Out,1300 W MADISON ST,60607.0,1167714.43808924,1900155.48500473,27.0,12.0,28.0,41.88157355472799,-87.65961651122471,"(41.881573554727986, -87.65961651122471)",2014-12-09
227817,12/09/2014,Completed,12/10/2014,14-02106488,Street Lights - All/Out,2428 W OHIO ST,60612.0,1160016.82988677,1903932.7232721,26.0,12.0,24.0,41.8921009717079,-87.68777750250611,"(41.8921009717079, -87.68777750250611)",2014-12-09
227818,12/09/2014,Completed,12/10/2014,14-02106526,Street Lights - All/Out,8515 S EUCLID AVE,60617.0,1190667.59702239,1848901.17558541,8.0,4.0,45.0,41.74040333001511,-87.57699114247139,"(41.740403330015106, -87.57699114247139)",2014-12-09
227819,12/09/2014,Completed,12/10/2014,14-02110743,Street Lights - All/Out,6901 S WOODLAWN AVE,60637.0,1185591.22011969,1859590.90739734,5.0,3.0,69.0,41.76985792329192,-87.59525416599016,"(41.769857923291916, -87.59525416599016)",2014-12-09
227820,12/09/2014,Completed,12/10/2014,14-02111111,Street Lights - All/Out,5300 W CUYLER AVE,60641.0,1140298.67271172,1926416.15149478,38.0,16.0,15.0,41.954182175916436,-87.75964213798996,"(41.95418217591644, -87.75964213798996)",2014-12-09
227821,12/09/2014,Completed,12/10/2014,14-02111200,Street Lights - All/Out,8744 S MANISTEE AVE,60617.0,1196149.99993404,1847528.15341123,7.0,4.0,46.0,41.7365016672586,-87.55695000820505,"(41.7365016672586, -87.55695000820505)",2014-12-09
227822,12/09/2014,Completed,12/10/2014,14-02111243,Street Lights - All/Out,2500 N SAWYER AVE,60647.0,1154053.69583112,1916430.89470592,35.0,14.0,22.0,41.926518088703716,-87.7093436904331,"(41.92651808870372, -87.7093436904331)",2014-12-09
227823,12/10/2014,Completed - Dup,12/10/2014,14-02117598,Street Lights - All/Out,7300 S CHAPPEL AVE,60649.0,1191135.53020124,1856968.5462061001,5.0,3.0,43.0,41.76252959645888,-87.57501620258327,"(41.762529596458876, -87.57501620258327)",2014-12-10
227824,12/10/2014,Completed - Dup,12/10/2014,14-02117674,Street Lights - All/Out,7300 S CHAPPEL AVE,60649.0,1191135.53020124,1856968.5462061001,5.0,3.0,43.0,41.76252959645888,-87.57501620258327,"(41.762529596458876, -87.57501620258327)",2014-12-10
227825,12/10/2014,Completed,12/10/2014,14-02112133,Street Lights - All/Out,2399 W 107TH ST,60643.0,1162290.01822288,1833609.91431221,19.0,22.0,75.0,41.699078961421336,-87.68138771497543,"(41.699078961421336, -87.68138771497543)",2014-12-10
227826,12/10/2014,Completed,12/10/2014,14-02117412,Street Lights - All/Out,1948 W HARRISON ST,60612.0,1163437.85340143,1897383.76912681,2.0,12.0,28.0,41.87405878110878,-87.67539796428093,"(41.87405878110878, -87.67539796428093)",2014-12-10
227828,12/01/2014,Completed - Dup,12/10/2014,14-02061525,Street Lights - All/Out,1041 W CONGRESS PKWY,60607.0,1169557.07087895,1897816.42003142,2.0,12.0,28.0,41.875115097253186,-87.65291855800525,"(41.87511509725319, -87.65291855800527)",2014-12-01
227829,12/01/2014,Completed - Dup,12/10/2014,14-02063184,Street Lights - All/Out,8100 S HONORE ST,60620.0,1165427.29212025,1850963.93721375,18.0,6.0,71.0,41.74663537803536,-87.66941034749188,"(41.746635378035364, -87.66941034749188)",2014-12-01
227830,12/01/2014,Completed,12/10/2014,14-02057062,Street Lights - All/Out,1310 E 49TH ST,60615.0,1185610.72058816,1872770.82848129,4.0,2.0,39.0,41.80602424403222,-87.5947676771751,"(41.80602424403222, -87.59476767717511)",2014-12-01
227831,12/02/2014,Completed,12/10/2014,14-02068428,Street Lights - All/Out,8100 S HONORE ST,60620.0,1165427.29212025,1850963.93721375,18.0,6.0,71.0,41.74663537803536,-87.66941034749188,"(41.746635378035364, -87.66941034749188)",2014-12-02
227832,12/03/2014,Completed,12/10/2014,14-02072275,Street Lights - All/Out,5100 S MASSASOIT AVE,60638.0,1138892.87000391,1870223.86002574,23.0,8.0,56.0,41.80000880584115,-87.76617516546284,"(41.80000880584115, -87.76617516546284)",2014-12-03
227833,12/04/2014,Completed,12/10/2014,14-02078874,Street Lights - All/Out,3300 S CARPENTER ST,60608.0,1169852.76657214,1882932.72062876,11.0,9.0,60.0,41.834266544047104,-87.65226633604664,"(41.8342665440471, -87.65226633604664)",2014-12-04
227834,12/04/2014,Completed,12/10/2014,14-02084487,Street Lights - All/Out,5844 W HENDERSON ST,60634.0,1136821.66730321,1921677.38152089,38.0,16.0,15.0,41.94124166826752,-87.77253824570694,"(41.941241668267516, -87.77253824570693)",2014-12-04
227835,12/05/2014,Completed - Dup,12/10/2014,14-02087941,Street Lights - All/Out,8141 S SCOTTSDALE AVE,60652.0,1147050.86720766,1850313.53778606,13.0,8.0,70.0,41.74521992624731,-87.73676344173737,"(41.74521992624731, -87.73676344173737)",2014-12-05
227836,12/05/2014,Completed - Dup,12/10/2014,14-02090871,Street Lights - All/Out,1925 W HARRISON ST,60612.0,1163650.25340143,1897389.86912681,2.0,12.0,28.0,41.87407104972703,-87.6746179596072,"(41.87407104972702, -87.6746179596072)",2014-12-05
227837,12/05/2014,Completed,12/10/2014,14-02085138,Street Lights - All/Out,6809 N GREENVIEW AVE,60626.0,1165141.67012152,1945309.06772613,49.0,24.0,1.0,42.005532287088755,-87.66777621209567,"(42.00553228708875, -87.66777621209567)",2014-12-05
227838,12/05/2014,Completed,12/10/2014,14-02085139,Street Lights - All/Out,2000 N CLYBOURN AVE,60614.0,1167821.5265911,1913286.4276208,43.0,18.0,7.0,41.91760342109145,-87.65884420953233,"(41.91760342109145, -87.65884420953233)",2014-12-05
227839,12/05/2014,Completed,12/10/2014,14-02090807,Street Lights - All/Out,6000 W EDDY ST,60634.0,1135745.45007974,1922987.82822568,38.0,16.0,17.0,41.944856924709356,-87.77646253739289,"(41.94485692470936, -87.77646253739289)",2014-12-05
227840,12/05/2014,Completed,12/10/2014,14-02091138,Street Lights - All/Out,602 N OGDEN AVE,60642.0,1168193.45921618,1904165.4027330002,27.0,12.0,24.0,41.892566722670495,-87.65774164741188,"(41.89256672267049, -87.65774164741187)",2014-12-05
227841,12/05/2014,Completed,12/10/2014,14-02091481,Street Lights - All/Out,4111 S CICERO AVE,60638.0,1145044.54331643,1876780.01807578,14.0,8.0,56.0,41.81788631625153,-87.74344978980709,"(41.81788631625153, -87.7434497898071)",2014-12-05
227842,12/05/2014,Completed,12/10/2014,14-02091712,Street Lights - All/Out,2244 W 50TH PL,60609.0,1162179.8599777,1871141.29002394,16.0,9.0,63.0,41.80207296764639,-87.68074875847651,"(41.80207296764639, -87.6807487584765)",2014-12-05
227843,12/07/2014,Completed - Dup,12/10/2014,14-02095063,Street Lights - All/Out,2309 W 22ND PL,60608.0,1161325.06299644,1889019.88011692,25.0,10.0,31.0,41.85115163542183,-87.68338762307039,"(41.85115163542183, -87.68338762307039)",2014-12-07
227850,12/10/2014,Completed,12/11/2014,14-02112174,Street Lights - All/Out,1250 W ARGYLE ST,60640.0,1166951.99996664,1933339.06031252,48.0,20.0,3.0,41.97264748376881,-87.66146137186979,"(41.972647483768824, -87.66146137186979)",2014-12-10
227851,12/10/2014,Completed,12/11/2014,14-02112179,Street Lights - All/Out,4500 N MOZART ST,60625.0,1156567.51658304,1929769.03409307,33.0,17.0,14.0,41.96306826350916,-87.69974423357151,"(41.96306826350916, -87.69974423357151)",2014-12-10
227852,12/10/2014,Completed,12/11/2014,14-02112180,Street Lights - All/Out,2809 W ARDMORE AVE,60659.0,1156529.12610637,1938401.13037272,40.0,20.0,2.0,41.98675596556004,-87.69965061584179,"(41.98675596556004, -87.69965061584179)",2014-12-10
227853,12/10/2014,Completed,12/11/2014,14-02112232,Street Lights - All/Out,10709 S SPRINGFIELD AVE,60655.0,1152249.27346684,1833269.15461322,19.0,22.0,74.0,41.69834653925076,-87.71816164957548,"(41.69834653925076, -87.71816164957548)",2014-12-10
227854,12/10/2014,Completed,12/11/2014,14-02112233,Street Lights - All/Out,2550 W 26TH ST,60608.0,1160205.65542905,1886694.95843312,12.0,10.0,30.0,41.84479497876672,-87.6875602694063,"(41.844794978766714, -87.6875602694063)",2014-12-10
227855,12/10/2014,Completed,12/11/2014,14-02112234,Street Lights - All/Out,7900 S MAPLEWOOD AVE,60652.0,1160751.58737749,1852149.0162206,18.0,8.0,70.0,41.74998514028781,-87.68651072687574,"(41.749985140287805, -87.68651072687575)",2014-12-10
227856,12/10/2014,Completed,12/11/2014,14-02112325,Street Lights - All/Out,4800 W CHICAGO AVE,60651.0,1144209.6524331002,1904877.10977543,37.0,15.0,25.0,41.895004153380775,-87.74580720995955,"(41.895004153380775, -87.74580720995954)",2014-12-10
227857,12/10/2014,Completed,12/11/2014,14-02112327,Street Lights - All/Out,934 N PARKSIDE AVE,60651.0,1138517.13231826,1905669.5208085,29.0,15.0,25.0,41.89728369169097,-87.76669540784958,"(41.89728369169098, -87.76669540784958)",2014-12-10
227858,12/10/2014,Completed,12/11/2014,14-02112330,Street Lights - All/Out,4700 N AVERS AVE,60625.0,1149876.25141824,1930955.83479356,39.0,17.0,14.0,41.9664580620355,-87.7243147606572,"(41.9664580620355, -87.72431476065721)",2014-12-10
227859,12/10/2014,Completed,12/11/2014,14-02112845,Street Lights - All/Out,12200 S PERRY AVE,60628.0,1177795.63660577,1824058.02537172,9.0,5.0,53.0,41.67253104804391,-87.62490097726975,"(41.67253104804391, -87.62490097726975)",2014-12-10
227860,12/10/2014,Completed,12/11/2014,14-02114746,Street Lights - All/Out,1040 N DAMEN AVE,60622.0,1162877.35997062,1907046.13002019,32.0,12.0,24.0,41.90058486400637,-87.6771845705763,"(41.90058486400637, -87.67718457057629)",2014-12-10
227861,12/10/2014,Completed,12/11/2014,14-02115450,Street Lights - All/Out,2609 W CULLERTON ST,60608.0,1159282.20751288,1890311.96987162,28.0,10.0,30.0,41.854739451214506,-87.6908498883633,"(41.85473945121451, -87.69084988836329)",2014-12-10
227862,12/10/2014,Completed,12/11/2014,14-02115869,Street Lights - All/Out,200 N LECLAIRE AVE,60644.0,1142341.7849852,1900983.39417807,28.0,15.0,25.0,41.884354224385845,-87.75276423656183,"(41.88435422438584, -87.75276423656183)",2014-12-10
227863,12/10/2014,Completed,12/11/2014,14-02116693,Street Lights - All/Out,5212 W PATTERSON AVE,60641.0,1140968.13800328,1923771.29008026,38.0,16.0,15.0,41.94691210610394,-87.75724641637908,"(41.946912106103944, -87.75724641637906)",2014-12-10
227864,12/10/2014,Completed,12/11/2014,14-02117586,Street Lights - All/Out,7310 S MERRILL AVE,60649.0,1191819.74821577,1856916.92789905,5.0,3.0,43.0,41.762371372410065,-87.57251015954994,"(41.76237137241007, -87.57251015954994)",2014-12-10
227865,12/11/2014,Completed,12/11/2014,14-02118700,Street Lights - All/Out,6550 N GLENWOOD AVE,60626.0,1165741.43247371,1943801.69008177,40.0,24.0,1.0,42.00138319758807,-87.66561289372854,"(42.00138319758807, -87.66561289372855)",2014-12-11
227866,12/11/2014,Completed,12/11/2014,14-02119002,Street Lights - All/Out,1302 W ROOSEVELT RD,60608.0,1167876.90512649,1894829.91179037,2.0,12.0,28.0,41.86695626379552,-87.659173534423,"(41.866956263795515, -87.65917353442302)",2014-12-11
227867,12/03/2014,Completed,12/11/2014,14-02071872,Street Lights - All/Out,8959 S YATES BLVD,60617.0,1193725.83087284,1846031.74519096,7.0,4.0,48.0,41.73245505674162,-87.56588006774109,"(41.732455056741614, -87.56588006774109)",2014-12-03
227868,12/03/2014,Completed,12/11/2014,14-02071878,Street Lights - All/Out,2600 E 87TH ST,60617.0,1195000.0000149999,1847793.69990621,7.0,4.0,46.0,41.73725874016,-87.56115441022854,"(41.73725874016, -87.56115441022853)",2014-12-03
227869,12/03/2014,Completed,12/11/2014,14-02072060,Street Lights - All/Out,3500 N ORANGE AVE,60634.0,1122797.63991987,1922270.13031576,36.0,16.0,17.0,41.94310843613509,-87.82407019666469,"(41.943108436135084, -87.82407019666469)",2014-12-03
227870,12/03/2014,Completed,12/11/2014,14-02077689,Street Lights - All/Out,8600 S ESSEX AVE,60617.0,1194323.5511788,1848438.19618058,7.0,4.0,46.0,41.73904392140784,-87.56361155510841,"(41.739043921407834, -87.56361155510841)",2014-12-03
227871,12/04/2014,Completed,12/11/2014,14-02080035,Street Lights - All/Out,801 N FRANCISCO AVE,60622.0,1156907.50991988,1905206.71439529,26.0,12.0,24.0,41.89566054517388,-87.69916213887701,"(41.89566054517388, -87.69916213887701)",2014-12-04
227872,12/05/2014,Completed - Dup,12/11/2014,14-02091320,Street Lights - All/Out,2750 W 86TH PL,60652.0,1159923.98957354,1847143.2289904999,18.0,8.0,70.0,41.7362655023496,-87.68968063129982,"(41.736265502349596, -87.68968063129982)",2014-12-05
227873,12/05/2014,Completed,12/11/2014,14-02084799,Street Lights - All/Out,12700 S INDIANA AVE,60628.0,1179809.65113388,1820714.55219117,9.0,5.0,53.0,41.66331037305139,-87.61763128685558,"(41.66331037305139, -87.61763128685558)",2014-12-05
227874,12/05/2014,Completed,12/11/2014,14-02090743,Street Lights - All/Out,2750 W 86TH PL,60652.0,1159923.98957354,1847143.2289904999,18.0,8.0,70.0,41.7362655023496,-87.68968063129982,"(41.736265502349596, -87.68968063129982)",2014-12-05
227875,12/05/2014,Completed,12/11/2014,14-02091358,Street Lights - All/Out,1630 W LE MOYNE ST,60622.0,1165248.06001269,1910168.29009049,1.0,14.0,24.0,41.9091022001575,-87.66838798785463,"(41.9091022001575, -87.66838798785464)",2014-12-05
227876,12/06/2014,Completed,12/11/2014,14-02093419,Street Lights - All/Out,1955 S AVERS AVE,60623.0,1151051.36537753,1890007.43868179,24.0,10.0,29.0,41.85406880813701,-87.72106876298928,"(41.85406880813701, -87.72106876298928)",2014-12-06
227877,12/07/2014,Completed,12/11/2014,14-02095460,Street Lights - All/Out,1351 W ANCONA ST,60642.0,1167293.8246273,1904645.68593077,27.0,12.0,24.0,41.893904043802095,-87.66103180448081,"(41.89390404380209, -87.66103180448083)",2014-12-07
227878,12/08/2014,Completed - Dup,12/11/2014,14-02101519,Street Lights - All/Out,12700 S INDIANA AVE,60628.0,1179809.65113388,1820714.55219117,9.0,5.0,53.0,41.66331037305139,-87.61763128685558,"(41.66331037305139, -87.61763128685558)",2014-12-08
227879,12/08/2014,Completed,12/11/2014,14-02103010,Street Lights - All/Out,9515 S INDIANA AVE,60628.0,1179262.95008843,1841927.13846996,6.0,5.0,49.0,41.721533168014005,-87.61898816482515,"(41.721533168014, -87.61898816482515)",2014-12-08
227880,12/08/2014,Completed,12/11/2014,14-02103593,Street Lights - All/Out,4900 W MELROSE ST,60641.0,1143129.36817108,1921160.17179279,30.0,16.0,15.0,41.93970682009418,-87.74936763996814,"(41.93970682009418, -87.74936763996816)",2014-12-08
227881,12/09/2014,Completed - Dup,12/11/2014,14-02104595,Street Lights - All/Out,399 W 90TH PL,60620.0,1175464.83189461,1844784.53908355,21.0,6.0,49.0,41.72945990143496,-87.63281473702824,"(41.729459901434964, -87.63281473702823)",2014-12-09
227882,12/09/2014,Completed - Dup,12/11/2014,14-02104596,Street Lights - All/Out,9045 S PRINCETON AVE,60620.0,1175941.6899722998,1844698.44001764,21.0,6.0,49.0,41.72921297133922,-87.63107045936772,"(41.729212971339216, -87.63107045936772)",2014-12-09
227883,12/09/2014,Completed - Dup,12/11/2014,14-02104718,Street Lights - All/Out,1953 S AVERS AVE,60623.0,1151050.96537753,1890020.23868179,24.0,10.0,29.0,41.854103940716314,-87.72106989616253,"(41.85410394071631, -87.72106989616253)",2014-12-09
227884,12/09/2014,Completed,12/11/2014,14-02106833,Street Lights - All/Out,8800 S ESCANABA AVE,60617.0,1196916.07929358,1847178.45830187,10.0,4.0,46.0,41.735523077255024,-87.55415500799066,"(41.73552307725502, -87.55415500799067)",2014-12-09
227885,12/09/2014,Completed,12/11/2014,14-02111484,Street Lights - All/Out,7115 S CORNELL AVE,60649.0,1188465.39826661,1858110.43280021,8.0,3.0,43.0,41.765727208790864,-87.58476605826378,"(41.765727208790864, -87.58476605826378)",2014-12-09
227886,12/09/2014,Completed,12/11/2014,14-02111811,Street Lights - All/Out,12101 S PARNELL AVE,60628.0,1174820.04397348,1824657.88950703,34.0,5.0,53.0,41.67424378621401,-87.63577394062351,"(41.67424378621401, -87.63577394062351)",2014-12-09
227895,12/01/2014,Completed,12/11/2014,14-02057099,Street Lights - All/Out,9700 S LUELLA AVE,60617.0,1192838.06869877,1840909.09253425,7.0,4.0,51.0,41.71841968497611,-87.56929883234251,"(41.71841968497611, -87.56929883234251)",2014-12-01
227896,12/01/2014,Completed,12/11/2014,14-02058110,Street Lights - All/Out,720 N SPAULDING AVE,60624.0,1154245.96330523,1904607.70943406,27.0,11.0,23.0,41.894070386364156,-87.7089534474448,"(41.89407038636416, -87.7089534474448)",2014-12-01
227897,12/02/2014,Completed - Dup,12/11/2014,14-02070522,Street Lights - All/Out,8600 S ESSEX AVE,60617.0,1194323.5511788,1848438.19618058,7.0,4.0,46.0,41.73904392140784,-87.56361155510841,"(41.739043921407834, -87.56361155510841)",2014-12-02
227900,12/11/2014,Completed - Dup,12/12/2014,14-02118748,Street Lights - All/Out,10900 S STATE ST,60628.0,1178186.76678259,1832696.82811245,34.0,5.0,49.0,41.69622837282356,-87.62320881350426,"(41.69622837282356, -87.62320881350425)",2014-12-11
227901,12/11/2014,Completed - Dup,12/12/2014,14-02124404,Street Lights - All/Out,2830 E 83RD ST,60617.0,1196606.13987754,1850486.24391052,7.0,4.0,46.0,41.74460759789836,-87.55518090414569,"(41.74460759789836, -87.55518090414567)",2014-12-11
227902,12/11/2014,Completed,12/12/2014,14-02118699,Street Lights - All/Out,314 W BARRY AVE,60657.0,1173627.64996933,1920677.09003197,44.0,19.0,6.0,41.937756409693954,-87.63729208842638,"(41.93775640969395, -87.63729208842638)",2014-12-11
227903,12/11/2014,Completed,12/12/2014,14-02118703,Street Lights - All/Out,2021 W LAWRENCE AVE,60625.0,1161910.29029922,1931877.64532619,47.0,19.0,4.0,41.96874430099633,-87.6800416526385,"(41.96874430099633, -87.6800416526385)",2014-12-11
227904,12/11/2014,Completed,12/12/2014,14-02118721,Street Lights - All/Out,5100 S MAJOR AVE,60638.0,1139225.25993134,1870235.06429515,23.0,8.0,56.0,41.80003352745192,-87.76495589978249,"(41.800033527451916, -87.76495589978248)",2014-12-11
227905,12/11/2014,Completed,12/12/2014,14-02118723,Street Lights - All/Out,4000 S CICERO AVE,60638.0,1145021.83497214,1877778.00651996,14.0,10.0,56.0,41.82062537329958,-87.74350796196856,"(41.82062537329958, -87.74350796196855)",2014-12-11
227906,12/11/2014,Completed,12/12/2014,14-02118724,Street Lights - All/Out,4300 S LAPORTE AVE,60638.0,1144032.25722986,1875415.11987713,23.0,8.0,56.0,41.814159836889466,-87.74719738087856,"(41.81415983688947, -87.74719738087856)",2014-12-11
227907,12/11/2014,Completed,12/12/2014,14-02118725,Street Lights - All/Out,2531 S KOSTNER AVE,60623.0,1147468.8519029,1886687.77007113,22.0,10.0,30.0,41.845028550411,-87.73430310576603,"(41.845028550411, -87.73430310576603)",2014-12-11
227908,12/11/2014,Completed,12/12/2014,14-02118727,Street Lights - All/Out,7420 S WESTERN AVE,60636.0,1161663.96811337,1855277.19989363,18.0,8.0,66.0,41.75855047216785,-87.68308070742559,"(41.758550472167855, -87.6830807074256)",2014-12-11
227909,12/11/2014,Completed,12/12/2014,14-02118745,Street Lights - All/Out,8000 S DOBSON AVE,60619.0,1184612.39217813,1852172.08021955,8.0,6.0,44.0,41.74952293111474,-87.59907419487217,"(41.74952293111474, -87.59907419487217)",2014-12-11
227910,12/11/2014,Completed,12/12/2014,14-02119165,Street Lights - All/Out,3350 S CARPENTER ST,60608.0,1169852.76657214,1882932.72062876,11.0,9.0,60.0,41.834266544047104,-87.65226633604664,"(41.8342665440471, -87.65226633604664)",2014-12-11
227911,12/11/2014,Completed,12/12/2014,14-02119587,Street Lights - All/Out,8004 W FOSTER AVE,60656.0,1121981.23997595,1933534.35599999,41.0,16.0,10.0,41.97403210267289,-87.82682622839968,"(41.97403210267289, -87.82682622839967)",2014-12-11
227912,12/11/2014,Completed,12/12/2014,14-02120334,Street Lights - All/Out,10553 S MILLARD AVE,60655.0,1153877.67839095,1834373.88313251,19.0,22.0,74.0,41.701346052985635,-87.7121699966942,"(41.70134605298563, -87.71216999669421)",2014-12-11
227913,12/11/2014,Completed,12/12/2014,14-02120688,Street Lights - All/Out,5691 N RIDGE AVE,60660.0,1166506.18999257,1937983.35116942,48.0,20.0,77.0,41.98540114056339,-87.66296704110637,"(41.98540114056339, -87.66296704110638)",2014-12-11
227914,12/11/2014,Completed,12/12/2014,14-02121418,Street Lights - All/Out,7246 S ST LAWRENCE AVE,60619.0,1181489.42766817,1857101.35748724,6.0,3.0,69.0,41.763121954617894,-87.61036610559376,"(41.7631219546179, -87.61036610559377)",2014-12-11
227915,12/11/2014,Completed,12/12/2014,14-02122029,Street Lights - All/Out,1800 W THOMAS ST,60622.0,1164195.35732399,1907371.89993313,1.0,12.0,24.0,41.90145103644093,-87.67233428421189,"(41.901451036440925, -87.67233428421189)",2014-12-11
227916,12/11/2014,Completed,12/12/2014,14-02123794,Street Lights - All/Out,1309 N LOCKWOOD AVE,60651.0,1140785.31097565,1908240.05798232,37.0,25.0,25.0,41.90429613777942,-87.75830128896813,"(41.90429613777942, -87.75830128896813)",2014-12-11
227917,12/12/2014,Completed - Dup,12/12/2014,14-02125135,Street Lights - All/Out,7246 S ST LAWRENCE AVE,60619.0,1181489.42766817,1857101.35748724,6.0,3.0,69.0,41.763121954617894,-87.61036610559376,"(41.7631219546179, -87.61036610559377)",2014-12-12
227918,12/12/2014,Completed,12/12/2014,14-02125291,Street Lights - All/Out,4332 W 84TH ST,60652.0,1148878.7546292,1848497.45239386,18.0,8.0,70.0,41.74020129164514,-87.7301123068302,"(41.74020129164514, -87.73011230683018)",2014-12-12
227919,12/12/2014,Completed,12/12/2014,14-02126248,Street Lights - All/Out,50 S WOOD ST,60612.0,1164421.82106984,1899697.59508565,27.0,12.0,28.0,41.880387359879386,-87.67171981302229,"(41.880387359879386, -87.67171981302228)",2014-12-12
227920,12/12/2014,Completed,12/12/2014,14-02126842,Street Lights - All/Out,350 N STATE ST,60654.0,1176305.95490992,1902374.25198164,42.0,18.0,8.0,41.88747256454026,-87.62800209608477,"(41.88747256454026, -87.62800209608477)",2014-12-12
227921,12/03/2014,Completed,12/12/2014,14-02075028,Street Lights - All/Out,3323 W BEACH AVE,60651.0,1153940.19388049,1909442.29242796,26.0,14.0,23.0,41.9073430332736,-87.70994742307909,"(41.9073430332736, -87.7099474230791)",2014-12-03
227922,12/03/2014,Completed,12/12/2014,14-02077748,Street Lights - All/Out,2100 S TRUMBULL AVE,60623.0,1153740.53503035,1889837.97757802,24.0,10.0,29.0,41.853550745120785,-87.71120290425449,"(41.85355074512079, -87.71120290425449)",2014-12-03
227923,12/05/2014,Completed - Dup,12/12/2014,14-02091585,Street Lights - All/Out,3900 S CICERO AVE,60638.0,1145011.52120541,1878283.80012921,14.0,10.0,56.0,41.82201354026214,-87.7435330613438,"(41.82201354026214, -87.74353306134381)",2014-12-05
227924,12/05/2014,Completed,12/12/2014,14-02085170,Street Lights - All/Out,6400 S LOWE AVE,60621.0,1173137.19020051,1862451.3702909,20.0,7.0,68.0,41.777991573656585,-87.64082055370062,"(41.777991573656585, -87.64082055370062)",2014-12-05
227925,12/05/2014,Completed,12/12/2014,14-02091096,Street Lights - All/Out,1445 N MAPLEWOOD AVE,60622.0,1159143.02391675,1909523.11178384,26.0,14.0,24.0,41.907459460237924,-87.69083285751289,"(41.907459460237924, -87.69083285751289)",2014-12-05
227926,12/06/2014,Completed,12/12/2014,14-02092331,Street Lights - All/Out,1131 E 81ST ST,60619.0,1185296.71057145,1851524.05770774,8.0,4.0,45.0,41.747728639044304,-87.5965869358008,"(41.747728639044304, -87.59658693580079)",2014-12-06
227927,12/06/2014,Completed,12/12/2014,14-02093938,Street Lights - All/Out,10615 S EMERALD AVE,60628.0,1173192.41038197,1834467.3218156998,34.0,22.0,49.0,41.701198417788575,-87.64144291777663,"(41.70119841778858, -87.64144291777662)",2014-12-06
227928,12/08/2014,Completed - Dup,12/12/2014,14-02101646,Street Lights - All/Out,1300 N LOCKWOOD AVE,60651.0,1140787.91097565,1908144.25798232,37.0,25.0,25.0,41.90403320365942,-87.75829409727685,"(41.90403320365942, -87.75829409727685)",2014-12-08
227929,12/08/2014,Completed - Dup,12/12/2014,14-02103408,Street Lights - All/Out,4350 W SHAKESPEARE AVE,60639.0,1147367.77003143,1913943.29001695,30.0,25.0,20.0,41.91982275033733,-87.73397549950863,"(41.91982275033733, -87.73397549950863)",2014-12-08
227930,12/08/2014,Completed,12/12/2014,14-02096880,Street Lights - All/Out,839 N ELIZABETH ST,60642.0,1167567.02328729,1905858.66011524,27.0,12.0,24.0,41.89722664948075,-87.6599934783786,"(41.89722664948075, -87.65999347837861)",2014-12-08
227931,12/09/2014,Completed - Dup,12/12/2014,14-02104598,Street Lights - All/Out,9100 S STEWART AVE,60620.0,1175493.80509222,1844563.01829072,21.0,6.0,49.0,41.728851371900134,-87.6327152060365,"(41.728851371900134, -87.6327152060365)",2014-12-09
227932,12/09/2014,Completed,12/12/2014,14-02104577,Street Lights - All/Out,3400 W CHICAGO AVE,60651.0,1153566.28259137,1905126.16368243,27.0,11.0,23.0,41.89550662055225,-87.71143590963902,"(41.89550662055224, -87.71143590963901)",2014-12-09
227933,12/09/2014,Completed,12/12/2014,14-02104578,Street Lights - All/Out,852 N CHRISTIANA AVE,60651.0,1153970.59997948,1905509.85999365,27.0,11.0,23.0,41.89655146823645,-87.70994070031709,"(41.89655146823645, -87.70994070031709)",2014-12-09
227934,12/09/2014,Completed,12/12/2014,14-02110726,Street Lights - All/Out,8300 S STONY ISLAND AVE,60617.0,1188251.72428534,1850263.02452518,8.0,4.0,45.0,41.744198301107566,-87.58579915492848,"(41.74419830110757, -87.58579915492847)",2014-12-09
227935,12/09/2014,Completed,12/12/2014,14-02111062,Street Lights - All/Out,3400 W 12TH PL,60623.0,1153898.7006936,1894082.82003161,24.0,10.0,29.0,41.8651959278301,-87.71050935547285,"(41.8651959278301, -87.71050935547284)",2014-12-09
227936,12/09/2014,Completed,12/12/2014,14-02111104,Street Lights - All/Out,10800 S STATE ST,60628.0,1178166.9598315,1833361.42211009,34.0,5.0,49.0,41.69805256146497,-87.62326127303604,"(41.69805256146497, -87.62326127303605)",2014-12-09
227937,12/09/2014,Completed,12/12/2014,14-02112002,Street Lights - All/Out,560 W WASHINGTON BLVD,60661.0,1172580.56231413,1900777.83682342,42.0,1.0,28.0,41.88317511306649,-87.64172998778761,"(41.88317511306649, -87.64172998778761)",2014-12-09
227938,12/10/2014,Completed - Dup,12/12/2014,14-02117994,Street Lights - All/Out,4200 S DREXEL BLVD,60653.0,1182877.93948885,1877101.06672587,4.0,2.0,36.0,41.81797075140491,-87.60465572159427,"(41.817970751404914, -87.60465572159428)",2014-12-10
227939,12/10/2014,Completed,12/12/2014,14-02112236,Street Lights - All/Out,10700 S LONGWOOD DR,60643.0,1165072.16520062,1833681.87928772,19.0,22.0,75.0,41.699218202559365,-87.67119869413486,"(41.69921820255937, -87.67119869413486)",2014-12-10
227940,12/10/2014,Completed,12/12/2014,14-02118257,Street Lights - All/Out,822 E BOWEN AVE,60653.0,1182519.13490811,1877646.96328731,4.0,2.0,36.0,41.81947707380564,-87.60595496202055,"(41.81947707380565, -87.60595496202055)",2014-12-10
227941,12/10/2014,Completed,12/12/2014,14-02118262,Street Lights - All/Out,6555 N NEWGARD AVE,60626.0,1165411.89607367,1943647.73461346,40.0,24.0,1.0,42.000967785924104,-87.66682961207934,"(42.0009677859241, -87.66682961207935)",2014-12-10
227942,12/11/2014,Completed - Dup,12/12/2014,14-02118747,Street Lights - All/Out,4200 S DREXEL BLVD,60653.0,1182877.93948885,1877101.06672587,4.0,2.0,36.0,41.81797075140491,-87.60465572159427,"(41.817970751404914, -87.60465572159428)",2014-12-11
227950,12/01/2014,Completed - Dup,12/12/2014,14-02057151,Street Lights - All/Out,2838 E 83RD ST,60617.0,1196644.23987754,1850487.24391052,7.0,4.0,46.0,41.74460939643432,-87.55504127074623,"(41.74460939643432, -87.55504127074624)",2014-12-01
227951,12/03/2014,Completed - Dup,12/12/2014,14-02077947,Street Lights - All/Out,6331 S LOWE AVE,60621.0,1173128.4155078998,1862781.19989394,16.0,7.0,68.0,41.778896857499426,-87.64084298466496,"(41.77889685749943, -87.64084298466496)",2014-12-03
227952,12/10/2014,Completed,12/13/2014,14-02112177,Street Lights - All/Out,2201 N DAMEN AVE,60647.0,1162664.41218404,1914640.68092335,32.0,14.0,22.0,41.921429318034505,-87.67775352655747,"(41.921429318034505, -87.67775352655747)",2014-12-10
227953,12/12/2014,Completed,12/13/2014,14-02125130,Street Lights - All/Out,9100 S STONY ISLAND AVE,60617.0,1188381.74876858,1844947.85901246,8.0,4.0,48.0,41.72960985386509,-87.58549196793011,"(41.72960985386509, -87.58549196793011)",2014-12-12
227954,12/12/2014,Completed,12/13/2014,14-02125489,Street Lights - All/Out,706 W ROOSEVELT RD,60607.0,1171665.23047054,1894940.44168333,2.0,12.0,28.0,41.867177085905574,-87.64526294790664,"(41.86717708590558, -87.64526294790664)",2014-12-12
227955,12/12/2014,Completed,12/13/2014,14-02127720,Street Lights - All/Out,8400 S STONY ISLAND AVE,60617.0,1188265.42391867,1849599.50998736,8.0,4.0,45.0,41.74237722603603,-87.58577007916628,"(41.74237722603602, -87.58577007916628)",2014-12-12
227957,12/07/2014,Completed,12/13/2014,14-02095717,Street Lights - All/Out,1921 E 90TH ST,60617.0,1190641.14123128,1845678.99182919,8.0,4.0,48.0,41.7315619883545,-87.57719179357926,"(41.7315619883545, -87.57719179357925)",2014-12-07
227958,12/08/2014,Completed - Dup,12/13/2014,14-02097246,Street Lights - All/Out,8959 S EUCLID AVE,60617.0,1190740.44123128,1845950.49182919,8.0,4.0,48.0,41.73230461631693,-87.57681928333952,"(41.732304616316924, -87.57681928333952)",2014-12-08
227959,12/12/2014,Completed,12/14/2014,14-02130873,Street Lights - All/Out,4900 W CUYLER AVE,60641.0,1143132.61013267,1926581.32262495,45.0,16.0,15.0,41.954582889702046,-87.74921994185452,"(41.954582889702046, -87.74921994185452)",2014-12-12
227960,12/15/2014,Completed - Dup,12/15/2014,14-02140526,Street Lights - All/Out,3720 W 58TH ST,60629.0,1152563.35677826,1865891.58632283,14.0,8.0,62.0,41.78786194726417,-87.71615492707632,"(41.787861947264176, -87.71615492707632)",2014-12-15
227961,12/15/2014,Completed - Dup,12/15/2014,14-02142320,Street Lights - All/Out,3500 W 58TH PL,60629.0,1154045.82410975,1865603.05012037,14.0,8.0,63.0,41.78704083040846,-87.71072692346583,"(41.78704083040846, -87.71072692346583)",2014-12-15
227962,12/15/2014,Completed - Dup,12/15/2014,14-02142423,Street Lights - All/Out,1827 N NEVA AVE,60707.0,1128305.42807641,1911350.39491808,36.0,25.0,25.0,41.91305173414929,-87.80407363859449,"(41.91305173414929, -87.80407363859449)",2014-12-15
227963,12/15/2014,Completed - Dup,12/15/2014,14-02142639,Street Lights - All/Out,1811 N NEVA AVE,60707.0,1128308.52807641,1911242.69491808,36.0,25.0,25.0,41.91275613855524,-87.8040646912908,"(41.91275613855524, -87.80406469129079)",2014-12-15
227964,12/15/2014,Completed,12/15/2014,14-02135850,Street Lights - All/Out,2110 W 32ND ST,60608.0,1162749.53007769,1883438.06608323,12.0,9.0,59.0,41.835804854521015,-87.67831575703241,"(41.835804854521015, -87.6783157570324)",2014-12-15
227965,12/15/2014,Completed,12/15/2014,14-02135876,Street Lights - All/Out,1400 S HALSTED ST,60607.0,1171254.06799449,1893618.88989953,25.0,12.0,28.0,41.863559681513635,-87.646811170248,"(41.86355968151364, -87.646811170248)",2014-12-15
227966,12/15/2014,Completed,12/15/2014,14-02135877,Street Lights - All/Out,1536 N SEDGWICK ST,60610.0,1173361.05656984,1910699.35433092,43.0,18.0,8.0,41.910383014387094,-87.63856896802513,"(41.91038301438709, -87.63856896802514)",2014-12-15
227967,12/15/2014,Completed,12/15/2014,14-02135878,Street Lights - All/Out,1000 S DESPLAINES ST,60607.0,1172072.55838146,1895861.65450136,2.0,1.0,28.0,41.869695991680224,-87.64374043392885,"(41.86969599168023, -87.64374043392884)",2014-12-15
227968,12/15/2014,Completed,12/15/2014,14-02135881,Street Lights - All/Out,2200 N BISSELL ST,60614.0,1169597.24920141,1914814.83630194,43.0,18.0,7.0,41.921758946815295,-87.65227559377779,"(41.921758946815295, -87.6522755937778)",2014-12-15
227969,12/15/2014,Completed,12/15/2014,14-02135882,Street Lights - All/Out,1 N BISHOP ST,60607.0,1166604.39889955,1900121.51598164,27.0,12.0,28.0,41.881504181059825,-87.66369349308907,"(41.88150418105983, -87.66369349308907)",2014-12-15
227970,12/15/2014,Completed,12/15/2014,14-02136059,Street Lights - All/Out,7557 S WABASH AVE,60619.0,1178025.68760896,1854919.96662687,6.0,6.0,69.0,41.75721515890643,-87.6231272598568,"(41.75721515890643, -87.62312725985679)",2014-12-15
227971,12/10/2014,Completed,12/15/2014,14-02113174,Street Lights - All/Out,9900 S PRAIRIE AVE,60628.0,1179664.22557646,1839383.53109566,6.0,5.0,49.0,41.714544034880696,-87.61759583045702,"(41.714544034880696, -87.61759583045702)",2014-12-10
227972,12/10/2014,Completed,12/15/2014,14-02116117,Street Lights - All/Out,1014 W BARRY AVE,60657.0,1168919.32119369,1920757.72790657,44.0,19.0,6.0,41.938081280176455,-87.65459361131458,"(41.93808128017645, -87.65459361131458)",2014-12-10
227973,12/11/2014,Completed - Dup,12/15/2014,14-02124206,Street Lights - All/Out,6300 S CORNELL DR,60637.0,1188469.96908638,1863540.0963145,5.0,3.0,42.0,41.780626543350614,-87.58457603763674,"(41.78062654335061, -87.58457603763674)",2014-12-11
227974,12/11/2014,Completed,12/15/2014,14-02118715,Street Lights - All/Out,5100 W ROOSEVELT RD,60644.0,1142573.30996642,1894218.90002957,24.0,15.0,25.0,41.8657872940496,-87.75208225451489,"(41.8657872940496, -87.75208225451489)",2014-12-11
227975,12/11/2014,Completed,12/15/2014,14-02118744,Street Lights - All/Out,1900 E MARQUETTE DR,60637.0,1190026.67669518,1862134.77960471,5.0,3.0,42.0,41.77673290900025,-87.57891416019008,"(41.77673290900025, -87.5789141601901)",2014-12-11
