,Creation Date,Status,Completion Date,Service Request Number,Type of Service Request,Street Address,ZIP Code,X Coordinate,Y Coordinate,Ward,Police District,Community Area,Latitude,Longitude,Location,date
89528,08/01/2011,Completed - Dup,08/01/2011,11-03499657,Street Lights - All/Out,3500 S PRAIRIE AVE,60653.0,1178505.54270328,1881838.25452417,3.0,2.0,35.0,41.83107060051979,-87.6205507230646,"(41.831070600519794, -87.6205507230646)",2011-08-01
89529,08/01/2011,Completed - Dup,08/01/2011,11-03499691,Street Lights - All/Out,1632 N HUMBOLDT BLVD,60647.0,1156125.33599635,1910721.54049871,35.0,14.0,23.0,41.910809540942395,-87.70188580353403,"(41.910809540942395, -87.70188580353403)",2011-08-01
89530,08/01/2011,Completed - Dup,08/01/2011,11-03499696,Street Lights - All/Out,4700 S CICERO AVE,60638.0,1145151.44668427,1873040.71477112,23.0,8.0,56.0,41.8076230842688,-87.7431518334572,"(41.8076230842688, -87.7431518334572)",2011-08-01
89531,08/01/2011,Completed - Dup,08/01/2011,11-03499765,Street Lights - All/Out,5800 N CENTRAL AVE,60646.0,1137874.0185099,1938028.84097024,45.0,16.0,11.0,41.986092622496855,-87.76827405635247,"(41.98609262249685, -87.76827405635247)",2011-08-01
89532,08/01/2011,Completed - Dup,08/01/2011,11-03499774,Street Lights - All/Out,7211 S ABERDEEN ST,60621.0,1170230.2999906999,1856990.90752165,17.0,7.0,68.0,41.76307113233831,-87.65163595259794,"(41.76307113233831, -87.65163595259794)",2011-08-01
89533,08/01/2011,Completed - Dup,08/01/2011,11-03499776,Street Lights - All/Out,7211 S ABERDEEN ST,60621.0,1170230.2999906999,1856990.90752165,17.0,7.0,68.0,41.76307113233831,-87.65163595259794,"(41.76307113233831, -87.65163595259794)",2011-08-01
89534,08/01/2011,Completed - Dup,08/01/2011,11-03499785,Street Lights - All/Out,900 N CALIFORNIA AVE,60622.0,1157559.86069083,1905867.00997791,26.0,13.0,24.0,41.897459197919346,-87.69674820253846,"(41.897459197919346, -87.69674820253846)",2011-08-01
89535,08/01/2011,Completed - Dup,08/01/2011,11-03499806,Street Lights - All/Out,7100 S ABERDEEN ST,60621.0,1170209.91091745,1857727.09529823,17.0,7.0,68.0,41.76509176836328,-87.65168929980534,"(41.76509176836327, -87.65168929980534)",2011-08-01
89536,08/01/2011,Completed - Dup,08/01/2011,11-03501200,Street Lights - All/Out,8400 S JEFFERY BLVD,60617.0,1190981.77158599,1849691.86890039,8.0,4.0,45.0,41.74256548224861,-87.57581455954559,"(41.74256548224861, -87.5758145595456)",2011-08-01
89537,08/01/2011,Completed - Dup,08/01/2011,11-03501474,Street Lights - All/Out,8400 S JEFFERY BLVD,60617.0,1190981.77158599,1849691.86890039,8.0,4.0,45.0,41.74256548224861,-87.57581455954559,"(41.74256548224861, -87.5758145595456)",2011-08-01
89538,08/01/2011,Completed - Dup,08/01/2011,11-03502117,Street Lights - All/Out,8400 S JEFFERY BLVD,60617.0,1190981.77158599,1849691.86890039,8.0,4.0,45.0,41.74256548224861,-87.57581455954559,"(41.74256548224861, -87.5758145595456)",2011-08-01
89539,08/01/2011,Completed - Dup,08/01/2011,11-03502294,Street Lights - All/Out,7100 S MAY ST,60621.0,1169880.37739088,1857717.09379643,17.0,7.0,68.0,41.76507148275082,-87.65289742690737,"(41.76507148275082, -87.65289742690737)",2011-08-01
89540,08/01/2011,Completed - Dup,08/01/2011,11-03502919,Street Lights - All/Out,7800 S KARLOV AVE,60652.0,1150623.80731083,1852403.44999828,13.0,8.0,70.0,41.75088628703194,-87.72361715022609,"(41.75088628703194, -87.7236171502261)",2011-08-01
89541,08/01/2011,Completed - Dup,08/01/2011,11-03504405,Street Lights - All/Out,6014 W WRIGHTWOOD AVE,60639.0,1135955.62221594,1916658.2343865002,29.0,25.0,19.0,41.92748408147229,-87.77584130783791,"(41.927484081472294, -87.77584130783791)",2011-08-01
89542,08/01/2011,Completed - Dup,08/02/2011,11-03499759,Street Lights - All/Out,3100 S WENTWORTH AVE,60616.0,1175451.80363432,1884424.40287296,11.0,9.0,34.0,41.83823618538235,-87.63167749514895,"(41.83823618538235, -87.63167749514895)",2011-08-01
89543,08/01/2011,Completed - Dup,08/02/2011,11-03499769,Street Lights - All/Out,8000 S ARTESIAN AVE,60652.0,1161434.93511237,1851528.2197724998,18.0,8.0,70.0,41.74826745611926,-87.68402379486605,"(41.74826745611926, -87.68402379486605)",2011-08-01
89544,08/01/2011,Completed - Dup,08/02/2011,11-03499812,Street Lights - All/Out,5600 S INDIANA AVE,60637.0,1178552.63511965,1867937.34106654,20.0,2.0,40.0,41.79292423009942,-87.62080082448641,"(41.79292423009942, -87.6208008244864)",2011-08-01
89545,08/01/2011,Completed - Dup,08/02/2011,11-03499899,Street Lights - All/Out,7122 N OSCEOLA AVE,60631.0,1125864.95358916,1946721.8466315,41.0,16.0,9.0,42.01015597644403,-87.81224934136921,"(42.01015597644403, -87.81224934136922)",2011-08-01
89546,08/01/2011,Completed - Dup,08/02/2011,11-03501290,Street Lights - All/Out,8200 S CALUMET AVE,60619.0,1179898.85722514,1850707.47581511,6.0,6.0,44.0,41.74561297162672,-87.6163910756016,"(41.74561297162672, -87.6163910756016)",2011-08-01
89547,08/01/2011,Completed - Dup,08/02/2011,11-03501424,Street Lights - All/Out,6600 S GREENWOOD AVE,60637.0,1184355.32478025,1861463.1676716,5.0,3.0,42.0,41.775024592355045,-87.59972582728943,"(41.775024592355045, -87.59972582728943)",2011-08-01
89548,08/01/2011,Completed - Dup,08/02/2011,11-03501771,Street Lights - All/Out,2538 S ALBANY AVE,60623.0,1156100.62437046,1886982.88939562,12.0,10.0,30.0,41.84566880893619,-87.70261745085165,"(41.84566880893619, -87.70261745085165)",2011-08-01
89549,08/01/2011,Completed - Dup,08/02/2011,11-03501866,Street Lights - All/Out,2525 S TROY ST,60623.0,1155764.72091113,1887061.20952161,12.0,10.0,30.0,41.84589049131507,-87.70384808499954,"(41.84589049131506, -87.70384808499955)",2011-08-01
89550,08/01/2011,Completed - Dup,08/02/2011,11-03501868,Street Lights - All/Out,2333 W 19TH ST,60608.0,1161115.95782686,1890685.96831376,25.0,12.0,31.0,41.85572789199928,-87.68410885283843,"(41.85572789199928, -87.68410885283843)",2011-08-01
89551,08/01/2011,Completed - Dup,08/02/2011,11-03502397,Street Lights - All/Out,8700 S DR MARTIN LUTHER KING JR DR,60619.0,1180435.02037218,1847392.13926803,6.0,6.0,44.0,41.73650302791872,-87.61452795931898,"(41.73650302791872, -87.61452795931898)",2011-08-01
89552,08/01/2011,Completed - Dup,08/02/2011,11-03502897,Street Lights - All/Out,770 S KARLOV AVE,60624.0,1149176.15569986,1896109.87990935,24.0,11.0,26.0,41.87085112901126,-87.72779359225979,"(41.87085112901126, -87.72779359225979)",2011-08-01
89553,08/01/2011,Completed - Dup,08/02/2011,11-03502932,Street Lights - All/Out,4800 W KINZIE ST,60644.0,1144297.04596872,1902295.49991111,28.0,15.0,25.0,41.88791827464629,-87.7455511845016,"(41.88791827464629, -87.7455511845016)",2011-08-01
89554,08/01/2011,Completed - Dup,08/02/2011,11-03503086,Street Lights - All/Out,2000 W POTOMAC AVE,60622.0,1162831.12952557,1908656.07858706,1.0,14.0,24.0,41.90500365330953,-87.6773091556711,"(41.90500365330953, -87.67730915567111)",2011-08-01
89555,08/01/2011,Completed - Dup,08/02/2011,11-03503090,Street Lights - All/Out,1300 N HOYNE AVE,60622.0,1162165.79513009,1908635.19816931,32.0,14.0,24.0,41.90496029233097,-87.67975371598983,"(41.90496029233097, -87.67975371598983)",2011-08-01
89556,08/01/2011,Completed - Dup,08/02/2011,11-03503629,Street Lights - All/Out,2131 W 18TH PL,60608.0,1162454.18627341,1891055.0617799999,25.0,12.0,31.0,41.856712849561646,-87.67918658451677,"(41.85671284956165, -87.67918658451677)",2011-08-01
89557,08/01/2011,Completed - Dup,08/02/2011,11-03503678,Street Lights - All/Out,7100 S WABASH AVE,60619.0,1177954.85052302,1857954.0397738998,6.0,3.0,69.0,41.76554259872373,-87.62329508391632,"(41.76554259872373, -87.62329508391633)",2011-08-01
89558,08/01/2011,Completed - Dup,08/02/2011,11-03503701,Street Lights - All/Out,6201 S INDIANA AVE,60637.0,1178635.58942793,1863919.38622216,20.0,3.0,40.0,41.78189668321848,-87.62061877495775,"(41.781896683218484, -87.62061877495775)",2011-08-01
89559,08/01/2011,Completed - Dup,08/02/2011,11-03503947,Street Lights - All/Out,900 W ROOSEVELT RD,60608.0,1170630.90520789,1894910.83653095,25.0,12.0,28.0,41.867118533983096,-87.64906094142961,"(41.86711853398309, -87.64906094142961)",2011-08-01
89560,08/01/2011,Completed - Dup,08/02/2011,11-03504238,Street Lights - All/Out,6100 S INDIANA AVE,60637.0,1178645.07008397,1864613.20647414,20.0,3.0,40.0,41.783800379507134,-87.62056293086296,"(41.78380037950713, -87.62056293086296)",2011-08-01
89561,08/01/2011,Completed - Dup,08/02/2011,11-03504690,Street Lights - All/Out,1500 W 18TH ST,60608.0,1166652.67658623,1891496.28522656,25.0,12.0,31.0,41.857834798188364,-87.66376326246531,"(41.85783479818837, -87.66376326246532)",2011-08-01
89562,08/01/2011,Completed - Dup,08/02/2011,11-03504850,Street Lights - All/Out,2417 W WINNEMAC AVE,60625.0,1159339.17872232,1933413.17111914,47.0,20.0,4.0,41.973011266907584,-87.68945311843328,"(41.973011266907584, -87.68945311843328)",2011-08-01
89563,08/01/2011,Completed - Dup,08/02/2011,11-03505383,Street Lights - All/Out,1052 E 80TH ST,60619.0,1184710.39217813,1852177.38021955,8.0,6.0,44.0,41.749535179362944,-87.59871492125687,"(41.749535179362944, -87.59871492125686)",2011-08-01
89564,08/01/2011,Completed - Dup,08/02/2011,11-03505535,Street Lights - All/Out,1500 N KEDVALE AVE,60651.0,1148440.85332513,1909688.69171273,30.0,25.0,23.0,41.90812707135046,-87.73014272592766,"(41.90812707135046, -87.73014272592765)",2011-08-01
89565,08/01/2011,Completed - Dup,08/02/2011,11-03505642,Street Lights - All/Out,6100 S INDIANA AVE,60637.0,1178645.07008397,1864613.20647414,20.0,3.0,40.0,41.783800379507134,-87.62056293086296,"(41.78380037950713, -87.62056293086296)",2011-08-01
89566,08/01/2011,Completed - Dup,08/02/2011,11-03506203,Street Lights - All/Out,8400 S DREXEL AVE,60619.0,1183686.23927911,1849479.26091868,8.0,6.0,44.0,41.74215518644468,-87.60255176195137,"(41.74215518644468, -87.60255176195137)",2011-08-01
89567,08/01/2011,Completed - Dup,08/02/2011,11-03506340,Street Lights - All/Out,8427 S DREXEL AVE,60619.0,1183691.73927911,1849297.16091868,8.0,6.0,44.0,41.74165535613547,-87.60253727633928,"(41.74165535613547, -87.60253727633928)",2011-08-01
89568,08/01/2011,Completed - Dup,08/02/2011,11-03506987,Street Lights - All/Out,2108 W 18TH PL,60608.0,1162609.78627341,1891058.66178,25.0,12.0,31.0,41.85671947390561,-87.67861534776421,"(41.85671947390561, -87.67861534776421)",2011-08-01
89569,08/01/2011,Completed - Dup,08/02/2011,11-03507006,Street Lights - All/Out,8226 S PRAIRIE AVE,60619.0,1179463.75268309,1850518.61840346,6.0,6.0,44.0,41.74510466200263,-87.61799112026094,"(41.74510466200263, -87.61799112026094)",2011-08-01
89570,08/01/2011,Completed - Dup,08/02/2011,11-03507710,Street Lights - All/Out,6202 S INDIANA AVE,60637.0,1178636.48942793,1863909.28622216,20.0,3.0,40.0,41.78186894733639,-87.62061578227508,"(41.78186894733639, -87.6206157822751)",2011-08-01
89571,08/01/2011,Completed - Dup,08/02/2011,11-03507823,Street Lights - All/Out,6200 S INDIANA AVE,60637.0,1178634.68942793,1863929.58622216,20.0,3.0,40.0,41.78192469351041,-87.62062176460401,"(41.78192469351041, -87.62062176460402)",2011-08-01
89572,08/01/2011,Completed - Dup,08/02/2011,11-03507850,Street Lights - All/Out,4515 N KEOKUK AVE,60630.0,1147014.0378796002,1929778.53770766,45.0,17.0,16.0,41.96328281575222,-87.73486898277838,"(41.96328281575222, -87.73486898277837)",2011-08-01
89573,08/01/2011,Completed - Dup,08/02/2011,11-03508401,Street Lights - All/Out,2129 W 18TH PL,60608.0,1162467.68627341,1891055.46178,25.0,12.0,31.0,41.85671366495791,-87.67913702103917,"(41.85671366495791, -87.67913702103915)",2011-08-01
89574,08/01/2011,Completed - Dup,08/02/2011,11-03508467,Street Lights - All/Out,2125 W 18TH PL,60608.0,1162494.78627341,1891056.0617799999,25.0,12.0,31.0,41.85671474477558,-87.67903753262107,"(41.85671474477558, -87.67903753262107)",2011-08-01
89575,08/01/2011,Completed - Dup,08/02/2011,11-03508471,Street Lights - All/Out,2100 W 18TH PL,60608.0,1162663.88627341,1891059.96178,25.0,12.0,31.0,41.856721909053505,-87.67841673515603,"(41.856721909053505, -87.67841673515605)",2011-08-01
89576,08/01/2011,Completed - Dup,08/02/2011,11-03508632,Street Lights - All/Out,5500 S INDIANA AVE,60637.0,1178538.23490519,1868474.7536866001,20.0,2.0,40.0,41.79439926870397,-87.62083729551777,"(41.79439926870397, -87.62083729551777)",2011-08-01
89577,08/01/2011,Completed - Dup,08/02/2011,11-03508646,Street Lights - All/Out,8400 S DREXEL AVE,60619.0,1183686.23927911,1849479.26091868,8.0,6.0,44.0,41.74215518644468,-87.60255176195137,"(41.74215518644468, -87.60255176195137)",2011-08-01
89578,08/01/2011,Completed - Dup,08/02/2011,11-03508745,Street Lights - All/Out,1800 S ALLPORT ST,60608.0,1168317.83270814,1891545.42758329,25.0,12.0,31.0,41.857933852966646,-87.65764973836114,"(41.85793385296665, -87.65764973836114)",2011-08-01
89579,08/01/2011,Completed - Dup,08/02/2011,11-03508751,Street Lights - All/Out,2100 W POTOMAC AVE,60622.0,1162165.79513009,1908635.19816931,32.0,14.0,24.0,41.90496029233097,-87.67975371598983,"(41.90496029233097, -87.67975371598983)",2011-08-01
89580,08/01/2011,Completed - Dup,08/02/2011,11-03508764,Street Lights - All/Out,6216 S INDIANA AVE,60637.0,1178648.88942793,1863766.78622216,20.0,3.0,40.0,41.78147763100576,-87.62057465164013,"(41.781477631005764, -87.62057465164013)",2011-08-01
89581,08/01/2011,Completed - Dup,08/02/2011,11-03508781,Street Lights - All/Out,800 W ROOSEVELT RD,60608.0,1171214.40008486,1894928.45638761,25.0,12.0,28.0,41.86715410129381,-87.64691834947314,"(41.867154101293806, -87.64691834947314)",2011-08-01
89582,08/01/2011,Completed - Dup,08/02/2011,11-03508803,Street Lights - All/Out,4525 N KEOKUK AVE,60630.0,1146928.79988678,1929856.14997759,45.0,17.0,16.0,41.96349742295785,-87.73518038438715,"(41.96349742295785, -87.73518038438714)",2011-08-01
89583,08/01/2011,Completed - Dup,08/02/2011,11-03508823,Street Lights - All/Out,8000 S ARTESIAN AVE,60652.0,1161434.93511237,1851528.2197724998,18.0,8.0,70.0,41.74826745611926,-87.68402379486605,"(41.74826745611926, -87.68402379486605)",2011-08-01
89584,08/01/2011,Completed - Dup,08/02/2011,11-03508868,Street Lights - All/Out,6200 S INDIANA AVE,60637.0,1178634.68942793,1863929.58622216,20.0,3.0,40.0,41.78192469351041,-87.62062176460401,"(41.78192469351041, -87.62062176460402)",2011-08-01
89585,08/01/2011,Completed - Dup,08/03/2011,11-03499646,Street Lights - All/Out,4815 N NAGLE AVE,60630.0,1132548.45227104,1931722.75640309,45.0,16.0,11.0,41.96888287387896,-87.78800931379283,"(41.96888287387896, -87.78800931379281)",2011-08-01
89586,08/01/2011,Completed - Dup,08/03/2011,11-03499674,Street Lights - All/Out,10000 S LAFAYETTE AVE,60628.0,1177690.0106011,1838662.74559999,9.0,5.0,49.0,41.712610909309646,-87.62484791147756,"(41.71261090930965, -87.62484791147756)",2011-08-01
89587,08/01/2011,Completed - Dup,08/03/2011,11-03499757,Street Lights - All/Out,8349 W BALMORAL AVE,60656.0,1119663.29770875,1934986.38709649,41.0,16.0,10.0,41.97805393514333,-87.83531911301684,"(41.97805393514333, -87.83531911301685)",2011-08-01
89588,08/01/2011,Completed - Dup,08/03/2011,11-03499772,Street Lights - All/Out,9600 S CLAREMONT AVE,60643.0,1162400.46191115,1840920.66989584,19.0,22.0,72.0,41.71913861905661,-87.68078046116699,"(41.71913861905661, -87.68078046116698)",2011-08-01
89589,08/01/2011,Completed - Dup,08/03/2011,11-03499780,Street Lights - All/Out,5445 N ARTESIAN AVE,60625.0,1159016.87777958,1936088.65428513,40.0,20.0,4.0,41.98035955817135,-87.69056446702784,"(41.98035955817135, -87.69056446702784)",2011-08-01
89590,08/01/2011,Completed - Dup,08/03/2011,11-03499834,Street Lights - All/Out,9700 S CLAREMONT AVE,60643.0,1162419.83576947,1840254.99609394,19.0,22.0,72.0,41.71731149728628,-87.68072798198475,"(41.71731149728628, -87.68072798198475)",2011-08-01
89591,08/01/2011,Completed - Dup,08/03/2011,11-03500006,Street Lights - All/Out,2300 N LAMON AVE,60639.0,1143352.06768995,1914852.18836726,31.0,25.0,19.0,41.92239292818214,-87.748707227007,"(41.92239292818214, -87.748707227007)",2011-08-01
89592,08/01/2011,Completed - Dup,08/03/2011,11-03500013,Street Lights - All/Out,4800 W MEDILL AVE,60639.0,1144011.57417347,1915196.60011542,31.0,25.0,19.0,41.923325665175405,-87.7462753064871,"(41.923325665175405, -87.74627530648709)",2011-08-01
89593,08/01/2011,Completed - Dup,08/03/2011,11-03501297,Street Lights - All/Out,3100 W 85TH ST,60652.0,1157309.88610862,1848084.90709813,18.0,8.0,70.0,41.738902872874895,-87.69923246761593,"(41.738902872874895, -87.69923246761593)",2011-08-01
89594,08/01/2011,Completed - Dup,08/03/2011,11-03501463,Street Lights - All/Out,9806 S CLAREMONT AVE,60643.0,1162440.61748394,1839510.34061078,19.0,22.0,72.0,41.71526760677375,-87.68067254160334,"(41.71526760677375, -87.68067254160334)",2011-08-01
89595,08/01/2011,Completed - Dup,08/03/2011,11-03501560,Street Lights - All/Out,10036 S LAFAYETTE AVE,60628.0,1177695.7106011002,1838421.64559999,9.0,5.0,49.0,41.71194916940723,-87.62483430192522,"(41.711949169407234, -87.62483430192522)",2011-08-01
89596,08/01/2011,Completed - Dup,08/03/2011,11-03502448,Street Lights - All/Out,2200 W 79TH PL,60620.0,1163021.00581939,1851866.54617785,18.0,8.0,71.0,41.74916288285761,-87.67820242652388,"(41.74916288285761, -87.67820242652388)",2011-08-01
89597,08/01/2011,Completed - Dup,08/03/2011,11-03502677,Street Lights - All/Out,1400 N STATE PKWY,60610.0,1176032.00701992,1909779.61791322,42.0,18.0,8.0,41.90779943041815,-87.62878477904871,"(41.90779943041815, -87.62878477904871)",2011-08-01
89598,08/01/2011,Completed - Dup,08/03/2011,11-03502752,Street Lights - All/Out,1158 N LOREL AVE,60651.0,1140462.75007061,1907201.33511769,37.0,15.0,25.0,41.901451687977634,-87.7595116804175,"(41.90145168797763, -87.7595116804175)",2011-08-01
89599,08/01/2011,Completed - Dup,08/03/2011,11-03502889,Street Lights - All/Out,6600 N WASHTENAW AVE,,1157129.48419302,1943683.19597397,50.0,24.0,2.0,42.001237964216955,-87.69729819445902,"(42.00123796421695, -87.69729819445901)",2011-08-01
89600,08/01/2011,Completed - Dup,08/03/2011,11-03503191,Street Lights - All/Out,9653 S CLAREMONT AVE,60643.0,1162410.83576947,1840564.29609394,19.0,22.0,72.0,41.718160454814274,-87.6807523587402,"(41.718160454814274, -87.6807523587402)",2011-08-01
89601,08/01/2011,Completed - Dup,08/03/2011,11-03503563,Street Lights - All/Out,2300 N MCVICKER AVE,60639.0,1135688.78188344,1914653.47428031,29.0,25.0,19.0,41.92198754638875,-87.77686966156176,"(41.92198754638875, -87.77686966156176)",2011-08-01
89602,08/01/2011,Completed - Dup,08/03/2011,11-03504109,Street Lights - All/Out,9953 S PAXTON AVE,60617.0,1192814.40188817,1839409.45637466,7.0,4.0,51.0,41.714305109862906,-87.56943424672005,"(41.71430510986291, -87.56943424672005)",2011-08-01
89603,08/01/2011,Completed - Dup,08/03/2011,11-03504723,Street Lights - All/Out,107 S MENARD AVE,60644.0,1137739.57270691,1898982.42442958,29.0,15.0,25.0,41.87894749395947,-87.7697126474398,"(41.87894749395948, -87.76971264743979)",2011-08-01
89604,08/01/2011,Completed - Dup,08/03/2011,11-03504764,Street Lights - All/Out,1540 N STATE PKWY,60610.0,1176006.18142167,1910648.78312156,42.0,18.0,8.0,41.91018504014689,-87.6288534243159,"(41.910185040146885, -87.6288534243159)",2011-08-01
89605,08/01/2011,Completed - Dup,08/03/2011,11-03504931,Street Lights - All/Out,3700 W 66TH ST,60629.0,1152842.99188094,1860589.7927803001,13.0,8.0,65.0,41.773307498948654,-87.71526933223318,"(41.77330749894866, -87.71526933223319)",2011-08-01
89606,08/01/2011,Completed - Dup,08/03/2011,11-03504934,Street Lights - All/Out,3800 W 66TH ST,60629.0,1152174.76967211,1860571.00907721,13.0,8.0,65.0,41.77326910547454,-87.7177193994619,"(41.77326910547454, -87.7177193994619)",2011-08-01
89607,08/01/2011,Completed - Dup,08/03/2011,11-03505154,Street Lights - All/Out,3600 W GRACE ST,60618.0,1151714.46968006,1925025.3266881001,35.0,17.0,16.0,41.950148281689984,-87.71771253872629,"(41.950148281689984, -87.71771253872629)",2011-08-01
89608,08/01/2011,Completed - Dup,08/03/2011,11-03505232,Street Lights - All/Out,3600 W WAVELAND AVE,60618.0,1151732.29316679,1924361.37568204,35.0,17.0,16.0,41.94832599972556,-87.71766455278109,"(41.94832599972556, -87.7176645527811)",2011-08-01
89609,08/01/2011,Completed - Dup,08/03/2011,11-03506689,Street Lights - All/Out,2456 E 93RD ST,60617.0,1194245.83171289,1843778.80771481,7.0,4.0,48.0,41.726260053815096,-87.56404887772415,"(41.72626005381509, -87.56404887772416)",2011-08-01
89610,08/01/2011,Completed - Dup,08/03/2011,11-03507438,Street Lights - All/Out,7800 W RASCHER AVE,60656.0,1123332.15900896,1935241.59132323,41.0,16.0,10.0,41.97869491903779,-87.82182092188238,"(41.9786949190378, -87.82182092188239)",2011-08-01
89611,08/01/2011,Completed - Dup,08/03/2011,11-03507641,Street Lights - All/Out,9910 S PAXTON AVE,60617.0,1192808.47008459,1839697.11609024,7.0,4.0,51.0,41.715094621510474,-87.5694466241132,"(41.715094621510474, -87.56944662411321)",2011-08-01
89612,08/01/2011,Completed - Dup,08/03/2011,11-03507678,Street Lights - All/Out,9900 S PAXTON AVE,60617.0,1192807.07008459,1839764.01609024,7.0,4.0,51.0,41.715278235917594,-87.56944957764038,"(41.71527823591759, -87.56944957764038)",2011-08-01
89613,08/01/2011,Completed - Dup,08/03/2011,11-03508056,Street Lights - All/Out,3220 W WALNUT ST,60624.0,1154780.73102766,1901446.75019015,28.0,11.0,27.0,41.885385712129626,-87.70707413612034,"(41.885385712129626, -87.70707413612035)",2011-08-01
89614,08/01/2011,Completed - Dup,08/03/2011,11-03508449,Street Lights - All/Out,3731 W 65TH PL,60629.0,1152625.30460901,1860915.6740218997,13.0,8.0,65.0,41.77420605858012,-87.71605875746916,"(41.77420605858012, -87.71605875746916)",2011-08-01
89615,08/01/2011,Completed - Dup,08/03/2011,11-03508495,Street Lights - All/Out,5233 S HAMLIN AVE,60632.0,1151925.03470515,1869644.88741884,23.0,8.0,62.0,41.79817411565381,-87.7183969836054,"(41.79817411565381, -87.7183969836054)",2011-08-01
89616,08/01/2011,Completed - Dup,08/03/2011,11-03508555,Street Lights - All/Out,8400 S JEFFERY BLVD,60617.0,1190981.77158599,1849691.86890039,8.0,4.0,45.0,41.74256548224861,-87.57581455954559,"(41.74256548224861, -87.5758145595456)",2011-08-01
89617,08/01/2011,Completed - Dup,08/03/2011,11-03508564,Street Lights - All/Out,10050 S PERRY AVE,60628.0,1177365.47310667,1838654.74836644,9.0,5.0,49.0,41.71259628557681,-87.62603670242457,"(41.712596285576815, -87.62603670242457)",2011-08-01
89618,08/01/2011,Completed - Dup,08/03/2011,11-03508614,Street Lights - All/Out,6057 W BELDEN AVE,60639.0,1135562.08188344,1914650.17428031,29.0,25.0,19.0,41.92198074597143,-87.77733527971468,"(41.921980745971425, -87.77733527971469)",2011-08-01
89619,08/01/2011,Completed - Dup,08/03/2011,11-03508635,Street Lights - All/Out,409 S CENTRAL AVE,60644.0,1139127.01899696,1897424.19002589,29.0,15.0,25.0,41.87464637728253,-87.76465603234085,"(41.874646377282524, -87.76465603234085)",2011-08-01
89620,08/01/2011,Completed - Dup,08/03/2011,11-03508636,Street Lights - All/Out,100 S MENARD AVE,60644.0,1137738.37270691,1899017.42442958,29.0,15.0,25.0,41.87904356025041,-87.7697162097292,"(41.87904356025041, -87.7697162097292)",2011-08-01
89621,08/01/2011,Completed - Dup,08/03/2011,11-03508638,Street Lights - All/Out,2225 N LATROBE AVE,60639.0,1141022.22152151,1914293.15472778,37.0,25.0,19.0,41.920902147814644,-87.75728170544056,"(41.920902147814644, -87.75728170544056)",2011-08-01
89622,08/01/2011,Completed - Dup,08/03/2011,11-03508644,Street Lights - All/Out,5000 W EDDY ST,60641.0,1142405.47917676,1923159.10109377,38.0,16.0,15.0,41.94520557168653,-87.75197835630415,"(41.94520557168653, -87.75197835630415)",2011-08-01
89623,08/01/2011,Completed - Dup,08/03/2011,11-03508689,Street Lights - All/Out,4932 N NAGLE AVE,60630.0,1132554.36397938,1932423.90349424,41.0,16.0,10.0,41.97080678711488,-87.78797116496193,"(41.970806787114874, -87.78797116496193)",2011-08-01
89624,08/01/2011,Completed - Dup,08/03/2011,11-03508705,Street Lights - All/Out,5100 W EDDY ST,60641.0,1141701.57382877,1923142.63998591,38.0,16.0,15.0,41.9451734724504,-87.75456608378698,"(41.9451734724504, -87.75456608378698)",2011-08-01
89625,08/01/2011,Completed - Dup,08/03/2011,11-03508709,Street Lights - All/Out,5100 W EDDY ST,60641.0,1141701.57382877,1923142.63998591,38.0,16.0,15.0,41.9451734724504,-87.75456608378698,"(41.9451734724504, -87.75456608378698)",2011-08-01
89626,08/01/2011,Completed - Dup,08/03/2011,11-03508848,Street Lights - All/Out,1500 N STATE PKWY,60610.0,1176014.28142167,1910392.48312156,42.0,18.0,8.0,41.909481559186155,-87.62883140181472,"(41.909481559186155, -87.62883140181474)",2011-08-01
89627,08/01/2011,Completed - Dup,08/03/2011,11-03508865,Street Lights - All/Out,5021 N MELVINA AVE,60630.0,1133876.76107294,1933021.56000694,45.0,16.0,11.0,41.97242361100626,-87.78309439238178,"(41.97242361100626, -87.78309439238178)",2011-08-01
89628,08/01/2011,Completed - Dup,08/03/2011,11-03508912,Street Lights - All/Out,5400 W HARRISON ST,60644.0,1140532.88166956,1896793.69551961,29.0,15.0,25.0,41.87289054190469,-87.75950971163448,"(41.87289054190469, -87.75950971163448)",2011-08-01
89629,08/01/2011,Completed - Dup,08/03/2011,11-03508921,Street Lights - All/Out,4000 N CENTRAL PARK AVE,60618.0,1151677.53748121,1926350.89191427,33.0,17.0,16.0,41.95378645690357,-87.71781330331349,"(41.953786456903565, -87.71781330331348)",2011-08-01
89630,08/01/2011,Completed - Dup,08/04/2011,11-03499721,Street Lights - All/Out,2400 W PRATT BLVD,60645.0,1159083.56383279,1945080.94048321,50.0,24.0,2.0,42.00503336513574,-87.69007080759644,"(42.00503336513574, -87.69007080759643)",2011-08-01
89631,08/01/2011,Completed - Dup,08/04/2011,11-03499782,Street Lights - All/Out,3032 W ALBION AVE,60645.0,1154808.0198748,1943615.24022383,50.0,24.0,2.0,42.00109849362959,-87.70584035005703,"(42.00109849362959, -87.70584035005703)",2011-08-01
89632,08/01/2011,Completed - Dup,08/04/2011,11-03499784,Street Lights - All/Out,3032 W ARTHUR AVE,60645.0,1154824.25579094,1942951.38531517,50.0,24.0,2.0,41.999276520492735,-87.70579851967469,"(41.999276520492735, -87.70579851967469)",2011-08-01
89633,08/01/2011,Completed - Dup,08/04/2011,11-03499787,Street Lights - All/Out,6612 N WHIPPLE ST,60645.0,1154808.5198748,1943694.94022383,50.0,24.0,2.0,42.00131718378861,-87.70583636182725,"(42.00131718378861, -87.70583636182725)",2011-08-01
89634,08/01/2011,Completed - Dup,08/04/2011,11-03499809,Street Lights - All/Out,2400 W BERENICE AVE,60618.0,1159688.33998116,1925497.25997801,47.0,19.0,5.0,41.95128238506225,-87.68838827094909,"(41.95128238506225, -87.68838827094909)",2011-08-01
89635,08/01/2011,Completed - Dup,08/04/2011,11-03499810,Street Lights - All/Out,2400 W GRACE ST,60618.0,1159698.17050534,1925168.14507795,47.0,19.0,5.0,41.9503790717894,-87.68836123868967,"(41.9503790717894, -87.68836123868967)",2011-08-01
89636,08/01/2011,Completed - Dup,08/04/2011,11-03499921,Street Lights - All/Out,4000 W EDDY ST,60641.0,1149097.11226721,1923354.35009403,30.0,17.0,16.0,41.945614174951686,-87.72737718061653,"(41.94561417495169, -87.72737718061653)",2011-08-01
89637,08/01/2011,Completed - Dup,08/04/2011,11-03499926,Street Lights - All/Out,4100 W EDDY ST,60641.0,1148599.52916576,1923341.76939279,30.0,17.0,16.0,41.945589290641344,-87.72920645776723,"(41.945589290641344, -87.72920645776723)",2011-08-01
89638,08/01/2011,Completed - Dup,08/04/2011,11-03499928,Street Lights - All/Out,4000 W CORNELIA AVE,60641.0,1149105.84996748,1923058.30999447,30.0,17.0,16.0,41.944801647486294,-87.72735275659444,"(41.9448016474863, -87.72735275659446)",2011-08-01
89639,08/01/2011,Completed - Dup,08/04/2011,11-03499930,Street Lights - All/Out,4100 W CORNELIA AVE,60641.0,1148608.21747403,1923047.29592216,30.0,17.0,16.0,41.94478106332318,-87.72918215147854,"(41.94478106332317, -87.72918215147855)",2011-08-01
89640,08/01/2011,Completed - Dup,08/04/2011,11-03500011,Street Lights - All/Out,4900 W BELDEN AVE,60639.0,1143352.06768995,1914852.18836726,31.0,25.0,19.0,41.92239292818214,-87.748707227007,"(41.92239292818214, -87.748707227007)",2011-08-01
89641,08/01/2011,Completed - Dup,08/04/2011,11-03501241,Street Lights - All/Out,5035 N RIDGEWAY AVE,60625.0,1150480.76622798,1933197.91788131,39.0,17.0,14.0,41.97259867439707,-87.7220332211937,"(41.97259867439707, -87.7220332211937)",2011-08-01
89642,08/01/2011,Completed - Dup,08/04/2011,11-03501385,Street Lights - All/Out,4803 N DAMEN AVE,60625.0,1162142.46302887,1931903.85002957,47.0,20.0,4.0,41.96881134672964,-87.67918722608889,"(41.96881134672964, -87.67918722608889)",2011-08-01
89643,08/01/2011,Completed - Dup,08/04/2011,11-03501814,Street Lights - All/Out,800 W OAKDALE AVE,60657.0,1170419.59740005,1919813.64989093,44.0,19.0,6.0,41.935457962404506,-87.64910751731871,"(41.93545796240451, -87.6491075173187)",2011-08-01
89644,08/01/2011,Completed - Dup,08/04/2011,11-03502081,Street Lights - All/Out,1622 N KEELER AVE,60639.0,1148141.55039178,1910451.18261318,30.0,25.0,23.0,41.91022519298304,-87.7312225591111,"(41.910225192983035, -87.73122255911109)",2011-08-01
89645,08/01/2011,Completed - Dup,08/04/2011,11-03502122,Street Lights - All/Out,9900 S PROSPECT AVE,60643.0,1167180.02467286,1839068.56263023,19.0,22.0,72.0,41.713955400603574,-87.66332718043839,"(41.71395540060357, -87.66332718043839)",2011-08-01
89646,08/01/2011,Completed - Dup,08/04/2011,11-03502390,Street Lights - All/Out,9936 S PROSPECT AVE,60643.0,1167267.78767391,1838696.92990574,19.0,22.0,72.0,41.71293370734074,-87.66301635369473,"(41.712933707340746, -87.66301635369472)",2011-08-01
89647,08/01/2011,Completed - Dup,08/04/2011,11-03502450,Street Lights - All/Out,5823 N JERSEY AVE,60659.0,1153699.64037292,1938509.06561009,39.0,17.0,13.0,41.98710912052196,-87.71005463372214,"(41.98710912052195, -87.71005463372212)",2011-08-01
89648,08/01/2011,Completed - Dup,08/04/2011,11-03502786,Street Lights - All/Out,500 N HOMAN AVE,60624.0,1153622.79882288,1903212.75680745,27.0,11.0,23.0,41.89025492097408,-87.71127928641495,"(41.89025492097408, -87.71127928641496)",2011-08-01
89649,08/01/2011,Completed - Dup,08/04/2011,11-03502914,Street Lights - All/Out,7720 S KARLOV AVE,60652.0,1150495.17999441,1853064.97321861,13.0,8.0,70.0,41.75270412080889,-87.72407134355987,"(41.75270412080889, -87.72407134355987)",2011-08-01
89650,08/01/2011,Completed - Dup,08/04/2011,11-03502960,Street Lights - All/Out,8500 S KILPATRICK AVE,60652.0,1146582.74992542,1847763.24370854,18.0,8.0,70.0,41.73823034321506,-87.73854331698703,"(41.738230343215065, -87.73854331698703)",2011-08-01
89651,08/01/2011,Completed - Dup,08/04/2011,11-03503162,Street Lights - All/Out,530 N LAKE SHORE DR,60611.0,1180009.9999851002,1904028.77000671,42.0,18.0,8.0,41.89192828505456,-87.61434899365675,"(41.89192828505456, -87.61434899365675)",2011-08-01
89652,08/01/2011,Completed - Dup,08/04/2011,11-03503468,Street Lights - All/Out,10600 S TORRENCE AVE,60617.0,1195536.44208565,1835232.78440388,10.0,4.0,51.0,41.70277721161376,-87.55960267161127,"(41.702777211613764, -87.55960267161126)",2011-08-01
89653,08/01/2011,Completed - Dup,08/04/2011,11-03503934,Street Lights - All/Out,4100 W CORNELIA AVE,60641.0,1148608.21747403,1923047.29592216,30.0,17.0,16.0,41.94478106332318,-87.72918215147854,"(41.94478106332317, -87.72918215147855)",2011-08-01
89654,08/01/2011,Completed - Dup,08/04/2011,11-03504367,Street Lights - All/Out,4600 S FAIRFIELD AVE,60632.0,1158807.47631151,1874038.828168,12.0,9.0,58.0,41.81009378289747,-87.69303756564327,"(41.81009378289747, -87.69303756564328)",2011-08-01
89655,08/01/2011,Completed - Dup,08/04/2011,11-03504449,Street Lights - All/Out,4400 N SEELEY AVE,60625.0,1161779.95010428,1929213.49508999,47.0,19.0,4.0,41.961436474806035,-87.6805955367079,"(41.96143647480603, -87.6805955367079)",2011-08-01
89656,08/01/2011,Completed - Dup,08/04/2011,11-03504616,Street Lights - All/Out,5045 N DAMEN AVE,60625.0,1162090.70391165,1933635.79718966,47.0,20.0,4.0,41.97356496851013,-87.67932892777617,"(41.97356496851013, -87.67932892777617)",2011-08-01
89657,08/01/2011,Completed - Dup,08/04/2011,11-03504924,Street Lights - All/Out,4600 W DICKENS AVE,60639.0,1145270.4900232,1913560.42001548,31.0,25.0,19.0,41.918812080677945,-87.74169102388598,"(41.918812080677945, -87.74169102388598)",2011-08-01
89658,08/01/2011,Completed - Dup,08/04/2011,11-03505261,Street Lights - All/Out,5400 N LIEB AVE,60630.0,1139792.39372442,1935260.17676944,45.0,16.0,11.0,41.97846023985746,-87.76128624325794,"(41.97846023985746, -87.76128624325793)",2011-08-01
89659,08/01/2011,Completed - Dup,08/04/2011,11-03505517,Street Lights - All/Out,1500 N PULASKI RD,60651.0,1149442.0614719999,1909677.61660651,30.0,25.0,23.0,41.90807730120867,-87.72646505771532,"(41.90807730120867, -87.72646505771532)",2011-08-01
89660,08/01/2011,Completed - Dup,08/04/2011,11-03505528,Street Lights - All/Out,4300 W DICKENS AVE,60639.0,1147377.01866683,1913609.08078296,30.0,25.0,20.0,41.918905470556716,-87.7339501006506,"(41.918905470556716, -87.73395010065059)",2011-08-01
89661,08/01/2011,Completed - Dup,08/04/2011,11-03505597,Street Lights - All/Out,5400 N LIEB AVE,60630.0,1139792.39372442,1935260.17676944,45.0,16.0,11.0,41.97846023985746,-87.76128624325794,"(41.97846023985746, -87.76128624325793)",2011-08-01
89662,08/01/2011,Completed - Dup,08/04/2011,11-03505660,Street Lights - All/Out,5800 N JERSEY AVE,60659.0,1153735.24037292,1938356.06561009,39.0,17.0,13.0,41.98668856959402,-87.70992779152733,"(41.98668856959402, -87.70992779152733)",2011-08-01
89663,08/01/2011,Completed - Dup,08/04/2011,11-03505907,Street Lights - All/Out,5400 N LIEB AVE,60630.0,1139792.39372442,1935260.17676944,45.0,16.0,11.0,41.97846023985746,-87.76128624325794,"(41.97846023985746, -87.76128624325793)",2011-08-01
89664,08/01/2011,Completed - Dup,08/04/2011,11-03505996,Street Lights - All/Out,1600 N KEELER AVE,60639.0,1148146.15039178,1910303.58261318,30.0,25.0,23.0,41.909820075265664,-87.7312094667651,"(41.909820075265664, -87.7312094667651)",2011-08-01
89665,08/01/2011,Completed - Dup,08/04/2011,11-03506364,Street Lights - All/Out,5828 W GREENLEAF AVE,60646.0,1136716.11002304,1946518.11000929,41.0,16.0,12.0,42.00940871967433,-87.77232830612806,"(42.009408719674326, -87.77232830612807)",2011-08-01
89666,08/01/2011,Completed - Dup,08/04/2011,11-03506930,Street Lights - All/Out,1246 W 111TH PL,60643.0,1170007.55970278,1830841.09140262,34.0,22.0,75.0,41.69131708172371,-87.65320960935293,"(41.69131708172371, -87.65320960935294)",2011-08-01
89667,08/01/2011,Completed - Dup,08/04/2011,11-03507133,Street Lights - All/Out,10918 S LOWE AVE,60628.0,1173917.32583195,1832473.5606232,34.0,22.0,49.0,41.695711224255284,-87.63884739582834,"(41.695711224255284, -87.63884739582835)",2011-08-01
89668,08/01/2011,Completed - Dup,08/04/2011,11-03507263,Street Lights - All/Out,6600 N WHIPPLE ST,60645.0,1154808.0198748,1943615.24022383,50.0,24.0,2.0,42.00109849362959,-87.70584035005703,"(42.00109849362959, -87.70584035005703)",2011-08-01
89669,08/01/2011,Completed - Dup,08/04/2011,11-03507567,Street Lights - All/Out,4000 W EDDY ST,60641.0,1149097.11226721,1923354.35009403,30.0,17.0,16.0,41.945614174951686,-87.72737718061653,"(41.94561417495169, -87.72737718061653)",2011-08-01
89670,08/01/2011,Completed - Dup,08/04/2011,11-03507803,Street Lights - All/Out,7700 N PAULINA ST,60626.0,1163656.64880104,1950998.7432018998,49.0,24.0,1.0,42.02117641499763,-87.67307826119398,"(42.02117641499763, -87.67307826119398)",2011-08-01
89671,08/01/2011,Completed - Dup,08/04/2011,11-03507825,Street Lights - All/Out,8516 S KEATING AVE,60652.0,1146253.84970985,1847645.95468136,18.0,8.0,70.0,41.737914711750435,-87.7397513146057,"(41.73791471175044, -87.73975131460571)",2011-08-01
89672,08/01/2011,Completed - Dup,08/04/2011,11-03507956,Street Lights - All/Out,1600 N KEELER AVE,60639.0,1148146.15039178,1910303.58261318,30.0,25.0,23.0,41.909820075265664,-87.7312094667651,"(41.909820075265664, -87.7312094667651)",2011-08-01
89673,08/01/2011,Completed - Dup,08/04/2011,11-03507959,Street Lights - All/Out,1700 N KEELER AVE,60639.0,1148125.32556587,1910967.68110639,30.0,25.0,23.0,41.911642828625745,-87.73126884458321,"(41.91164282862574, -87.73126884458321)",2011-08-01
89674,08/01/2011,Completed - Dup,08/04/2011,11-03508381,Street Lights - All/Out,8500 S KILPATRICK AVE,60652.0,1146582.74992542,1847763.24370854,18.0,8.0,70.0,41.73823034321506,-87.73854331698703,"(41.738230343215065, -87.73854331698703)",2011-08-01
89675,08/01/2011,Completed - Dup,08/04/2011,11-03508428,Street Lights - All/Out,9900 S PROSPECT AVE,60643.0,1167180.02467286,1839068.56263023,19.0,22.0,72.0,41.713955400603574,-87.66332718043839,"(41.71395540060357, -87.66332718043839)",2011-08-01
89676,08/01/2011,Completed - Dup,08/04/2011,11-03508429,Street Lights - All/Out,1600 S HARDING AVE,60623.0,1150317.09681637,1891755.11978352,24.0,10.0,29.0,41.85887899299141,-87.72371829339167,"(41.85887899299141, -87.72371829339167)",2011-08-01
89677,08/01/2011,Completed - Dup,08/04/2011,11-03508432,Street Lights - All/Out,1900 W LARCHMONT AVE,60613.0,1162970.08059733,1926240.9725251999,47.0,19.0,5.0,41.9532547693848,-87.67630376200106,"(41.9532547693848, -87.67630376200106)",2011-08-01
89678,08/01/2011,Completed - Dup,08/04/2011,11-03508461,Street Lights - All/Out,4000 W WAVELAND AVE,60641.0,1149070.17909022,1924291.77311847,30.0,17.0,16.0,41.948187061217865,-87.72745182145098,"(41.94818706121787, -87.72745182145098)",2011-08-01
89679,08/01/2011,Completed - Dup,08/04/2011,11-03508468,Street Lights - All/Out,4617 S FAIRFIELD AVE,60632.0,1158810.97631151,1873926.6281680001,12.0,9.0,58.0,41.80978582020531,-87.6930277942138,"(41.80978582020531, -87.69302779421382)",2011-08-01
89680,08/01/2011,Completed - Dup,08/04/2011,11-03508477,Street Lights - All/Out,5100 S OAK PARK AVE,60638.0,1131913.71999994,1869968.7300068,23.0,8.0,56.0,41.79943219775721,-87.79177620999437,"(41.799432197757206, -87.79177620999438)",2011-08-01
89681,08/01/2011,Completed - Dup,08/04/2011,11-03508486,Street Lights - All/Out,5441 N LIEB AVE,60630.0,1140104.23997175,1935576.85003348,45.0,16.0,11.0,41.979323496504335,-87.76013161099274,"(41.979323496504335, -87.76013161099273)",2011-08-01
89682,08/01/2011,Completed - Dup,08/04/2011,11-03508505,Street Lights - All/Out,4000 N KILBOURN AVE,60641.0,1145499.48988131,1926203.43480933,38.0,17.0,16.0,41.95350133619407,-87.7405284402848,"(41.95350133619407, -87.74052844028482)",2011-08-01
89683,08/01/2011,Completed - Dup,08/04/2011,11-03508510,Street Lights - All/Out,4600 S FAIRFIELD AVE,60632.0,1158807.47631151,1874038.828168,12.0,9.0,58.0,41.81009378289747,-87.69303756564327,"(41.81009378289747, -87.69303756564328)",2011-08-01
89684,08/01/2011,Completed - Dup,08/04/2011,11-03508532,Street Lights - All/Out,452 W 60TH ST,60621.0,1174211.52987257,1865118.20468121,20.0,7.0,68.0,41.78528585139604,-87.63680281202187,"(41.78528585139604, -87.63680281202186)",2011-08-01
89685,08/01/2011,Completed - Dup,08/04/2011,11-03508536,Street Lights - All/Out,4525 W WRIGHTWOOD AVE,60639.0,1145675.55898539,1917111.94939001,31.0,25.0,20.0,41.92855014570754,-87.74011247310438,"(41.92855014570754, -87.74011247310439)",2011-08-01
89686,08/01/2011,Completed - Dup,08/04/2011,11-03508537,Street Lights - All/Out,1616 S HARDING AVE,60623.0,1150320.49681637,1891648.01978352,24.0,10.0,29.0,41.85858503144856,-87.72370860436848,"(41.85858503144856, -87.72370860436847)",2011-08-01
89687,08/01/2011,Completed - Dup,08/04/2011,11-03508543,Street Lights - All/Out,1648 S HARDING AVE,60623.0,1150327.19681637,1891433.81978352,24.0,10.0,29.0,41.85799711026558,-87.72368959360487,"(41.85799711026558, -87.72368959360487)",2011-08-01
89688,08/01/2011,Completed - Dup,08/04/2011,11-03508572,Street Lights - All/Out,1600 N KEELER AVE,60639.0,1148146.15039178,1910303.58261318,30.0,25.0,23.0,41.909820075265664,-87.7312094667651,"(41.909820075265664, -87.7312094667651)",2011-08-01
89689,08/01/2011,Completed - Dup,08/04/2011,11-03508577,Street Lights - All/Out,8500 S KILPATRICK AVE,60652.0,1146582.74992542,1847763.24370854,18.0,8.0,70.0,41.73823034321506,-87.73854331698703,"(41.738230343215065, -87.73854331698703)",2011-08-01
89690,08/01/2011,Completed - Dup,08/04/2011,11-03508583,Street Lights - All/Out,7920 S MANISTEE AVE,60617.0,1195885.72007641,1852983.55746805,7.0,4.0,46.0,41.75147826611064,-87.55773807760366,"(41.75147826611063, -87.55773807760367)",2011-08-01
89691,08/01/2011,Completed - Dup,08/04/2011,11-03508592,Street Lights - All/Out,8500 S KEATING AVE,60652.0,1146250.24970985,1847753.85468136,18.0,8.0,70.0,41.73821087759482,-87.73976177775505,"(41.73821087759481, -87.73976177775504)",2011-08-01
89692,08/01/2011,Completed - Dup,08/04/2011,11-03508593,Street Lights - All/Out,1800 W LARCHMONT AVE,60613.0,1163546.17611133,1926256.10989982,47.0,19.0,5.0,41.95328416804096,-87.67418556621533,"(41.95328416804096, -87.67418556621533)",2011-08-01
89693,08/01/2011,Completed - Dup,08/04/2011,11-03508601,Street Lights - All/Out,200 W 104TH PL,60628.0,1176798.90708052,1835652.25181322,34.0,5.0,49.0,41.70436976785008,-87.62820167463524,"(41.704369767850075, -87.62820167463524)",2011-08-01
89694,08/01/2011,Completed - Dup,08/04/2011,11-03508648,Street Lights - All/Out,4424 N HAMLIN AVE,60625.0,1150259.77752047,1929220.04988135,39.0,17.0,14.0,41.96168745821169,-87.72295005240271,"(41.961687458211685, -87.7229500524027)",2011-08-01
89695,08/01/2011,Completed - Dup,08/04/2011,11-03508651,Street Lights - All/Out,6400 N WHIPPLE ST,60645.0,1154847.24773405,1942286.91579641,50.0,24.0,2.0,41.99745272438661,-87.70573185465683,"(41.997452724386605, -87.70573185465683)",2011-08-01
89696,08/01/2011,Completed - Dup,08/04/2011,11-03508658,Street Lights - All/Out,5200 S OAK PARK AVE,60638.0,1131930.15789287,1869342.73362095,23.0,8.0,56.0,41.79771406549853,-87.7917303910968,"(41.79771406549853, -87.79173039109679)",2011-08-01
89697,08/01/2011,Completed - Dup,08/04/2011,11-03508659,Street Lights - All/Out,736 S CAMPBELL AVE,60612.0,1159843.87291975,1896623.16422044,2.0,11.0,28.0,41.8720464474463,-87.68861437063627,"(41.8720464474463, -87.68861437063626)",2011-08-01
89698,08/01/2011,Completed - Dup,08/04/2011,11-03508661,Street Lights - All/Out,4048 W WAVELAND AVE,60641.0,1148643.17909022,1924284.17311847,30.0,17.0,16.0,41.94817447833885,-87.72902159254042,"(41.948174478338856, -87.72902159254042)",2011-08-01
89699,08/01/2011,Completed - Dup,08/04/2011,11-03508750,Street Lights - All/Out,5400 N LUDLAM AVE,60630.0,1139553.41061958,1935487.58478596,45.0,16.0,11.0,41.97908864213748,-87.76215954627466,"(41.97908864213748, -87.76215954627465)",2011-08-01
89700,08/01/2011,Completed - Dup,08/04/2011,11-03508753,Street Lights - All/Out,5400 N LIEB AVE,60630.0,1139792.39372442,1935260.17676944,45.0,16.0,11.0,41.97846023985746,-87.76128624325794,"(41.97846023985746, -87.76128624325793)",2011-08-01
89701,08/01/2011,Completed - Dup,08/04/2011,11-03508757,Street Lights - All/Out,8522 S KILPATRICK AVE,60652.0,1146587.44992542,1847615.04370854,18.0,8.0,70.0,41.73782356574576,-87.73852984971032,"(41.73782356574576, -87.73852984971032)",2011-08-01
89702,08/01/2011,Completed - Dup,08/04/2011,11-03508815,Street Lights - All/Out,9900 S PROSPECT AVE,60643.0,1167180.02467286,1839068.56263023,19.0,22.0,72.0,41.713955400603574,-87.66332718043839,"(41.71395540060357, -87.66332718043839)",2011-08-01
89703,08/01/2011,Completed - Dup,08/04/2011,11-03508846,Street Lights - All/Out,4000 N KILBOURN AVE,60641.0,1145499.48988131,1926203.43480933,38.0,17.0,16.0,41.95350133619407,-87.7405284402848,"(41.95350133619407, -87.74052844028482)",2011-08-01
89704,08/01/2011,Completed - Dup,08/04/2011,11-03508876,Street Lights - All/Out,6400 N WASHTENAW AVE,60645.0,1157164.58447897,1942358.45932105,50.0,24.0,2.0,41.99760211946789,-87.69720527241734,"(41.99760211946789, -87.69720527241735)",2011-08-01
89705,08/01/2011,Completed - Dup,08/04/2011,11-03508878,Street Lights - All/Out,6000 N KEATING AVE,60646.0,1143618.67890417,1939456.90431641,39.0,17.0,12.0,41.989905382527844,-87.74710916568445,"(41.989905382527844, -87.74710916568445)",2011-08-01
89706,08/01/2011,Completed - Dup,08/04/2011,11-03508879,Street Lights - All/Out,6400 N FAIRFIELD AVE,60645.0,1156831.71737106,1942348.09209798,50.0,24.0,2.0,41.997580450513134,-87.69843005300919,"(41.997580450513134, -87.69843005300919)",2011-08-01
89707,08/01/2011,Completed - Dup,08/05/2011,11-03499760,Street Lights - All/Out,2200 N CENTRAL PARK AVE,60647.0,1152016.15507206,1914384.60481134,26.0,25.0,22.0,41.92094333776096,-87.71688481896074,"(41.92094333776096, -87.71688481896075)",2011-08-01
89708,08/01/2011,Completed - Dup,08/05/2011,11-03499811,Street Lights - All/Out,7400 S EGGLESTON AVE,60621.0,1174574.59001305,1855862.95029898,17.0,7.0,68.0,41.75988030457111,-87.63574692097565,"(41.759880304571105, -87.63574692097565)",2011-08-01
89709,08/01/2011,Completed - Dup,08/05/2011,11-03499856,Street Lights - All/Out,110 S HAMLIN BLVD,60624.0,1151086.11390723,1899261.62386961,28.0,11.0,26.0,41.879462677414715,-87.72069881951143,"(41.87946267741472, -87.72069881951144)",2011-08-01
89710,08/01/2011,Completed - Dup,08/05/2011,11-03500567,Street Lights - All/Out,317 E 89TH PL,60619.0,1179793.24980778,1845707.874607,6.0,6.0,44.0,41.73189588696735,-87.61693053733131,"(41.73189588696735, -87.61693053733131)",2011-08-01
89711,08/01/2011,Completed - Dup,08/05/2011,11-03501485,Street Lights - All/Out,6034 S MELVINA AVE,60638.0,1136101.78997323,1863876.88132647,23.0,8.0,64.0,41.782641643236104,-87.77656182244097,"(41.7826416432361, -87.77656182244097)",2011-08-01
89712,08/01/2011,Completed - Dup,08/05/2011,11-03502075,Street Lights - All/Out,4300 W CARROLL AVE,60624.0,1147658.11868425,1901951.21939275,28.0,11.0,26.0,41.88690969079863,-87.73321693691034,"(41.88690969079863, -87.73321693691035)",2011-08-01
89713,08/01/2011,Completed - Dup,08/05/2011,11-03502222,Street Lights - All/Out,3100 S PULASKI RD,60623.0,1150201.69842818,1883738.36923263,22.0,10.0,30.0,41.83688226777485,-87.72435056176687,"(41.83688226777484, -87.72435056176687)",2011-08-01
89714,08/01/2011,Completed - Dup,08/05/2011,11-03502925,Street Lights - All/Out,4100 W 78TH PL,60652.0,1150472.59668918,1852115.46492849,13.0,8.0,70.0,41.75009894546419,-87.72417873869966,"(41.75009894546419, -87.72417873869966)",2011-08-01
89715,08/01/2011,Completed - Dup,08/05/2011,11-03503395,Street Lights - All/Out,3400 N OLEANDER AVE,60634.0,1125154.83511595,1921653.09861295,36.0,16.0,17.0,41.941376468654354,-87.81541983511057,"(41.941376468654354, -87.81541983511056)",2011-08-01
89716,08/01/2011,Completed - Dup,08/05/2011,11-03503691,Street Lights - All/Out,700 N LAWNDALE AVE,60624.0,1151594.03089648,1904417.37541482,27.0,11.0,23.0,41.893600634520716,-87.71869821900974,"(41.893600634520716, -87.71869821900974)",2011-08-01
89717,08/01/2011,Completed - Dup,08/05/2011,11-03504333,Street Lights - All/Out,6000 S MOODY AVE,60638.0,1136426.75000976,1864116.90997582,23.0,8.0,64.0,41.7832945452477,-87.77536468550609,"(41.783294545247706, -87.7753646855061)",2011-08-01
89718,08/01/2011,Completed - Dup,08/05/2011,11-03504517,Street Lights - All/Out,6000 S MELVINA AVE,60638.0,1136093.78997323,1864106.28132647,23.0,8.0,64.0,41.78327130086645,-87.7765857077293,"(41.78327130086645, -87.7765857077293)",2011-08-01
89719,08/01/2011,Completed - Dup,08/05/2011,11-03504805,Street Lights - All/Out,8900 S CALUMET AVE,60619.0,1180032.21976739,1846048.07559997,6.0,6.0,44.0,41.73282397820439,-87.6160447139127,"(41.73282397820439, -87.61604471391271)",2011-08-01
89720,08/01/2011,Completed - Dup,08/05/2011,11-03506724,Street Lights - All/Out,6000 S MOODY AVE,60638.0,1136426.75000976,1864116.90997582,23.0,8.0,64.0,41.7832945452477,-87.77536468550609,"(41.783294545247706, -87.7753646855061)",2011-08-01
89721,08/01/2011,Completed - Dup,08/05/2011,11-03507258,Street Lights - All/Out,334 W 32ND ST,60616.0,1174471.8845048,1883735.19087774,11.0,9.0,34.0,41.83636684092486,-87.6352938122502,"(41.83636684092486, -87.63529381225018)",2011-08-01
89722,08/01/2011,Completed - Dup,08/05/2011,11-03507819,Street Lights - All/Out,100 S HAMLIN BLVD,60624.0,1151081.7833299,1899392.84023399,28.0,11.0,26.0,41.87982283422986,-87.72071128163185,"(41.87982283422986, -87.72071128163186)",2011-08-01
89723,08/01/2011,Completed - Dup,08/05/2011,11-03508399,Street Lights - All/Out,10100 S LAFAYETTE AVE,60628.0,1177705.55613139,1837999.75267479,9.0,5.0,49.0,41.710791215337856,-87.62481095882951,"(41.71079121533785, -87.62481095882951)",2011-08-01
89724,08/01/2011,Completed - Dup,08/05/2011,11-03508431,Street Lights - All/Out,6946 N OLEANDER AVE,60631.0,1125108.41580966,1945524.78121556,41.0,16.0,9.0,42.00688372175685,-87.8150596389346,"(42.00688372175685, -87.8150596389346)",2011-08-01
89725,08/01/2011,Completed - Dup,08/05/2011,11-03508437,Street Lights - All/Out,3100 S PULASKI RD,60623.0,1150201.69842818,1883738.36923263,22.0,10.0,30.0,41.83688226777485,-87.72435056176687,"(41.83688226777484, -87.72435056176687)",2011-08-01
89726,08/01/2011,Completed - Dup,08/05/2011,11-03508440,Street Lights - All/Out,10100 S PERRY AVE,60628.0,1177381.51489915,1837992.22201313,9.0,5.0,49.0,41.71077786087262,-87.62599788480402,"(41.71077786087262, -87.62599788480401)",2011-08-01
89727,08/01/2011,Completed - Dup,08/05/2011,11-03508473,Street Lights - All/Out,1841 W 17TH ST,60608.0,1164369.38779877,1891766.71799478,25.0,12.0,31.0,41.85862544626715,-87.67213665190614,"(41.85862544626715, -87.67213665190616)",2011-08-01
89728,08/01/2011,Completed - Dup,08/05/2011,11-03508489,Street Lights - All/Out,726 N LAWNDALE AVE,60624.0,1151588.73089648,1904593.07541482,27.0,11.0,23.0,41.894082877254,-87.71871306176995,"(41.894082877254, -87.71871306176993)",2011-08-01
89729,08/01/2011,Completed - Dup,08/05/2011,11-03508503,Street Lights - All/Out,432 W 75TH ST,60621.0,1174592.31168475,1855198.85869448,17.0,7.0,68.0,41.75805756310971,-87.63570170911724,"(41.75805756310971, -87.63570170911724)",2011-08-01
89730,08/01/2011,Completed - Dup,08/05/2011,11-03508548,Street Lights - All/Out,7431 S EGGLESTON AVE,60621.0,1174580.09001305,1855655.05029898,17.0,7.0,69.0,41.75930967967854,-87.63573294245806,"(41.75930967967854, -87.63573294245806)",2011-08-01
89731,08/01/2011,Completed - Dup,08/05/2011,11-03508591,Street Lights - All/Out,4114 W 78TH PL,60652.0,1150315.68001674,1852080.92558965,13.0,8.0,70.0,41.75000721069796,-87.72475465390761,"(41.75000721069796, -87.72475465390761)",2011-08-01
89732,08/01/2011,Completed - Dup,08/05/2011,11-03508608,Street Lights - All/Out,4130 W BRYN MAWR AVE,60646.0,1147721.50081754,1936898.76743335,39.0,17.0,13.0,41.98280763521159,-87.73208413122794,"(41.98280763521159, -87.73208413122794)",2011-08-01
89733,08/01/2011,Completed - Dup,08/05/2011,11-03508660,Street Lights - All/Out,9256 S ADA ST,60620.0,1168954.72996788,1843375.23139701,21.0,22.0,73.0,41.725735469198014,-87.65670355078957,"(41.725735469198014, -87.65670355078956)",2011-08-01
89734,08/01/2011,Completed - Dup,08/05/2011,11-03508704,Street Lights - All/Out,3100 S STEWART AVE,60616.0,1174234.74981513,1884392.24371892,11.0,9.0,34.0,41.83817513313615,-87.63614437183527,"(41.83817513313615, -87.63614437183526)",2011-08-01
89735,08/01/2011,Completed - Dup,08/05/2011,11-03508711,Street Lights - All/Out,6134 S MAYFIELD AVE,60638.0,1138122.21400256,1863273.78641107,13.0,8.0,64.0,41.78095050335974,-87.76916869686166,"(41.78095050335974, -87.76916869686164)",2011-08-01
89736,08/01/2011,Completed - Dup,08/05/2011,11-03508801,Street Lights - All/Out,400 E GRAND AVE,60611.0,1179099.63419713,1903991.41850245,42.0,18.0,8.0,41.89184667489771,-87.61769346298313,"(41.8918466748977, -87.61769346298314)",2011-08-01
89737,08/01/2011,Completed - Dup,08/05/2011,11-03508890,Street Lights - All/Out,11843 S MICHIGAN AVE,60628.0,1178969.58138312,1826358.91019258,9.0,5.0,53.0,41.6788184586614,-87.6205346588188,"(41.6788184586614, -87.6205346588188)",2011-08-01
89738,08/01/2011,Completed - Dup,08/06/2011,11-03501783,Street Lights - All/Out,4677 W FULLERTON AVE,60639.0,1144759.45317626,1915547.79677486,31.0,25.0,19.0,41.92427530097668,-87.74351842332922,"(41.92427530097668, -87.74351842332922)",2011-08-01
89739,08/01/2011,Completed - Dup,08/08/2011,11-03499713,Street Lights - All/Out,4400 N CENTRAL AVE,60630.0,1138216.0573063998,1928698.95041638,38.0,16.0,15.0,41.960484393111436,-87.76724278353592,"(41.96048439311144, -87.76724278353592)",2011-08-01
89740,08/01/2011,Completed - Dup,08/08/2011,11-03499793,Street Lights - All/Out,9200 S AVALON AVE,60619.0,1186145.40519607,1844227.63219063,8.0,4.0,47.0,41.72768649884566,-87.59370687343113,"(41.72768649884566, -87.59370687343113)",2011-08-01
89741,08/01/2011,Completed - Dup,08/08/2011,11-03500049,Street Lights - All/Out,5005 N OAK PARK AVE,60656.0,1130191.90999781,1932861.40940326,41.0,16.0,10.0,41.972048286100815,-87.79664820804226,"(41.972048286100815, -87.79664820804226)",2011-08-01
89742,08/01/2011,Completed - Dup,08/08/2011,11-03500522,Street Lights - All/Out,9100 S BLACKSTONE AVE,60619.0,1187703.74701197,1844926.82890318,8.0,4.0,48.0,41.72956828286265,-87.5879763072696,"(41.72956828286265, -87.5879763072696)",2011-08-01
89743,08/01/2011,Completed - Dup,08/08/2011,11-03502309,Street Lights - All/Out,5642 W NORTH AVE,60639.0,1138287.96997429,1910066.67998688,29.0,25.0,25.0,41.90935417692921,-87.76743056331465,"(41.90935417692921, -87.76743056331465)",2011-08-01
89744,08/01/2011,Completed - Dup,08/08/2011,11-03503239,Street Lights - All/Out,9500 S MARQUETTE AVE,60617.0,1195912.52003223,1842489.79769908,10.0,4.0,51.0,41.72268186068244,-87.55798630945726,"(41.72268186068244, -87.55798630945726)",2011-08-01
89745,08/01/2011,Completed - Dup,08/08/2011,11-03503349,Street Lights - All/Out,4900 N MOODY AVE,60630.0,1134200.55928386,1932240.2004069,45.0,16.0,11.0,41.970273773254696,-87.78192219993235,"(41.970273773254696, -87.78192219993235)",2011-08-01
89746,08/01/2011,Completed - Dup,08/08/2011,11-03503508,Street Lights - All/Out,8600 S JEFFERY BLVD,60617.0,1191011.43909601,1848347.35381561,8.0,4.0,45.0,41.73887529211919,-87.57574922703934,"(41.73887529211919, -87.57574922703935)",2011-08-01
89747,08/01/2011,Completed - Dup,08/08/2011,11-03503852,Street Lights - All/Out,1223 S KOMENSKY AVE,60623.0,1149578.41371152,1894125.0924910998,24.0,10.0,29.0,41.86539684319031,-87.7263682720286,"(41.86539684319031, -87.7263682720286)",2011-08-01
89748,08/01/2011,Completed - Dup,08/08/2011,11-03504865,Street Lights - All/Out,1101 N MARSHFIELD AVE,60622.0,1165184.19882562,1907677.40651836,1.0,13.0,24.0,41.90226840319577,-87.66869348232281,"(41.902268403195784, -87.66869348232281)",2011-08-01
89749,08/01/2011,Completed - Dup,08/08/2011,11-03504905,Street Lights - All/Out,1100 S MASON AVE,60644.0,1136880.94950385,1894734.2473749002,29.0,15.0,25.0,41.86730534120482,-87.77296723923428,"(41.86730534120482, -87.77296723923428)",2011-08-01
89750,08/01/2011,Completed - Dup,08/08/2011,11-03505522,Street Lights - All/Out,1700 N HARDING AVE,60647.0,1149785.38576945,1911008.99190289,30.0,25.0,23.0,41.91172405133747,-87.72516917368498,"(41.911724051337465, -87.72516917368499)",2011-08-01
89751,08/01/2011,Completed - Dup,08/08/2011,11-03506471,Street Lights - All/Out,1224 W 32ND ST,60608.0,1168678.0688015,1883589.11447317,11.0,9.0,60.0,41.83609322846058,-87.65655760771776,"(41.83609322846058, -87.65655760771777)",2011-08-01
89752,08/01/2011,Completed - Dup,08/08/2011,11-03507475,Street Lights - All/Out,4900 S DREXEL BLVD,60615.0,1183013.40122568,1872710.4648194,4.0,21.0,39.0,41.80591945336393,-87.60429544550928,"(41.80591945336392, -87.60429544550928)",2011-08-01
89753,08/01/2011,Completed - Dup,08/08/2011,11-03507765,Street Lights - All/Out,4400 N CENTRAL AVE,60630.0,1138216.0573063998,1928698.95041638,38.0,16.0,15.0,41.960484393111436,-87.76724278353592,"(41.96048439311144, -87.76724278353592)",2011-08-01
89754,08/01/2011,Completed - Dup,08/08/2011,11-03508029,Street Lights - All/Out,5721 W WILSON AVE,60630.0,1137369.29242182,1930008.41349347,38.0,16.0,15.0,41.964092990548366,-87.77032432535965,"(41.964092990548366, -87.77032432535965)",2011-08-01
89755,08/01/2011,Completed - Dup,08/08/2011,11-03508316,Street Lights - All/Out,4924 N NEWCASTLE AVE,60656.0,1129918.64796835,1932325.84489866,41.0,16.0,10.0,41.970583335601724,-87.7976653699436,"(41.970583335601724, -87.7976653699436)",2011-08-01
89756,08/01/2011,Completed - Dup,08/08/2011,11-03508501,Street Lights - All/Out,1300 S KOMENSKY AVE,60623.0,1149589.13528949,1893734.8271221002,24.0,10.0,29.0,41.864325700623496,-87.72633904218071,"(41.8643257006235, -87.7263390421807)",2011-08-01
89757,08/01/2011,Completed - Dup,08/08/2011,11-03508521,Street Lights - All/Out,1200 S KOMENSKY AVE,60623.0,1149570.89992718,1894401.19006989,24.0,10.0,29.0,41.866154633415974,-87.72638868966497,"(41.86615463341597, -87.72638868966497)",2011-08-01
89758,08/01/2011,Completed - Dup,08/08/2011,11-03508599,Street Lights - All/Out,10700 S RHODES AVE,60628.0,1181808.3385036,1834124.19253078,9.0,5.0,49.0,41.700062550397355,-87.60990507316905,"(41.70006255039735, -87.60990507316903)",2011-08-01
89759,08/01/2011,Completed - Dup,08/08/2011,11-03508603,Street Lights - All/Out,1300 S KOMENSKY AVE,60623.0,1149589.13528949,1893734.8271221002,24.0,10.0,29.0,41.864325700623496,-87.72633904218071,"(41.8643257006235, -87.7263390421807)",2011-08-01
89760,08/01/2011,Completed - Dup,08/08/2011,11-03508642,Street Lights - All/Out,4900 N MOODY AVE,60630.0,1134200.55928386,1932240.2004069,45.0,16.0,11.0,41.970273773254696,-87.78192219993235,"(41.970273773254696, -87.78192219993235)",2011-08-01
89761,08/01/2011,Completed - Dup,08/08/2011,11-03508686,Street Lights - All/Out,8200 S CARPENTER ST,60620.0,1170742.35561128,1850442.30902421,21.0,6.0,71.0,41.745089771800046,-87.64994982848002,"(41.745089771800046, -87.64994982848002)",2011-08-01
89762,08/01/2011,Completed - Dup,08/08/2011,11-03508699,Street Lights - All/Out,9200 S AVALON AVE,60619.0,1186145.40519607,1844227.63219063,8.0,4.0,47.0,41.72768649884566,-87.59370687343113,"(41.72768649884566, -87.59370687343113)",2011-08-01
89763,08/01/2011,Completed - Dup,08/08/2011,11-03508771,Street Lights - All/Out,8200 S CARPENTER ST,60620.0,1170742.35561128,1850442.30902421,21.0,6.0,71.0,41.745089771800046,-87.64994982848002,"(41.745089771800046, -87.64994982848002)",2011-08-01
89764,08/01/2011,Completed - Dup,08/08/2011,11-03508819,Street Lights - All/Out,8209 S CARPENTER ST,60620.0,1170744.05561128,1850382.10902421,21.0,6.0,71.0,41.74492453782487,-87.64994535124178,"(41.744924537824865, -87.64994535124178)",2011-08-01
89765,08/01/2011,Completed - Dup,08/09/2011,11-03499726,Street Lights - All/Out,2400 W 26TH ST,60608.0,1160781.33259209,1886715.12421678,25.0,10.0,31.0,41.8448384180376,-87.68544705430689,"(41.84483841803759, -87.68544705430689)",2011-08-01
89766,08/01/2011,Completed - Dup,08/09/2011,11-03499779,Street Lights - All/Out,8300 S INDIANA AVE,60619.0,1179036.99232391,1850014.83859482,6.0,6.0,44.0,41.74373195582859,-87.6195701373357,"(41.74373195582859, -87.6195701373357)",2011-08-01
89767,08/01/2011,Completed - Dup,08/09/2011,11-03500569,Street Lights - All/Out,2249 S HAMLIN AVE,60623.0,1151399.86462984,1888517.8683336002,22.0,10.0,30.0,41.84997441982868,-87.71982868668117,"(41.849974419828676, -87.71982868668117)",2011-08-01
89768,08/01/2011,Completed - Dup,08/09/2011,11-03500584,Street Lights - All/Out,3046 W MARQUETTE RD,60629.0,1157137.58989651,1860043.55889422,15.0,8.0,66.0,41.77172277883907,-87.69954095585962,"(41.77172277883907, -87.69954095585962)",2011-08-01
89769,08/01/2011,Completed - Dup,08/09/2011,11-03502850,Street Lights - All/Out,2300 S HAMLIN AVE,60623.0,1151402.35052013,1888418.96013271,22.0,10.0,30.0,41.84970295485424,-87.71982215647041,"(41.84970295485424, -87.7198221564704)",2011-08-01
89770,08/01/2011,Completed - Dup,08/09/2011,11-03503078,Street Lights - All/Out,7355 S SACRAMENTO AVE,60629.0,1157647.22988044,1855710.07000791,18.0,8.0,66.0,41.75982070776788,-87.6977901387142,"(41.75982070776788, -87.69779013871421)",2011-08-01
89771,08/01/2011,Completed - Dup,08/09/2011,11-03503210,Street Lights - All/Out,2123 W 72ND PL,60636.0,1163488.8727148,1856564.45011506,17.0,7.0,67.0,41.762044822998924,-87.67635651090866,"(41.76204482299892, -87.67635651090866)",2011-08-01
89772,08/01/2011,Completed - Dup,08/09/2011,11-03503566,Street Lights - All/Out,8000 S HARVARD AVE,60620.0,1175344.46068921,1851896.99390242,17.0,6.0,44.0,41.74898007546014,-87.63304367109832,"(41.74898007546014, -87.63304367109833)",2011-08-01
89773,08/01/2011,Completed - Dup,08/09/2011,11-03503935,Street Lights - All/Out,8500 S KEDZIE AVE,60652.0,1156529.6482094,1848061.46800928,18.0,8.0,70.0,41.738854292434006,-87.70209176419796,"(41.738854292434006, -87.70209176419795)",2011-08-01
89774,08/01/2011,Completed - Dup,08/09/2011,11-03504480,Street Lights - All/Out,8318 S INDIANA AVE,60619.0,1179040.39232391,1849893.93859482,6.0,6.0,44.0,41.74340011458492,-87.61956135398552,"(41.743400114584915, -87.61956135398552)",2011-08-01
89775,08/01/2011,Completed - Dup,08/09/2011,11-03504745,Street Lights - All/Out,7959 S YALE AVE,60620.0,1175998.71467504,1852186.13037024,17.0,6.0,44.0,41.74975886391813,-87.63063759577076,"(41.74975886391813, -87.63063759577076)",2011-08-01
89776,08/01/2011,Completed - Dup,08/09/2011,11-03504936,Street Lights - All/Out,3900 W 66TH ST,60629.0,1151506.82328697,1860551.59801989,13.0,8.0,65.0,41.773228932772795,-87.72016846967476,"(41.7732289327728, -87.72016846967475)",2011-08-01
89777,08/01/2011,Completed - Dup,08/09/2011,11-03505336,Street Lights - All/Out,2243 S RIDGEWAY AVE,60623.0,1151727.74337027,1888681.11941835,22.0,10.0,30.0,41.85041596644182,-87.71862102265591,"(41.85041596644182, -87.71862102265591)",2011-08-01
89778,08/01/2011,Completed - Dup,08/09/2011,11-03505953,Street Lights - All/Out,2227 S HAMLIN AVE,60623.0,1151392.66462984,1888784.9683336003,22.0,10.0,30.0,41.850707516091646,-87.71984810862597,"(41.85070751609164, -87.71984810862597)",2011-08-01
89779,08/01/2011,Completed - Dup,08/09/2011,11-03506100,Street Lights - All/Out,2200 W FLETCHER ST,60618.0,1161140.55987464,1920887.07321103,32.0,19.0,5.0,41.93860165480575,-87.6831785054773,"(41.93860165480575, -87.68317850547729)",2011-08-01
89780,08/01/2011,Completed - Dup,08/09/2011,11-03506643,Street Lights - All/Out,854 E 87TH PL,60619.0,1183599.61622328,1847148.4899096,8.0,6.0,44.0,41.73576131251427,-87.60294162297821,"(41.73576131251427, -87.60294162297822)",2011-08-01
89781,08/01/2011,Completed - Dup,08/09/2011,11-03506933,Street Lights - All/Out,8050 S PRINCETON AVE,60620.0,1175675.19781004,1851907.51956566,17.0,6.0,44.0,41.74900156605647,-87.631831416368,"(41.749001566056464, -87.63183141636802)",2011-08-01
89782,08/01/2011,Completed - Dup,08/09/2011,11-03507799,Street Lights - All/Out,3040 W MARQUETTE RD,60629.0,1157167.58989651,1860044.35889422,15.0,8.0,66.0,41.77172436743578,-87.6994309630797,"(41.77172436743578, -87.6994309630797)",2011-08-01
89783,08/01/2011,Completed - Dup,08/09/2011,11-03507810,Street Lights - All/Out,861 E 87TH PL,60619.0,1183665.41622328,1847150.0899096,8.0,6.0,44.0,41.735764170480316,-87.60270050924382,"(41.735764170480316, -87.60270050924382)",2011-08-01
89784,08/01/2011,Completed - Dup,08/09/2011,11-03508098,Street Lights - All/Out,8000 S HARVARD AVE,60620.0,1175344.46068921,1851896.99390242,17.0,6.0,44.0,41.74898007546014,-87.63304367109832,"(41.74898007546014, -87.63304367109833)",2011-08-01
89785,08/01/2011,Completed - Dup,08/09/2011,11-03508115,Street Lights - All/Out,8000 S PRINCETON AVE,60620.0,1175675.19781004,1851907.51956566,17.0,6.0,44.0,41.74900156605647,-87.631831416368,"(41.749001566056464, -87.63183141636802)",2011-08-01
89786,08/01/2011,Completed - Dup,08/09/2011,11-03508407,Street Lights - All/Out,2247 S HAMLIN AVE,60623.0,1151399.16462984,1888542.1683336003,22.0,10.0,30.0,41.850041115731614,-87.7198306186483,"(41.850041115731614, -87.71983061864829)",2011-08-01
89787,08/01/2011,Completed - Dup,08/09/2011,11-03508571,Street Lights - All/Out,2215 S HAMLIN AVE,60623.0,1151388.67347814,1888930.73339305,22.0,10.0,30.0,41.851107591470964,-87.71985893506626,"(41.851107591470964, -87.71985893506627)",2011-08-01
89788,08/01/2011,Completed - Dup,08/09/2011,11-03508605,Street Lights - All/Out,2942 W MARQUETTE RD,60629.0,1157817.8100226999,1860064.11078667,15.0,8.0,66.0,41.77176539357809,-87.69704691266102,"(41.771765393578086, -87.69704691266102)",2011-08-01
89789,08/01/2011,Completed - Dup,08/09/2011,11-03508715,Street Lights - All/Out,2916 W MARQUETTE RD,60629.0,1158199.26008244,1860075.12528111,15.0,8.0,66.0,41.77178786629329,-87.69564832970984,"(41.77178786629329, -87.69564832970984)",2011-08-01
89790,08/01/2011,Completed - Dup,08/09/2011,11-03508730,Street Lights - All/Out,8000 S HARVARD AVE,60620.0,1175344.46068921,1851896.99390242,17.0,6.0,44.0,41.74898007546014,-87.63304367109832,"(41.74898007546014, -87.63304367109833)",2011-08-01
89791,08/01/2011,Completed - Dup,08/09/2011,11-03508735,Street Lights - All/Out,7900 S YALE AVE,60620.0,1175988.57002512,1852581.76133018,17.0,6.0,44.0,41.75084475059465,-87.63066293007367,"(41.75084475059466, -87.63066293007365)",2011-08-01
89792,08/01/2011,Completed - Dup,08/09/2011,11-03508788,Street Lights - All/Out,3046 W MARQUETTE RD,60629.0,1157137.58989651,1860043.55889422,15.0,8.0,66.0,41.77172277883907,-87.69954095585962,"(41.77172277883907, -87.69954095585962)",2011-08-01
89793,08/01/2011,Completed - Dup,08/09/2011,11-03508807,Street Lights - All/Out,7300 S HOYNE AVE,60636.0,1163625.25567082,1856235.27569328,17.0,7.0,67.0,41.76113866235714,-87.67586586969294,"(41.76113866235714, -87.67586586969293)",2011-08-01
89794,08/01/2011,Completed - Dup,08/09/2011,11-03508875,Street Lights - All/Out,3110 W MARQUETTE RD,60629.0,1156766.39000111,1860034.33158101,15.0,8.0,66.0,41.77170495617907,-87.70090191436822,"(41.77170495617907, -87.7009019143682)",2011-08-01
89795,08/01/2011,Completed - Dup,08/09/2011,11-03508923,Street Lights - All/Out,2252 S HAMLIN AVE,60623.0,1151400.86462984,1888481.3683336002,22.0,10.0,30.0,41.8498742397469,-87.71982597355641,"(41.8498742397469, -87.71982597355641)",2011-08-01
89796,08/01/2011,Completed - Dup,08/10/2011,11-03499801,Street Lights - All/Out,10000 S ESCANABA AVE,60617.0,1197112.79407214,1839108.57318396,10.0,4.0,51.0,41.71337373092887,-87.55370209420441,"(41.713373730928865, -87.55370209420441)",2011-08-01
89797,08/01/2011,Completed - Dup,08/10/2011,11-03500587,Street Lights - All/Out,5800 S MORGAN ST,60621.0,1170634.57447575,1866360.70257886,16.0,7.0,68.0,41.78877417501897,-87.64988128701042,"(41.788774175018965, -87.64988128701042)",2011-08-01
89798,08/01/2011,Completed - Dup,08/10/2011,11-03503367,Street Lights - All/Out,9620 S CRANDON AVE,60617.0,1193474.88997336,1841780.2500099,7.0,4.0,51.0,41.720794693491285,-87.56693802486454,"(41.72079469349129, -87.56693802486454)",2011-08-01
89799,08/01/2011,Completed - Dup,08/10/2011,11-03505925,Street Lights - All/Out,9200 S ANTHONY AVE,60617.0,1196398.00319331,1844441.99593346,7.0,4.0,48.0,41.72802685002052,-87.55614352068613,"(41.72802685002052, -87.55614352068612)",2011-08-01
89800,08/01/2011,Completed - Dup,08/10/2011,11-03507440,Street Lights - All/Out,11200 S EWING AVE,60617.0,1202215.15589509,1831309.18671338,10.0,4.0,52.0,41.691843259922926,-87.53528060245968,"(41.69184325992292, -87.53528060245968)",2011-08-01
89801,08/01/2011,Completed - Dup,08/10/2011,11-03507618,Street Lights - All/Out,9626 S CRANDON AVE,60617.0,1193472.08997336,1841720.5500099,7.0,4.0,51.0,41.72063093934672,-87.56695022702898,"(41.72063093934672, -87.56695022702898)",2011-08-01
89802,08/01/2011,Completed - Dup,08/10/2011,11-03507646,Street Lights - All/Out,9600 S CRANDON AVE,60617.0,1193484.28997336,1841979.0500099,7.0,4.0,51.0,41.72133999014536,-87.56689711282995,"(41.72133999014536, -87.56689711282995)",2011-08-01
89803,08/01/2011,Completed - Dup,08/10/2011,11-03508237,Street Lights - All/Out,5600 S MORGAN ST,60621.0,1170599.38050343,1867687.71739488,16.0,7.0,68.0,41.79241642149513,-87.64997165528608,"(41.792416421495126, -87.64997165528608)",2011-08-01
89804,08/01/2011,Completed - Dup,08/10/2011,11-03508239,Street Lights - All/Out,5600 S MORGAN ST,60621.0,1170599.38050343,1867687.71739488,16.0,7.0,68.0,41.79241642149513,-87.64997165528608,"(41.792416421495126, -87.64997165528608)",2011-08-01
89805,08/01/2011,Completed - Dup,08/10/2011,11-03508492,Street Lights - All/Out,11257 S EWING AVE,60617.0,1202218.45067239,1830928.07866611,10.0,4.0,52.0,41.69079738154272,-87.53528146684347,"(41.69079738154273, -87.53528146684347)",2011-08-01
89806,08/01/2011,Completed - Dup,08/10/2011,11-03508530,Street Lights - All/Out,200 W 23RD PL,60616.0,1175341.94548583,1888734.02993097,25.0,21.0,34.0,41.850064596083456,-87.63195146539425,"(41.85006459608345, -87.63195146539425)",2011-08-01
89807,08/01/2011,Completed - Dup,08/10/2011,11-03508570,Street Lights - All/Out,3429 S HERMITAGE AVE,60608.0,1165243.43992505,1881981.75352159,11.0,9.0,59.0,41.83175603168018,-87.66920606858162,"(41.83175603168018, -87.66920606858162)",2011-08-01
89808,08/01/2011,Completed - Dup,08/10/2011,11-03508596,Street Lights - All/Out,5600 S MORGAN ST,60621.0,1170599.38050343,1867687.71739488,16.0,7.0,68.0,41.79241642149513,-87.64997165528608,"(41.792416421495126, -87.64997165528608)",2011-08-01
89809,08/01/2011,Completed - Dup,08/10/2011,11-03508800,Street Lights - All/Out,258 W 23RD PL,60616.0,1174896.87877046,1888722.61692084,25.0,21.0,34.0,41.850043241476286,-87.63358525723525,"(41.85004324147628, -87.63358525723527)",2011-08-01
89810,08/01/2011,Completed - Dup,08/10/2011,11-03508922,Street Lights - All/Out,349 W 23RD PL,60616.0,1174197.80833186,1888704.20030303,25.0,21.0,34.0,41.85000830779367,-87.63615148235638,"(41.850008307793665, -87.63615148235638)",2011-08-01
89811,08/01/2011,Completed - Dup,08/11/2011,11-03499651,Street Lights - All/Out,7100 S DAMEN AVE,60636.0,1164251.18723398,1857576.6560047,17.0,7.0,67.0,41.76480644645573,-87.67353406786175,"(41.76480644645573, -87.67353406786175)",2011-08-01
89812,08/01/2011,Completed - Dup,08/11/2011,11-03499853,Street Lights - All/Out,5231 S MAPLEWOOD AVE,60632.0,1160256.99612007,1869896.52603147,14.0,9.0,63.0,41.79869701883838,-87.68783499934229,"(41.79869701883838, -87.6878349993423)",2011-08-01
89813,08/01/2011,Completed - Dup,08/11/2011,11-03499916,Street Lights - All/Out,3300 N KEATING AVE,60641.0,1144246.47069279,1921520.38560655,30.0,17.0,15.0,41.940674324474934,-87.74525282336356,"(41.94067432447494, -87.74525282336354)",2011-08-01
89814,08/01/2011,Completed - Dup,08/11/2011,11-03499920,Street Lights - All/Out,3300 N KILPATRICK AVE,60641.0,1144601.36622087,1921528.93682962,30.0,17.0,15.0,41.940691101431305,-87.74394822543978,"(41.940691101431305, -87.74394822543978)",2011-08-01
89815,08/01/2011,Completed - Dup,08/11/2011,11-03503017,Street Lights - All/Out,200 E 69TH ST,60637.0,1178784.90263421,1859311.06240189,20.0,3.0,69.0,41.76924757100894,-87.6202114596948,"(41.76924757100894, -87.62021145969479)",2011-08-01
89816,08/01/2011,Completed - Dup,08/11/2011,11-03503832,Street Lights - All/Out,7100 S DAMEN AVE,60636.0,1164251.18723398,1857576.6560047,17.0,7.0,67.0,41.76480644645573,-87.67353406786175,"(41.76480644645573, -87.67353406786175)",2011-08-01
89817,08/01/2011,Completed - Dup,08/11/2011,11-03503896,Street Lights - All/Out,400 E 89TH ST,60619.0,1180472.53087768,1846060.96457069,6.0,6.0,44.0,41.732849266259336,-87.61443127098619,"(41.732849266259336, -87.6144312709862)",2011-08-01
89818,08/01/2011,Completed - Dup,08/11/2011,11-03504326,Street Lights - All/Out,7310 S DAMEN AVE,60636.0,1164289.6422314,1856181.94720583,17.0,7.0,67.0,41.76097836124268,-87.673432336017,"(41.76097836124268, -87.673432336017)",2011-08-01
89819,08/01/2011,Completed - Dup,08/11/2011,11-03504531,Street Lights - All/Out,1536 E 80TH ST,60619.0,1187896.3700226003,1852246.67010545,8.0,4.0,45.0,41.74965007960636,-87.58703815257618,"(41.74965007960636, -87.58703815257617)",2011-08-01
89820,08/01/2011,Completed - Dup,08/11/2011,11-03505533,Street Lights - All/Out,3300 N KEATING AVE,60641.0,1144246.47069279,1921520.38560655,30.0,17.0,15.0,41.940674324474934,-87.74525282336356,"(41.94067432447494, -87.74525282336354)",2011-08-01
89821,08/01/2011,Completed - Dup,08/11/2011,11-03506910,Street Lights - All/Out,6249 N MAPLEWOOD AVE,60659.0,1158190.6921061,1941397.45771835,50.0,24.0,2.0,41.99494411419157,-87.69345701276545,"(41.99494411419157, -87.69345701276545)",2011-08-01
89822,08/01/2011,Completed - Dup,08/11/2011,11-03507134,Street Lights - All/Out,100 E 69TH ST,60637.0,1178354.23550201,1859296.02939114,20.0,3.0,69.0,41.769216106637685,-87.62179052842824,"(41.76921610663769, -87.62179052842824)",2011-08-01
89823,08/01/2011,Completed - Dup,08/11/2011,11-03507912,Street Lights - All/Out,8000 S BLACKSTONE AVE,60619.0,1187553.77298148,1852239.0896685002,8.0,4.0,45.0,41.74963742565725,-87.58829379320316,"(41.74963742565725, -87.58829379320316)",2011-08-01
89824,08/01/2011,Completed - Dup,08/11/2011,11-03508217,Street Lights - All/Out,5500 S MICHIGAN AVE,60637.0,1178096.36942786,1868460.6910186,20.0,2.0,40.0,41.79437071749697,-87.6224580156842,"(41.79437071749697, -87.6224580156842)",2011-08-01
89825,08/01/2011,Completed - Dup,08/11/2011,11-03508272,Street Lights - All/Out,3100 W PERSHING RD,60632.0,1156328.83079464,1878591.75141693,12.0,9.0,58.0,41.82263790999555,-87.70200627827107,"(41.82263790999555, -87.70200627827107)",2011-08-01
89826,08/01/2011,Completed - Dup,08/11/2011,11-03508385,Street Lights - All/Out,1542 E 80TH ST,60619.0,1187919.6700226,1852247.17010545,8.0,4.0,45.0,41.749650897045115,-87.5869527570314,"(41.74965089704512, -87.5869527570314)",2011-08-01
89827,08/01/2011,Completed - Dup,08/11/2011,11-03508482,Street Lights - All/Out,1513 W SUPERIOR ST,60642.0,1165979.17840469,1905099.65681755,27.0,13.0,24.0,41.89517793837543,-87.6658470793067,"(41.895177938375426, -87.6658470793067)",2011-08-01
89828,08/01/2011,Completed - Dup,08/11/2011,11-03508535,Street Lights - All/Out,3124 W PERSHING RD,60632.0,1156168.03079464,1878586.35141693,12.0,9.0,58.0,41.82262633249321,-87.70259633620972,"(41.82262633249321, -87.70259633620972)",2011-08-01
89829,08/01/2011,Completed - Dup,08/11/2011,11-03508575,Street Lights - All/Out,7200 S DAMEN AVE,60636.0,1164269.93532247,1856911.38050763,17.0,7.0,67.0,41.762980443246605,-87.6734840560101,"(41.7629804432466, -87.6734840560101)",2011-08-01
89830,08/01/2011,Completed - Dup,08/11/2011,11-03508604,Street Lights - All/Out,7100 S DAMEN AVE,60636.0,1164251.18723398,1857576.6560047,17.0,7.0,67.0,41.76480644645573,-87.67353406786175,"(41.76480644645573, -87.67353406786175)",2011-08-01
89831,08/01/2011,Completed - Dup,08/11/2011,11-03508662,Street Lights - All/Out,700 N ARMOUR ST,60642.0,1166047.12697424,1904773.76007391,27.0,13.0,24.0,41.89428220336833,-87.66560683755553,"(41.89428220336833, -87.66560683755552)",2011-08-01
89832,08/01/2011,Completed - Dup,08/11/2011,11-03508794,Street Lights - All/Out,7331 S DAMEN AVE,60636.0,1164293.3422313998,1856039.74720583,17.0,7.0,67.0,41.76058806655468,-87.6734227733318,"(41.760588066554675, -87.6734227733318)",2011-08-01
89833,08/01/2011,Completed - Dup,08/11/2011,11-03508832,Street Lights - All/Out,7755 S KARLOV AVE,60652.0,1150552.17999441,1852771.87321861,13.0,8.0,70.0,41.751898696291754,-87.72387006767244,"(41.75189869629176, -87.72387006767244)",2011-08-01
89834,08/01/2011,Completed - Dup,08/11/2011,11-03508917,Street Lights - All/Out,3241 S THROOP ST,60608.0,1168190.09181795,1883201.27688876,11.0,9.0,60.0,41.83503950117917,-87.65835934670271,"(41.835039501179175, -87.6583593467027)",2011-08-01
89835,08/01/2011,Completed - Dup,08/12/2011,11-03499697,Street Lights - All/Out,7900 S SOUTH SHORE DR,60617.0,1198500.49436963,1853188.5980964,7.0,4.0,46.0,41.751975830956184,-87.54814954816523,"(41.75197583095619, -87.54814954816523)",2011-08-01
89836,08/01/2011,Completed - Dup,08/12/2011,11-03499701,Street Lights - All/Out,2200 S KOSTNER AVE,60623.0,1147398.66448841,1889009.17838419,22.0,10.0,29.0,41.851400141920415,-87.73450128067506,"(41.851400141920415, -87.73450128067506)",2011-08-01
89837,08/01/2011,Completed - Dup,08/12/2011,11-03499715,Street Lights - All/Out,9200 S ESSEX AVE,60617.0,1194437.02169447,1844449.65758099,7.0,4.0,48.0,41.7280962359651,-87.56332656434662,"(41.72809623596509, -87.56332656434662)",2011-08-01
89838,08/01/2011,Completed - Dup,08/12/2011,11-03499794,Street Lights - All/Out,1244 E 93RD ST,60619.0,1186221.49648251,1843565.82213047,8.0,4.0,47.0,41.725868624730225,-87.59344897963051,"(41.725868624730225, -87.59344897963052)",2011-08-01
89839,08/01/2011,Completed - Dup,08/12/2011,11-03501461,Street Lights - All/Out,13200 S AVENUE L,60633.0,1202075.71000776,1817961.30001759,10.0,4.0,55.0,41.655218887101,-87.53624315834783,"(41.655218887101, -87.53624315834784)",2011-08-01
89840,08/01/2011,Completed - Dup,08/12/2011,11-03502119,Street Lights - All/Out,9200 S ESSEX AVE,60617.0,1194437.02169447,1844449.65758099,7.0,4.0,48.0,41.7280962359651,-87.56332656434662,"(41.72809623596509, -87.56332656434662)",2011-08-01
89841,08/01/2011,Completed - Dup,08/12/2011,11-03503510,Street Lights - All/Out,2200 S KOSTNER AVE,60623.0,1147398.66448841,1889009.17838419,22.0,10.0,29.0,41.851400141920415,-87.73450128067506,"(41.851400141920415, -87.73450128067506)",2011-08-01
89842,08/01/2011,Completed - Dup,08/12/2011,11-03503969,Street Lights - All/Out,9200 S ESSEX AVE,60617.0,1194437.02169447,1844449.65758099,7.0,4.0,48.0,41.7280962359651,-87.56332656434662,"(41.72809623596509, -87.56332656434662)",2011-08-01
89843,08/01/2011,Completed - Dup,08/12/2011,11-03506284,Street Lights - All/Out,1143 E 93RD ST,60619.0,1185560.00309634,1843547.44137161,8.0,4.0,47.0,41.725833762482154,-87.59587261858215,"(41.725833762482154, -87.59587261858216)",2011-08-01
89844,08/01/2011,Completed - Dup,08/12/2011,11-03506857,Street Lights - All/Out,1255 E 93RD ST,60619.0,1186275.59648251,1843567.42213047,8.0,4.0,47.0,41.725871739119135,-87.59325076005602,"(41.72587173911913, -87.59325076005601)",2011-08-01
89845,08/01/2011,Completed - Dup,08/12/2011,11-03508484,Street Lights - All/Out,2200 S KOSTNER AVE,60623.0,1147398.66448841,1889009.17838419,22.0,10.0,29.0,41.851400141920415,-87.73450128067506,"(41.851400141920415, -87.73450128067506)",2011-08-01
89846,08/01/2011,Completed - Dup,08/12/2011,11-03508526,Street Lights - All/Out,234 N LECLAIRE AVE,60644.0,1142335.7849852,1901148.29417807,28.0,15.0,25.0,41.884806841575525,-87.7527821730893,"(41.88480684157552, -87.7527821730893)",2011-08-01
89847,08/01/2011,Completed - Dup,08/12/2011,11-03508618,Street Lights - All/Out,5400 S LAFLIN ST,60609.0,1167253.6928114,1868925.84582437,16.0,9.0,61.0,41.79588631566056,-87.66220436195519,"(41.79588631566056, -87.66220436195518)",2011-08-01
89848,08/01/2011,Completed - Dup,08/12/2011,11-03508690,Street Lights - All/Out,1255 E 93RD ST,60619.0,1186275.59648251,1843567.42213047,8.0,4.0,47.0,41.725871739119135,-87.59325076005602,"(41.72587173911913, -87.59325076005601)",2011-08-01
89849,08/01/2011,Completed - Dup,08/12/2011,11-03508802,Street Lights - All/Out,6700 S LANGLEY AVE,60637.0,1182045.05556946,1860741.6651307999,6.0,3.0,42.0,41.77309848755715,-87.60821716419848,"(41.77309848755715, -87.60821716419848)",2011-08-01
89850,08/01/2011,Completed - Dup,08/12/2011,11-03508913,Street Lights - All/Out,1218 E 93RD ST,60619.0,1186023.99648251,1843560.22213047,8.0,4.0,47.0,41.725857913718826,-87.5941726016137,"(41.725857913718826, -87.59417260161372)",2011-08-01
89851,08/01/2011,Completed - Dup,08/12/2011,11-03508929,Street Lights - All/Out,1200 E 93RD ST,60619.0,1185832.3176911,1843554.76479133,8.0,4.0,47.0,41.72584745259165,-87.59487489575655,"(41.72584745259165, -87.59487489575655)",2011-08-01
89852,08/01/2011,Completed - Dup,08/13/2011,11-03500349,Street Lights - All/Out,1400 E 71ST PL,60619.0,1186775.02400661,1857870.03127824,5.0,3.0,43.0,41.76510772699982,-87.59096935681677,"(41.76510772699982, -87.59096935681677)",2011-08-01
89853,08/01/2011,Completed - Dup,08/13/2011,11-03507751,Street Lights - All/Out,1510 E 71ST PL,60619.0,1187542.42819649,1857884.72580483,5.0,3.0,43.0,41.76512984098207,-87.58815616681412,"(41.76512984098207, -87.58815616681413)",2011-08-01
89854,08/01/2011,Completed - Dup,08/15/2011,11-03499640,Street Lights - All/Out,8500 S CHAPPEL AVE,60617.0,1191326.99206792,1849018.32558151,8.0,4.0,45.0,41.7407088718633,-87.57457144857649,"(41.7407088718633, -87.57457144857649)",2011-08-01
89855,08/01/2011,Completed - Dup,08/15/2011,11-03508408,Street Lights - All/Out,6600 S MORGAN ST,60621.0,1170780.27516799,1861058.77102312,17.0,7.0,68.0,41.774221873875256,-87.64950165667605,"(41.774221873875256, -87.64950165667604)",2011-08-01
89856,08/01/2011,Completed - Dup,08/15/2011,11-03508475,Street Lights - All/Out,1437 W 45TH ST,60609.0,1167481.10197756,1874885.89042307,3.0,9.0,61.0,41.81223647731825,-87.6611995269483,"(41.81223647731825, -87.6611995269483)",2011-08-01
89857,08/01/2011,Completed - Dup,08/15/2011,11-03508566,Street Lights - All/Out,7000 S JUSTINE ST,60636.0,1167214.14407634,1858306.87316862,17.0,7.0,67.0,41.76674737759244,-87.66265311091993,"(41.76674737759244, -87.66265311091993)",2011-08-01
89858,08/01/2011,Completed - Dup,08/16/2011,11-03501344,Street Lights - All/Out,9300 S ELIZABETH ST,60620.0,1169625.87141958,1843102.86419533,21.0,22.0,73.0,41.72497355087496,-87.65425299148664,"(41.72497355087495, -87.65425299148664)",2011-08-01
89859,08/01/2011,Completed - Dup,08/16/2011,11-03501635,Street Lights - All/Out,7900 S WOODLAWN AVE,60619.0,1185584.44843443,1852859.56641188,8.0,4.0,45.0,41.75138664344302,-87.59549062380877,"(41.75138664344302, -87.59549062380876)",2011-08-01
89860,08/01/2011,Completed - Dup,08/16/2011,11-03503730,Street Lights - All/Out,2700 S SPRINGFIELD AVE,60623.0,1150811.58020795,1885769.6837749002,22.0,10.0,30.0,41.842444569169615,-87.7220595912899,"(41.84244456916962, -87.7220595912899)",2011-08-01
89861,08/01/2011,Completed - Dup,08/16/2011,11-03504438,Street Lights - All/Out,9346 S ELIZABETH ST,60620.0,1169633.87141958,1842793.76419533,21.0,22.0,73.0,41.7241251617789,-87.65423261941046,"(41.7241251617789, -87.65423261941045)",2011-08-01
89862,08/01/2011,Completed - Dup,08/16/2011,11-03505527,Street Lights - All/Out,3400 N KEATING AVE,60641.0,1144228.4860103999,1922186.01297859,30.0,17.0,15.0,41.942501205453695,-87.74530214208198,"(41.942501205453695, -87.74530214208198)",2011-08-01
89863,08/01/2011,Completed - Dup,08/16/2011,11-03508293,Street Lights - All/Out,7934 S WOODLAWN AVE,60619.0,1185593.71681037,1852511.76991736,8.0,4.0,45.0,41.750432037060975,-87.59546759012908,"(41.750432037060975, -87.59546759012906)",2011-08-01
89864,08/01/2011,Completed - Dup,08/16/2011,11-03508315,Street Lights - All/Out,8000 S WOODLAWN AVE,60619.0,1185602.2509795,1852192.84380489,8.0,4.0,45.0,41.749556671026866,-87.59544634005917,"(41.74955667102687, -87.59544634005917)",2011-08-01
89865,08/01/2011,Completed - Dup,08/16/2011,11-03508403,Street Lights - All/Out,9345 S ELIZABETH ST,60620.0,1169633.77141958,1842800.46419533,21.0,22.0,73.0,41.724143549731544,-87.65423279210188,"(41.72414354973154, -87.65423279210188)",2011-08-01
89866,08/01/2011,Completed - Dup,08/16/2011,11-03508504,Street Lights - All/Out,8099 S UNIVERSITY AVE,60619.0,1185282.51057145,1851523.85770774,8.0,4.0,45.0,41.74772842385805,-87.59663897458788,"(41.74772842385805, -87.59663897458788)",2011-08-01
89867,08/01/2011,Completed - Dup,08/16/2011,11-03508508,Street Lights - All/Out,7900 S WOODLAWN AVE,60619.0,1185584.44843443,1852859.56641188,8.0,4.0,45.0,41.75138664344302,-87.59549062380877,"(41.75138664344302, -87.59549062380876)",2011-08-01
89868,08/01/2011,Completed - Dup,08/16/2011,11-03508621,Street Lights - All/Out,7900 S WOODLAWN AVE,60619.0,1185584.44843443,1852859.56641188,8.0,4.0,45.0,41.75138664344302,-87.59549062380877,"(41.75138664344302, -87.59549062380876)",2011-08-01
89869,08/01/2011,Completed - Dup,08/16/2011,11-03508892,Street Lights - All/Out,8000 S UNIVERSITY AVE,60619.0,1185279.41850805,1852170.45510553,8.0,4.0,45.0,41.74950282542858,-87.59663001855962,"(41.74950282542858, -87.59663001855962)",2011-08-01
89870,08/01/2011,Completed - Dup,08/17/2011,11-03499692,Street Lights - All/Out,8300 S JEFFERY BLVD,60617.0,1190963.9144135,1850398.20492737,8.0,4.0,45.0,41.74450416391911,-87.57585720623196,"(41.74450416391911, -87.57585720623196)",2011-08-01
89871,08/01/2011,Completed - Dup,08/17/2011,11-03501451,Street Lights - All/Out,8200 S LA SALLE ST,60620.0,1176703.93562673,1850608.57318495,21.0,6.0,44.0,41.74541402215743,-87.62810076228277,"(41.745414022157426, -87.62810076228277)",2011-08-01
89872,08/01/2011,Completed - Dup,08/17/2011,11-03501651,Street Lights - All/Out,8137 S CALUMET AVE,60619.0,1179887.35749837,1851123.49382731,6.0,6.0,44.0,41.74675483571581,-87.61642051200846,"(41.74675483571581, -87.61642051200845)",2011-08-01
89873,08/01/2011,Completed - Dup,08/17/2011,11-03508538,Street Lights - All/Out,9800 S YATES AVE,60617.0,1194115.48381704,1840452.11889041,7.0,4.0,51.0,41.7171345017909,-87.5646351534313,"(41.7171345017909, -87.5646351534313)",2011-08-01
89874,08/01/2011,Completed - Dup,08/17/2011,11-03508776,Street Lights - All/Out,8300 S SOUTH CHICAGO AVE,60617.0,1191026.89100882,1850338.79998698,8.0,4.0,45.0,41.74433962991295,-87.57562837279755,"(41.74433962991295, -87.57562837279754)",2011-08-01
89875,08/01/2011,Completed - Dup,08/18/2011,11-03499649,Street Lights - All/Out,8100 S WOODLAWN AVE,60619.0,1185619.71260264,1851529.65861598,8.0,4.0,45.0,41.74773641309049,-87.59540319613733,"(41.74773641309049, -87.59540319613733)",2011-08-01
89876,08/01/2011,Completed - Dup,08/18/2011,11-03502483,Street Lights - All/Out,8100 S WOODLAWN AVE,60619.0,1185619.71260264,1851529.65861598,8.0,4.0,45.0,41.74773641309049,-87.59540319613733,"(41.74773641309049, -87.59540319613733)",2011-08-01
89877,08/01/2011,Completed - Dup,08/18/2011,11-03502533,Street Lights - All/Out,1128 E 81ST ST,60619.0,1185278.11057145,1851523.65770774,8.0,4.0,45.0,41.74772797841245,-87.5966551036127,"(41.747727978412456, -87.5966551036127)",2011-08-01
89878,08/01/2011,Completed - Dup,08/18/2011,11-03502797,Street Lights - All/Out,9300 S RIDGELAND AVE,60617.0,1189488.70009697,1843654.74646799,8.0,4.0,48.0,41.72603495799979,-87.58147833732653,"(41.72603495799979, -87.58147833732653)",2011-08-01
89879,08/01/2011,Completed - Dup,08/18/2011,11-03504785,Street Lights - All/Out,1142 E 81ST ST,60619.0,1185349.01057145,1851524.95770774,8.0,4.0,45.0,41.74772987972529,-87.59639526668987,"(41.74772987972529, -87.59639526668987)",2011-08-01
89880,08/01/2011,Completed - Dup,08/18/2011,11-03505481,Street Lights - All/Out,641 W 54TH PL,60609.0,1172932.47818862,1868751.7419938,3.0,9.0,61.0,41.795285009033655,-87.64138514825811,"(41.795285009033655, -87.64138514825811)",2011-08-01
89881,08/01/2011,Completed - Dup,08/18/2011,11-03505629,Street Lights - All/Out,6900 S PERRY AVE,60621.0,1176588.78323413,1859239.30160755,6.0,7.0,69.0,41.7691003361954,-87.62826351252069,"(41.7691003361954, -87.62826351252069)",2011-08-01
89882,08/01/2011,Completed - Dup,08/18/2011,11-03508525,Street Lights - All/Out,8200 S SACRAMENTO AVE,60652.0,1157805.8055882,1850093.94798239,18.0,8.0,70.0,41.74440596664497,-87.69736110107435,"(41.74440596664497, -87.69736110107436)",2011-08-01
89883,08/01/2011,Completed - Dup,08/18/2011,11-03508931,Street Lights - All/Out,6900 S INDIANA AVE,60637.0,1178784.90263421,1859311.06240189,6.0,3.0,69.0,41.76924757100894,-87.6202114596948,"(41.76924757100894, -87.62021145969479)",2011-08-01
89884,08/01/2011,Completed - Dup,08/19/2011,11-03501723,Street Lights - All/Out,9700 S AVENUE H,60617.0,1202776.72451136,1841414.30880127,10.0,4.0,52.0,41.719558239818795,-87.53288080045071,"(41.719558239818795, -87.53288080045071)",2011-08-01
89885,08/01/2011,Completed - Dup,08/19/2011,11-03502190,Street Lights - All/Out,4400 W 79TH ST,60652.0,1148440.64618182,1851843.98877415,13.0,8.0,70.0,41.74939320265298,-87.73163176990639,"(41.749393202652975, -87.73163176990639)",2011-08-01
89886,08/01/2011,Completed - Dup,08/20/2011,11-03508436,Street Lights - All/Out,800 E 49TH ST,60615.0,1182415.85160272,1872695.95142354,4.0,21.0,39.0,41.80589351544983,-87.60648745839424,"(41.80589351544983, -87.60648745839424)",2011-08-01
89887,08/01/2011,Completed - Dup,08/20/2011,11-03508902,Street Lights - All/Out,4500 S COTTAGE GROVE AVE,60653.0,1182349.93752649,1875348.26452847,4.0,2.0,38.0,41.813173200244606,-87.6066469501361,"(41.813173200244606, -87.6066469501361)",2011-08-01
89888,08/01/2011,Completed - Dup,08/22/2011,11-03505213,Street Lights - All/Out,9400 S COMMERCIAL AVE,60617.0,1197780.30757117,1843148.9222040002,10.0,4.0,48.0,41.72444418780898,-87.55112303790561,"(41.72444418780898, -87.55112303790563)",2011-08-01
89889,08/01/2011,Completed - Dup,08/22/2011,11-03508511,Street Lights - All/Out,4412 S WALLACE ST,60609.0,1173034.43006672,1875603.45697527,11.0,9.0,61.0,41.814084555696134,-87.6408088459969,"(41.814084555696134, -87.64080884599689)",2011-08-01
89890,08/01/2011,Completed - Dup,08/22/2011,11-03508933,Street Lights - All/Out,4800 S DREXEL BLVD,60615.0,1182997.06996988,1873374.0899897998,4.0,21.0,39.0,41.807740872968814,-87.60433469697763,"(41.807740872968814, -87.60433469697762)",2011-08-01
89891,08/01/2011,Completed - Dup,08/23/2011,11-03499659,Street Lights - All/Out,6700 S SOUTH SHORE DR,60649.0,1193338.33412355,1861007.40981502,5.0,3.0,43.0,41.77355896343469,-87.56681082621824,"(41.77355896343469, -87.56681082621823)",2011-08-01
89892,08/01/2011,Completed - Dup,08/23/2011,11-03505464,Street Lights - All/Out,4500 S ST LAWRENCE AVE,60653.0,1181015.13510017,1875309.02647393,3.0,2.0,38.0,41.813096397333325,-87.61154421441111,"(41.813096397333325, -87.61154421441111)",2011-08-01
89893,08/01/2011,Completed - Dup,08/23/2011,11-03507969,Street Lights - All/Out,5400 S INDIANA AVE,60615.0,1178516.77363197,1869259.00012233,3.0,2.0,40.0,41.79655180257915,-87.62089215916906,"(41.79655180257915, -87.62089215916906)",2011-08-01
89894,08/01/2011,Completed - Dup,08/23/2011,11-03508491,Street Lights - All/Out,8855 S ESCANABA AVE,60617.0,1196926.05750059,1846808.45687324,10.0,4.0,46.0,41.73450751543694,-87.55413072486635,"(41.73450751543694, -87.55413072486634)",2011-08-01
89895,08/01/2011,Completed - Dup,08/23/2011,11-03508939,Street Lights - All/Out,260 N PULASKI RD,60624.0,1149686.05337431,1901228.30011165,28.0,11.0,26.0,41.884886763232544,-87.72578854269516,"(41.88488676323255, -87.72578854269516)",2011-08-01
89896,08/01/2011,Completed - Dup,08/24/2011,11-03508430,Street Lights - All/Out,8700 S BUFFALO AVE,60617.0,1199551.46892087,1847912.54767486,10.0,4.0,46.0,41.73747159508171,-87.54447553989243,"(41.73747159508171, -87.54447553989242)",2011-08-01
89897,08/01/2011,Completed - Dup,08/24/2011,11-03508607,Street Lights - All/Out,8700 S BUFFALO AVE,60617.0,1199551.46892087,1847912.54767486,10.0,4.0,46.0,41.73747159508171,-87.54447553989243,"(41.73747159508171, -87.54447553989242)",2011-08-01
89898,08/01/2011,Completed,08/01/2011,11-03503437,Street Lights - All/Out,2300 S DR MARTIN LUTHER KING JR DR,60616.0,1178875.99760794,1889181.02329022,2.0,1.0,33.0,41.851211235400974,-87.61896743406822,"(41.851211235400974, -87.61896743406822)",2011-08-01
89899,08/01/2011,Completed,08/02/2011,11-03499650,Street Lights - All/Out,1300 E 81ST ST,60619.0,1186284.28758746,1851544.84138715,8.0,4.0,45.0,41.74776241025465,-87.59296754228279,"(41.74776241025465, -87.5929675422828)",2011-08-01
89900,08/01/2011,Completed,08/02/2011,11-03499717,Street Lights - All/Out,3445 S RHODES AVE,60616.0,1180460.77391185,1882220.7964861,4.0,21.0,35.0,41.83207558118727,-87.61336516591406,"(41.83207558118727, -87.61336516591406)",2011-08-01
89901,08/01/2011,Completed,08/02/2011,11-03499807,Street Lights - All/Out,1010 W ROOSEVELT RD,60608.0,1169966.75700032,1894891.97539854,25.0,12.0,28.0,41.867081278766115,-87.65149965517969,"(41.86708127876612, -87.65149965517969)",2011-08-01
89902,08/01/2011,Completed,08/02/2011,11-03500409,Street Lights - All/Out,2100 E 75TH ST,60649.0,1191513.63170445,1855651.28910066,5.0,3.0,43.0,41.758905780786705,-87.57367306349859,"(41.7589057807867, -87.57367306349859)",2011-08-01
89903,08/01/2011,Completed,08/02/2011,11-03503064,Street Lights - All/Out,2710 E 83RD ST,60617.0,1195716.68399917,1850461.70721727,7.0,4.0,46.0,41.74456229301393,-87.55844072538319,"(41.74456229301393, -87.55844072538318)",2011-08-01
89904,08/01/2011,Completed,08/02/2011,11-03503960,Street Lights - All/Out,1500 W 18TH ST,60608.0,1166652.67658623,1891496.28522656,25.0,12.0,31.0,41.857834798188364,-87.66376326246531,"(41.85783479818837, -87.66376326246532)",2011-08-01
89905,08/01/2011,Completed,08/02/2011,11-03504841,Street Lights - All/Out,3949 W FILLMORE ST,60624.0,1150215.10151751,1895080.47818195,24.0,11.0,29.0,41.86800615659948,-87.72400605279266,"(41.86800615659948, -87.72400605279266)",2011-08-01
89906,08/01/2011,Completed,08/02/2011,11-03506981,Street Lights - All/Out,3028 N MARMORA AVE,60634.0,1136525.62220759,1919526.45036722,30.0,25.0,19.0,41.93534459304573,-87.77367795473214,"(41.93534459304573, -87.77367795473214)",2011-08-01
89907,08/01/2011,Completed,08/02/2011,11-03507693,Street Lights - All/Out,2421 W BERWYN AVE,60625.0,1159140.30020932,1935118.85543232,40.0,20.0,4.0,41.977695844021945,-87.69013734454875,"(41.977695844021945, -87.69013734454873)",2011-08-01
89908,08/01/2011,Completed,08/02/2011,11-03508728,Street Lights - All/Out,2000 S MAY ST,60608.0,1169110.10200339,1890563.8133888,25.0,12.0,31.0,41.855223075143755,-87.65477011590166,"(41.85522307514376, -87.65477011590166)",2011-08-01
89909,08/01/2011,Completed,08/02/2011,11-03508736,Street Lights - All/Out,2100 S CARPENTER ST,60608.0,1169571.16987921,1890068.14927346,25.0,12.0,31.0,41.853852919960204,-87.6530922087003,"(41.8538529199602, -87.65309220870029)",2011-08-01
89910,08/01/2011,Completed,08/02/2011,11-03508760,Street Lights - All/Out,1600 W 21ST ST,60608.0,1166040.09429695,1890152.8400263,25.0,12.0,31.0,41.85416134937397,-87.66605012635657,"(41.85416134937397, -87.66605012635657)",2011-08-01
89911,08/01/2011,Completed,08/03/2011,11-03499639,Street Lights - All/Out,3200 W MARQUETTE RD,60629.0,1156203.11423095,1860019.25941209,15.0,8.0,66.0,41.7716749436059,-87.70296712301098,"(41.771674943605895, -87.70296712301099)",2011-08-01
89912,08/01/2011,Completed,08/03/2011,11-03499685,Street Lights - All/Out,3740 W CONGRESS PKWY,60624.0,1151343.15492744,1897437.27242763,28.0,11.0,27.0,41.87445141816707,-87.71980288305382,"(41.87445141816707, -87.71980288305382)",2011-08-01
89913,08/01/2011,Completed,08/03/2011,11-03499705,Street Lights - All/Out,9959 S CLYDE AVE,60617.0,1192154.09002813,1839354.13677261,7.0,4.0,51.0,41.71416935791788,-87.57185432584923,"(41.714169357917875, -87.57185432584924)",2011-08-01
89914,08/01/2011,Completed,08/03/2011,11-03499783,Street Lights - All/Out,4250 S ARTHUR AVE,,1156655.89981868,1876234.14028093,14.0,9.0,58.0,41.81616172358074,-87.7008700532131,"(41.81616172358074, -87.70087005321311)",2011-08-01
89915,08/01/2011,Completed,08/03/2011,11-03499817,Street Lights - All/Out,4900 W AINSLIE ST,60630.0,1142806.39351679,1932132.89748516,45.0,16.0,12.0,41.96982297309964,-87.75028030921837,"(41.96982297309964, -87.75028030921837)",2011-08-01
89916,08/01/2011,Completed,08/03/2011,11-03499823,Street Lights - All/Out,5301 S KENNETH AVE,60632.0,1147595.37391473,1869095.08083218,23.0,8.0,62.0,41.79674925850515,-87.73428891170613,"(41.79674925850515, -87.73428891170613)",2011-08-01
89917,08/01/2011,Completed,08/03/2011,11-03500631,Street Lights - All/Out,4610 S WINCHESTER AVE,60609.0,1164128.74007564,1874103.08547757,20.0,9.0,61.0,41.810159661222116,-87.67351801278951,"(41.81015966122212, -87.67351801278951)",2011-08-01
89918,08/01/2011,Completed,08/03/2011,11-03501288,Street Lights - All/Out,7747 W RASCHER AVE,60656.0,1123685.83001739,1935256.1332788998,41.0,16.0,10.0,41.978729021052594,-87.82051993081501,"(41.978729021052594, -87.82051993081502)",2011-08-01
89919,08/01/2011,Completed,08/03/2011,11-03501820,Street Lights - All/Out,4815 S WOOD ST,60609.0,1165159.49071745,1872763.47307521,20.0,9.0,61.0,41.80646183126749,-87.66977528491907,"(41.80646183126749, -87.66977528491907)",2011-08-01
89920,08/01/2011,Completed,08/03/2011,11-03502319,Street Lights - All/Out,3359 S PULASKI RD,60623.0,1150239.34179337,1882103.76577054,22.0,10.0,30.0,41.832395967263615,-87.72425496159596,"(41.832395967263615, -87.72425496159595)",2011-08-01
89921,08/01/2011,Completed,08/03/2011,11-03502811,Street Lights - All/Out,5500 S PRINCETON AVE,60621.0,1175225.2217111,1868361.25389395,3.0,7.0,68.0,41.794162520606434,-87.63298932336498,"(41.79416252060643, -87.63298932336498)",2011-08-01
89922,08/01/2011,Completed,08/03/2011,11-03503049,Street Lights - All/Out,1700 N MOODY AVE,60639.0,1135154.40029287,1910659.53231954,29.0,25.0,25.0,41.91103719070159,-87.77892802964884,"(41.91103719070159, -87.77892802964884)",2011-08-01
89923,08/01/2011,Completed,08/03/2011,11-03503258,Street Lights - All/Out,4900 W FULTON ST,60644.0,1143658.34020064,1901486.04929406,28.0,15.0,25.0,41.88570902726151,-87.74791702961281,"(41.88570902726151, -87.74791702961282)",2011-08-01
89924,08/01/2011,Completed,08/03/2011,11-03503475,Street Lights - All/Out,2430 S WHIPPLE ST,60623.0,1156411.8890018999,1887703.56187683,12.0,10.0,30.0,41.84764013825878,-87.70145567312052,"(41.84764013825878, -87.70145567312052)",2011-08-01
89925,08/01/2011,Completed,08/03/2011,11-03504937,Street Lights - All/Out,3600 W GRACE ST,60618.0,1151714.46968006,1925025.3266881001,35.0,17.0,16.0,41.950148281689984,-87.71771253872629,"(41.950148281689984, -87.71771253872629)",2011-08-01
89926,08/01/2011,Completed,08/03/2011,11-03505320,Street Lights - All/Out,400 E 87TH ST,60619.0,1180435.02037218,1847392.13926803,6.0,6.0,44.0,41.73650302791872,-87.61452795931898,"(41.73650302791872, -87.61452795931898)",2011-08-01
89927,08/01/2011,Completed,08/03/2011,11-03505420,Street Lights - All/Out,8600 S RHODES AVE,60619.0,1181298.88912834,1848084.0365038002,6.0,6.0,44.0,41.738381831482975,-87.61134179305756,"(41.738381831482975, -87.61134179305755)",2011-08-01
89928,08/01/2011,Completed,08/03/2011,11-03505490,Street Lights - All/Out,3632 N PARKVIEW TER,60618.0,1151375.59461693,1924229.90422736,35.0,17.0,16.0,41.947972255642256,-87.71897917596412,"(41.947972255642256, -87.71897917596412)",2011-08-01
89929,08/01/2011,Completed,08/03/2011,11-03505505,Street Lights - All/Out,240 E 95TH ST,60619.0,1179633.76227546,1842039.16651724,6.0,6.0,49.0,41.721832135719254,-87.61762654618025,"(41.72183213571926, -87.61762654618025)",2011-08-01
89930,08/01/2011,Completed,08/03/2011,11-03505523,Street Lights - All/Out,3700 N LAWNDALE AVE,60618.0,1151063.37988324,1924435.28416744,39.0,17.0,16.0,41.948541968940795,-87.72012141346565,"(41.9485419689408, -87.72012141346565)",2011-08-01
89931,08/01/2011,Completed,08/03/2011,11-03505544,Street Lights - All/Out,3600 N MONTICELLO AVE,60618.0,1151404.18002198,1924179.45997386,35.0,17.0,16.0,41.94783327052461,-87.71887543106645,"(41.94783327052461, -87.71887543106646)",2011-08-01
89932,08/01/2011,Completed,08/03/2011,11-03505885,Street Lights - All/Out,4600 N VIRGINIA AVE,60625.0,1157566.22289062,1930406.32623032,47.0,19.0,4.0,41.96479670541865,-87.69605491216477,"(41.96479670541865, -87.69605491216477)",2011-08-01
89933,08/01/2011,Completed,08/03/2011,11-03506318,Street Lights - All/Out,10352 S CAMPBELL AVE,60655.0,1161535.64789737,1835915.49488161,19.0,22.0,72.0,41.70542151371786,-87.68408624938934,"(41.70542151371786, -87.68408624938935)",2011-08-01
89934,08/01/2011,Completed,08/03/2011,11-03507013,Street Lights - All/Out,1300 E 71ST PL,60619.0,1186118.43289125,1857849.52932586,5.0,3.0,43.0,41.76506699281372,-87.59337657179053,"(41.765066992813715, -87.59337657179053)",2011-08-01
89935,08/01/2011,Completed,08/03/2011,11-03507628,Street Lights - All/Out,8300 S MUSKEGON AVE,60617.0,1196604.51102326,1850365.64126866,10.0,4.0,46.0,41.74427669535206,-87.55519086840083,"(41.74427669535206, -87.55519086840083)",2011-08-01
