Creation Date,Status,Completion Date,Service Request Number,Type of Service Request,Location of Trees,Street Address,ZIP Code,X Coordinate,Y Coordinate,Ward,Police District,Community Area,Latitude,Longitude,Location,date
08/01/2011,Completed - Dup,01/05/2012,11-03506209,Tree Trim,Vacant Lot,5940 S LAFLIN ST,60636.0,1167351.54370349,1865340.84686838,15.0,7.0,67.0,41.78604655235989,-87.66194820186243,"(41.786046552359885, -87.66194820186243)",2011-08-01
08/01/2011,Completed - Dup,01/06/2012,11-03506339,Tree Trim,Parkway,2045 W SCHOOL ST,60618.0,1162035.02019109,1921905.12841007,32.0,19.0,5.0,41.94137659562517,-87.67986263281122,"(41.941376595625165, -87.67986263281122)",2011-08-01
08/01/2011,Completed - Dup,01/07/2013,11-03504034,Tree Trim,Parkway,9000 S OGLESBY AVE,60617.0,1193403.25312657,1845754.49628304,7.0,4.0,48.0,41.73170214736422,-87.56707083103151,"(41.73170214736422, -87.56707083103151)",2011-08-01
08/01/2011,Completed - Dup,01/07/2013,11-03505012,Tree Trim,Alley,9000 S OGLESBY AVE,60617.0,1193403.25312657,1845754.49628304,7.0,4.0,48.0,41.73170214736422,-87.56707083103151,"(41.73170214736422, -87.56707083103151)",2011-08-01
08/01/2011,Completed - Dup,01/09/2013,11-03504788,Tree Trim,,4315 N MOODY AVE,60634.0,1134575.24061804,1928068.739306,38.0,16.0,15.0,41.95882025211457,-87.78064339330605,"(41.95882025211457, -87.78064339330604)",2011-08-01
08/01/2011,Completed - Dup,01/17/2012,11-03508397,Tree Trim,Parkway,3853 N GREENVIEW AVE,60613.0,1165388.34300682,1925670.96102417,44.0,19.0,6.0,41.95163941403627,-87.6674303484915,"(41.95163941403627, -87.6674303484915)",2011-08-01
08/01/2011,Completed - Dup,01/19/2012,11-03505137,Tree Trim,Parkway,4744 W WASHINGTON BLVD,60644.0,1144742.80378076,1900080.83878497,28.0,11.0,25.0,41.881832592711184,-87.74397005227121,"(41.881832592711184, -87.74397005227122)",2011-08-01
08/01/2011,Completed - Dup,01/20/2012,11-03507259,Tree Trim,Parkway,4352 S SACRAMENTO AVE,60632.0,1157085.96390614,1875637.55497699,14.0,9.0,58.0,41.81451591987236,-87.69930862218011,"(41.81451591987236, -87.69930862218011)",2011-08-01
08/01/2011,Completed - Dup,01/26/2012,11-03503335,Tree Trim,Parkway,1321 W FILLMORE ST,60607.0,1167731.27578436,1895420.9498819,2.0,12.0,28.0,41.86858125765625,-87.65969112907854,"(41.86858125765625, -87.65969112907855)",2011-08-01
08/01/2011,Completed - Dup,02/08/2012,11-03505186,Tree Trim,Parkway,7625 W BRYN MAWR AVE,60631.0,1124398.23983281,1936274.33409097,41.0,16.0,10.0,41.98151133933874,-87.81787741771414,"(41.981511339338745, -87.81787741771414)",2011-08-01
08/01/2011,Completed - Dup,02/29/2012,11-03504833,Tree Trim,Parkway,11419 S CALUMET AVE,60628.0,1180618.61107985,1829233.3339181999,9.0,5.0,49.0,41.68666869629655,-87.61441080945782,"(41.68666869629655, -87.61441080945781)",2011-08-01
08/01/2011,Completed - Dup,03/12/2012,11-03504814,Tree Trim,Parkway,13177 S VERNON AVE,,1181547.92758282,1817992.68999094,9.0,5.0,54.0,41.65580137882786,-87.61135352374437,"(41.65580137882786, -87.61135352374437)",2011-08-01
08/01/2011,Completed - Dup,04/09/2012,11-03504408,Tree Trim,Parkway,9833 S MERRILL AVE,60617.0,1192395.20446661,1840175.62261982,7.0,4.0,51.0,41.716417743353546,-87.57094464403015,"(41.71641774335355, -87.57094464403015)",2011-08-01
08/01/2011,Completed - Dup,04/09/2012,11-03504421,Tree Trim,Parkway,9832 S MERRILL AVE,60617.0,1192395.10446661,1840181.92261982,7.0,4.0,51.0,41.7164350336188,-87.57094480595909,"(41.716435033618794, -87.57094480595909)",2011-08-01
08/01/2011,Completed - Dup,04/17/2012,11-03507827,Tree Trim,Parkway,1760 W WALLEN AVE,60626.0,1163402.36222982,1944217.55011052,49.0,24.0,1.0,42.00257406030155,-87.67420617519899,"(42.00257406030155, -87.674206175199)",2011-08-01
08/01/2011,Completed - Dup,04/23/2012,11-03507165,Tree Trim,Parkway,2542 W 100TH PL,60655.0,1161122.99583396,1837918.55991874,19.0,22.0,72.0,41.71092679706025,-87.68554217160904,"(41.71092679706026, -87.68554217160903)",2011-08-01
08/01/2011,Completed - Dup,04/26/2012,11-03503581,Tree Trim,Parkway,4514 N ARTESIAN AVE,60625.0,1159225.40416785,1929900.13131002,47.0,19.0,4.0,41.963373655057566,-87.68996849816881,"(41.96337365505757, -87.68996849816882)",2011-08-01
08/01/2011,Completed - Dup,05/08/2012,11-03504831,Tree Trim,Parkway,9229 S KINGSTON AVE,60617.0,1194776.22607026,1844263.55048375,7.0,4.0,48.0,41.72757720805532,-87.56209012734938,"(41.72757720805532, -87.56209012734938)",2011-08-01
08/01/2011,Completed - Dup,08/09/2011,11-03505047,Tree Trim,Parkway,4726 W POLK ST,60644.0,1145006.03778644,1895945.04151366,24.0,11.0,25.0,41.87047849660403,-87.74310788504705,"(41.87047849660403, -87.74310788504705)",2011-08-01
08/01/2011,Completed - Dup,08/22/2011,11-03507922,Tree Trim,Parkway,6800 N BELL AVE,60645.0,1160214.96000073,1945114.33099298,50.0,24.0,2.0,42.005101588195636,-87.6859074056221,"(42.005101588195636, -87.68590740562209)",2011-08-01
08/01/2011,Completed - Dup,09/12/2011,11-03507221,Tree Trim,,8410 S ESCANABA AVE,60617.0,1196947.60003234,1849765.99009641,10.0,4.0,46.0,41.742622685901004,-87.55395368018905,"(41.74262268590101, -87.55395368018907)",2011-08-01
08/01/2011,Completed - Dup,09/14/2012,11-03504389,Tree Trim,Parkway,7133 N MCALPIN AVE,60646.0,1135180.4223254,1946809.98380106,41.0,16.0,12.0,42.01023711912581,-87.77797170457116,"(42.010237119125804, -87.77797170457116)",2011-08-01
08/01/2011,Completed - Dup,09/14/2012,11-03504390,Tree Trim,Parkway,7129 N MCALPIN AVE,60646.0,1135154.8223254,1946793.58380106,41.0,16.0,12.0,42.01019257199052,-87.77806628911651,"(42.010192571990515, -87.77806628911651)",2011-08-01
08/01/2011,Completed - Dup,09/19/2011,11-03501808,Tree Trim,Parkway,9030 S MAY ST,60620.0,1170239.15420537,1844913.59861056,21.0,22.0,73.0,41.72992916979764,-87.65195402572651,"(41.729929169797636, -87.6519540257265)",2011-08-01
08/01/2011,Completed - Dup,10/27/2011,11-03506378,Tree Trim,Parkway,3407 S LITUANICA AVE,60608.0,1170862.83302229,1882322.05909312,11.0,9.0,60.0,41.832568796948735,-87.6485780260086,"(41.832568796948735, -87.64857802600858)",2011-08-01
08/01/2011,Completed - Dup,10/28/2011,11-03504964,Tree Trim,Parkway,3043 W FULLERTON AVE,60647.0,1155695.39201402,1915799.82532681,35.0,14.0,22.0,41.92475344346232,-87.70332822140577,"(41.924753443462315, -87.70332822140576)",2011-08-01
08/01/2011,Completed - Dup,11/03/2011,11-03503553,Tree Trim,Parkway,3754 N JANSSEN AVE,60613.0,1165971.59003127,1925028.70001331,44.0,19.0,6.0,41.94986456560335,-87.66530475150856,"(41.94986456560335, -87.66530475150856)",2011-08-01
08/01/2011,Completed - Dup,11/09/2011,11-03503642,Tree Trim,Parkway,10621 S CALUMET AVE,60628.0,1180460.1085772,1834612.32869781,9.0,5.0,49.0,41.70143303310472,-87.61482679734587,"(41.70143303310472, -87.61482679734587)",2011-08-01
08/01/2011,Completed - Dup,11/10/2011,11-03507423,Tree Trim,Parkway,6059 N MAPLEWOOD AVE,60659.0,1158229.12560572,1940152.6627689998,50.0,24.0,2.0,41.99152755888157,-87.69334985619197,"(41.99152755888157, -87.69334985619199)",2011-08-01
08/01/2011,Completed - Dup,11/10/2011,11-03508114,Tree Trim,Parkway,2321 W GRANVILLE AVE,60659.0,1159635.12431747,1941107.91631249,50.0,24.0,2.0,41.99411986158739,-87.68815172302065,"(41.99411986158739, -87.68815172302065)",2011-08-01
08/01/2011,Completed - Dup,11/15/2011,11-03508905,Tree Trim,Parkway,5041 N MASON AVE,60630.0,1135527.54759021,1933290.2680024,45.0,16.0,11.0,41.973131715439415,-87.77701763210115,"(41.973131715439415, -87.77701763210115)",2011-08-01
08/01/2011,Completed - Dup,11/29/2011,11-03505245,Tree Trim,Parkway,3643 N PITTSBURGH AVE,60634.0,1120424.35200429,1923181.60087172,36.0,16.0,17.0,41.94564799018318,-87.83277386404484,"(41.94564799018318, -87.83277386404485)",2011-08-01
08/01/2011,Completed - Dup,11/30/2011,11-03501668,Tree Trim,Parkway,5600 N MAJOR AVE,60646.0,1137203.44690877,1936871.60699804,45.0,16.0,11.0,41.982929189781025,-87.77076839144668,"(41.98292918978102, -87.77076839144668)",2011-08-01
08/01/2011,Completed - Dup,12/02/2011,11-03504837,Tree Trim,Parkway,8157 S ESSEX AVE,60617.0,1194264.27380594,1851366.71086933,7.0,4.0,46.0,41.74708146487791,-87.56373277442536,"(41.74708146487791, -87.56373277442536)",2011-08-01
08/01/2011,Completed - Dup,12/02/2011,11-03504871,Tree Trim,Parkway,8157 S ESSEX AVE,60617.0,1194264.27380594,1851366.71086933,7.0,4.0,46.0,41.74708146487791,-87.56373277442536,"(41.74708146487791, -87.56373277442536)",2011-08-01
08/01/2011,Completed - Dup,12/05/2011,11-03503144,Tree Trim,Parkway,6139 S CHAMPLAIN AVE,60637.0,1181622.59466713,1864445.86138898,20.0,3.0,42.0,41.78327291927672,-87.60965151424654,"(41.78327291927672, -87.60965151424655)",2011-08-01
08/01/2011,Completed - Dup,12/05/2012,11-03507347,Tree Trim,Parkway,7900 S VERNON AVE,60619.0,1180612.76249052,1852727.19928727,6.0,6.0,44.0,41.751138966970615,-87.61371332099836,"(41.75113896697062, -87.61371332099836)",2011-08-01
08/01/2011,Completed - Dup,12/12/2011,11-03505230,Tree Trim,Parkway,2504 N SPAULDING AVE,60647.0,1153653.31381124,1916449.46922565,35.0,14.0,22.0,41.926577044573776,-87.71081442305824,"(41.92657704457377, -87.71081442305824)",2011-08-01
08/01/2011,Completed - Dup,12/12/2011,11-03506723,Tree Trim,Parkway,8000 S SACRAMENTO AVE,60652.0,1157768.44442979,1851423.73233273,18.0,8.0,70.0,41.74805586620327,-87.69746199119815,"(41.748055866203266, -87.69746199119815)",2011-08-01
08/01/2011,Completed - Dup,12/14/2011,11-03502516,Tree Trim,Parkway,2045 N WOLCOTT AVE,60614.0,1163365.13771347,1913625.40188354,32.0,14.0,22.0,41.91862859735967,-87.67520751812211,"(41.91862859735967, -87.67520751812211)",2011-08-01
08/01/2011,Completed,01/02/2013,11-03508241,Tree Trim,Parkway,4438 N MANGO AVE,60630.0,1137211.28011738,1928935.88739066,38.0,16.0,15.0,41.961152725954925,-87.77093118115377,"(41.961152725954925, -87.77093118115376)",2011-08-01
08/01/2011,Completed,01/03/2013,11-03508585,Tree Trim,Parkway,7916 S MANISTEE AVE,60617.0,1195885.12007641,1853010.35746805,7.0,4.0,46.0,41.751551822176815,-87.55773939096761,"(41.751551822176815, -87.55773939096763)",2011-08-01
08/01/2011,Completed,01/06/2012,11-03502425,Tree Trim,,5800 W EASTWOOD AVE,60630.0,1136834.91960109,1930328.48298643,45.0,16.0,15.0,41.9649809095006,-87.77228138018162,"(41.9649809095006, -87.77228138018162)",2011-08-01
08/01/2011,Completed,01/06/2012,11-03504859,Tree Trim,Parkway,36 W 81ST ST,60620.0,1177328.43681302,1851294.09989166,17.0,6.0,44.0,41.7472811219591,-87.62579183927927,"(41.7472811219591, -87.62579183927926)",2011-08-01
08/01/2011,Completed,01/09/2012,11-03503614,Tree Trim,Parkway,3458 N NATCHEZ AVE,60634.0,1132428.22982437,1922298.4688679,36.0,16.0,17.0,41.94302373679455,-87.78867162157721,"(41.94302373679455, -87.78867162157721)",2011-08-01
08/01/2011,Completed,01/11/2012,11-03504102,Tree Trim,Parkway,10327 S CENTRAL PARK AVE,60655.0,1154157.59911101,1835912.64799077,19.0,22.0,74.0,41.70556316872933,-87.71110429682787,"(41.705563168729334, -87.71110429682787)",2011-08-01
08/01/2011,Completed,01/11/2013,11-03504902,Tree Trim,Parkway,8155 S ESSEX AVE,60617.0,1194263.97380594,1851380.11086933,7.0,4.0,46.0,41.74711824293336,-87.56373343452252,"(41.74711824293336, -87.56373343452252)",2011-08-01
08/01/2011,Completed,01/12/2012,11-03504138,Tree Trim,Parkway,2249 N GENEVA TER,60614.0,1171893.32679403,1915301.74989851,43.0,18.0,7.0,41.923044711061294,-87.6438248668471,"(41.923044711061294, -87.6438248668471)",2011-08-01
08/01/2011,Completed,01/13/2012,11-03501103,Tree Trim,Parkway,5840 W LAWRENCE AVE,60630.0,1136463.88011303,1931317.75568262,45.0,16.0,15.0,41.967702224925645,-87.77362186130489,"(41.96770222492564, -87.77362186130489)",2011-08-01
08/01/2011,Completed,01/13/2012,11-03508663,Tree Trim,Parkway,9256 S ADA ST,60620.0,1168954.72996788,1843375.23139701,21.0,22.0,73.0,41.725735469198014,-87.65670355078957,"(41.725735469198014, -87.65670355078956)",2011-08-01
08/01/2011,Completed,01/15/2013,11-03505473,Tree Trim,Parkway,8150 S CHAPPEL AVE,60617.0,1191268.37691738,1851669.247995,8.0,4.0,46.0,41.74798465923871,-87.57470057700175,"(41.74798465923871, -87.57470057700175)",2011-08-01
08/01/2011,Completed,01/17/2012,11-03501574,Tree Trim,Parkway,10036 S LAFAYETTE AVE,60628.0,1177695.7106011002,1838421.64559999,9.0,5.0,49.0,41.71194916940723,-87.62483430192522,"(41.711949169407234, -87.62483430192522)",2011-08-01
08/01/2011,Completed,01/17/2012,11-03503403,Tree Trim,Parkway,5441 S NATCHEZ AVE,60638.0,1133970.54693207,1867786.98988568,23.0,8.0,56.0,41.79340930319632,-87.78428422599548,"(41.79340930319632, -87.78428422599549)",2011-08-01
08/01/2011,Completed,01/17/2012,11-03504414,Tree Trim,Vacant Lot,1317 S CHRISTIANA AVE,60623.0,1154243.22839293,1893654.8312929,24.0,10.0,29.0,41.864014613657055,-87.70925599959465,"(41.864014613657055, -87.70925599959466)",2011-08-01
08/01/2011,Completed,01/18/2012,11-03502140,Tree Trim,Parkway,3246 N PIONEER AVE,60634.0,1120848.37007289,1920553.58673422,36.0,16.0,17.0,41.93842957078237,-87.83127186266131,"(41.93842957078237, -87.8312718626613)",2011-08-01
08/01/2011,Completed,01/18/2012,11-03505094,Tree Trim,Parkway,10947 S HARDING AVE,60655.0,1151967.00992258,1831689.92279538,19.0,22.0,74.0,41.69401834537637,-87.71923639843222,"(41.69401834537637, -87.71923639843222)",2011-08-01
08/01/2011,Completed,01/19/2012,11-03500451,Tree Trim,Parkway,5511 W POTOMAC AVE,60651.0,1139209.68357058,1908110.74472798,37.0,25.0,25.0,41.903970124066745,-87.76409222686706,"(41.90397012406674, -87.76409222686706)",2011-08-01
08/01/2011,Completed,01/19/2012,11-03501787,Tree Trim,Parkway,560 W GRAND AVE,60654.0,1172402.04003213,1903743.6106091,27.0,13.0,24.0,41.8913173275258,-87.64229782570108,"(41.8913173275258, -87.64229782570108)",2011-08-01
08/01/2011,Completed,01/19/2012,11-03502510,Tree Trim,Parkway,4458 W IOWA ST,60651.0,1146483.11357751,1905623.41008716,37.0,11.0,23.0,41.89700905924921,-87.7374382635371,"(41.89700905924921, -87.73743826353711)",2011-08-01
08/01/2011,Completed,01/20/2012,11-03502616,Tree Trim,Parkway,8307 W IRVING PARK RD,60634.0,1119933.28380325,1925528.00178768,36.0,16.0,17.0,41.95209467141997,-87.83452870835026,"(41.95209467141997, -87.83452870835026)",2011-08-01
08/01/2011,Completed,01/20/2012,11-03506644,Tree Trim,,1829 N LOWELL AVE,60639.0,1147101.1826797,1911862.37122413,30.0,25.0,20.0,41.914117613379396,-87.73500833369614,"(41.9141176133794, -87.73500833369614)",2011-08-01
08/01/2011,Completed,01/20/2012,11-03507724,Tree Trim,Parkway,2847 N HARDING AVE,60618.0,1149561.71247979,1918641.73099031,30.0,25.0,21.0,41.93267333188006,-87.72579222697605,"(41.93267333188006, -87.72579222697604)",2011-08-01
08/01/2011,Completed,01/25/2012,11-03504355,Tree Trim,Parkway,3001 W ADDISON ST,60618.0,1155734.71057634,1923780.97489017,33.0,17.0,21.0,41.946653506107054,-87.70296811445604,"(41.946653506107054, -87.70296811445604)",2011-08-01
08/01/2011,Completed,01/25/2012,11-03507287,Tree Trim,,5474 N MAGNOLIA AVE,60640.0,1166976.47641375,1936498.63059749,48.0,20.0,77.0,41.981316913367436,-87.66128021689215,"(41.981316913367436, -87.66128021689214)",2011-08-01
08/01/2011,Completed,01/26/2012,11-03503333,Tree Trim,Parkway,1319 W FILLMORE ST,60607.0,1167744.77578436,1895421.3498819,2.0,12.0,28.0,41.86858206456834,-87.65964155629436,"(41.86858206456834, -87.65964155629436)",2011-08-01
08/01/2011,Completed,02/01/2012,11-03500545,Tree Trim,Parkway,1643 W 85TH ST,60620.0,1166767.68738985,1848342.5009908,18.0,6.0,71.0,41.7394132933378,-87.66457344918604,"(41.7394132933378, -87.66457344918604)",2011-08-01
08/01/2011,Completed,02/01/2012,11-03501470,Tree Trim,Parkway,4402 W 28TH ST,60623.0,1147493.83701119,1885016.90071626,22.0,10.0,30.0,41.840442983710375,-87.73425418457519,"(41.840442983710375, -87.73425418457518)",2011-08-01
08/01/2011,Completed,02/06/2012,11-03503366,Tree Trim,Vacant Lot,1314 S SPRINGFIELD AVE,60623.0,1150588.78011069,1893665.773621,24.0,10.0,29.0,41.86411675595145,-87.7226711421892,"(41.86411675595145, -87.7226711421892)",2011-08-01
08/01/2011,Completed,02/06/2012,11-03506621,Tree Trim,Parkway,10637 S HOMAN AVE,60655.0,1155560.33752627,1833843.70121024,19.0,22.0,74.0,41.69985766563468,-87.70602272449837,"(41.69985766563468, -87.70602272449837)",2011-08-01
08/01/2011,Completed,02/06/2013,11-03507427,Tree Trim,Parkway,2330 N OAKLEY AVE,60647.0,1160634.14968758,1915646.90120561,32.0,14.0,22.0,41.924232804972156,-87.68518527332371,"(41.92423280497216, -87.6851852733237)",2011-08-01
08/01/2011,Completed,02/07/2012,11-03505250,Tree Trim,Parkway,5032 W MONROE ST,60644.0,1142911.06062084,1899194.04928818,28.0,15.0,25.0,41.879433454891384,-87.75071836595892,"(41.87943345489138, -87.75071836595892)",2011-08-01
08/01/2011,Completed,02/14/2012,11-03501181,Tree Trim,Parkway,2816 S EMERALD AVE,60616.0,1171755.31599663,1886213.32523336,11.0,9.0,60.0,41.84322720387181,-87.64518899843736,"(41.843227203871805, -87.64518899843738)",2011-08-01
08/01/2011,Completed,02/15/2012,11-03505646,Tree Trim,,1016 W LAKE ST,60607.0,1169738.69246829,1901632.96859792,27.0,12.0,28.0,41.885584026219966,-87.65214049867468,"(41.885584026219966, -87.65214049867468)",2011-08-01
08/01/2011,Completed,02/16/2012,11-03501454,Tree Trim,Parkway,6125 S CHAMPLAIN AVE,60637.0,1181619.89466713,1864539.76138898,20.0,3.0,42.0,41.783530651952354,-87.60965851578202,"(41.78353065195235, -87.60965851578202)",2011-08-01
08/01/2011,Completed,02/19/2013,11-03506249,Tree Trim,Parkway,3706 N NOTTINGHAM AVE,60634.0,1128080.41921808,1923806.76007165,36.0,16.0,17.0,41.947237362073686,-87.80461809412901,"(41.947237362073686, -87.804618094129)",2011-08-01
08/01/2011,Completed,02/24/2012,11-03505671,Tree Trim,Parkway,6236 W 59TH ST,60638.0,1135716.9057214,1864762.98461995,23.0,8.0,56.0,41.78508010286354,-87.7779519700901,"(41.78508010286354, -87.7779519700901)",2011-08-01
08/01/2011,Completed,02/29/2012,11-03500015,Tree Trim,Parkway,151 E 119TH PL,60628.0,1179366.77083367,1825760.52002243,9.0,5.0,53.0,41.67716736061466,-87.61909895571138,"(41.67716736061466, -87.61909895571137)",2011-08-01
08/01/2011,Completed,02/29/2012,11-03503205,Tree Trim,Parkway,3436 N NATOMA AVE,60634.0,1131467.56710555,1922119.73842193,36.0,16.0,17.0,41.942549976173055,-87.79220674338671,"(41.942549976173055, -87.79220674338671)",2011-08-01
08/01/2011,Completed,02/29/2012,11-03504638,Tree Trim,Parkway,3901 N PONTIAC AVE,60634.0,1119696.17100187,1924860.26892418,36.0,16.0,17.0,41.95026611064078,-87.83541462122011,"(41.95026611064078, -87.83541462122011)",2011-08-01
08/01/2011,Completed,02/29/2012,11-03507649,Tree Trim,Parkway,4326 W ADAMS ST,60624.0,1147583.84728207,1898660.54747428,28.0,11.0,26.0,41.87788113672481,-87.7335741367498,"(41.877881136724824, -87.7335741367498)",2011-08-01
08/01/2011,Completed,03/01/2012,11-03502908,Tree Trim,Parkway,8728 S EXCHANGE AVE,60617.0,1197281.53998056,1847664.31998962,10.0,4.0,46.0,41.73684723332069,-87.55279998837909,"(41.73684723332069, -87.5527999883791)",2011-08-01
08/01/2011,Completed,03/02/2012,11-03507346,Tree Trim,Parkway,3837 N LONG AVE,60641.0,1139666.68739516,1925158.54989771,38.0,16.0,15.0,41.95074278406424,-87.76199625227056,"(41.95074278406424, -87.76199625227056)",2011-08-01
08/01/2011,Completed,03/02/2012,11-03508318,Tree Trim,Parkway,4343 N MELVINA AVE,60634.0,1134238.59462869,1928239.25529847,38.0,16.0,15.0,41.9592941166098,-87.78187702556873,"(41.9592941166098, -87.78187702556873)",2011-08-01
08/01/2011,Completed,03/02/2012,11-03508887,Tree Trim,Parkway,4348 N KEELER AVE,60641.0,1147618.39301898,1928569.45921602,38.0,17.0,16.0,41.95995340841856,-87.73267811873177,"(41.95995340841856, -87.73267811873177)",2011-08-01
08/01/2011,Completed,03/05/2013,11-03505630,Tree Trim,Parkway,3000 N OKETO AVE,60707.0,1126234.72899515,1919123.24116619,36.0,25.0,17.0,41.934416253438734,-87.8115073068327,"(41.934416253438734, -87.81150730683271)",2011-08-01
08/01/2011,Completed,03/08/2012,11-03500607,Tree Trim,Parkway,3818 N TROY ST,60618.0,1154707.84571621,1925219.19476656,33.0,17.0,16.0,41.95062074114341,-87.70670392555506,"(41.95062074114341, -87.70670392555506)",2011-08-01
08/01/2011,Completed,03/12/2012,11-03504426,Tree Trim,Parkway,6639 S MARYLAND AVE,60637.0,1183034.53979838,1861171.83329624,5.0,3.0,42.0,41.77425595900004,-87.60457663746307,"(41.77425595900004, -87.60457663746308)",2011-08-01
08/01/2011,Completed,03/14/2013,11-03504981,Tree Trim,Parkway,6741 N CALIFORNIA AVE,60645.0,1156441.45400065,1944603.96992894,50.0,24.0,2.0,42.0037786007428,-87.69980428902987,"(42.0037786007428, -87.69980428902986)",2011-08-01
08/01/2011,Completed,03/16/2012,11-03501888,Tree Trim,Parkway,5402 N BOWMANVILLE AVE,60625.0,1160770.02961925,1935843.50038789,40.0,20.0,4.0,41.979650564730136,-87.68412384369539,"(41.97965056473014, -87.68412384369539)",2011-08-01
08/01/2011,Completed,03/16/2012,11-03506347,Tree Trim,Parkway,5969 N RAVENSWOOD AVE,60660.0,1163307.15988886,1939643.75438875,40.0,20.0,77.0,41.99002544562814,-87.67468584291046,"(41.99002544562814, -87.67468584291045)",2011-08-01
08/01/2011,Completed,03/21/2012,11-03507738,Tree Trim,Parkway,8055 S PRAIRIE AVE,60619.0,1179430.91009948,1851654.49889044,6.0,6.0,44.0,41.74822239845183,-87.61807686309444,"(41.74822239845183, -87.61807686309443)",2011-08-01
08/01/2011,Completed,03/21/2013,11-03506430,Tree Trim,,2551 N AVERS AVE,60647.0,1150284.96457506,1916690.96153373,35.0,25.0,22.0,41.92730615828436,-87.72318534652979,"(41.92730615828436, -87.7231853465298)",2011-08-01
08/01/2011,Completed,03/22/2012,11-03505127,Tree Trim,Alley,9100 S OGLESBY AVE,60617.0,1193420.87250102,1845089.34471375,7.0,4.0,48.0,41.72987648017376,-87.56702797930801,"(41.72987648017376, -87.56702797930802)",2011-08-01
08/01/2011,Completed,03/28/2012,11-03508756,Tree Trim,Parkway,3241 N HAMLIN AVE,60618.0,1150488.83992035,1921285.30378247,30.0,17.0,21.0,41.939909435182216,-87.72231586426298,"(41.93990943518222, -87.72231586426298)",2011-08-01
08/01/2011,Completed,03/30/2012,11-03501759,Tree Trim,Parkway,500 W GRAND AVE,60654.0,1172706.63549194,1903780.84096606,27.0,13.0,24.0,41.891412752928225,-87.64117809834379,"(41.891412752928225, -87.64117809834379)",2011-08-01
08/01/2011,Completed,03/30/2012,11-03503547,Tree Trim,Parkway,5655 N CLARK ST,60660.0,1164847.22610001,1937807.47992848,48.0,20.0,77.0,41.98495401293095,-87.66907358398953,"(41.98495401293095, -87.66907358398952)",2011-08-01
08/01/2011,Completed,04/03/2013,11-03503916,Tree Trim,Parkway,4727 S PAULINA ST,60609.0,1165806.94247895,1873359.79456932,20.0,9.0,61.0,41.80808446440132,-87.6673837036199,"(41.80808446440132, -87.6673837036199)",2011-08-01
08/01/2011,Completed,04/04/2012,11-03501983,Tree Trim,Parkway,9329 S OAKLEY AVE,60620.0,1162676.62230524,1842700.22742706,19.0,22.0,72.0,41.72401626631977,-87.67971948152194,"(41.724016266319765, -87.67971948152196)",2011-08-01
08/01/2011,Completed,04/04/2012,11-03504872,Tree Trim,Parkway,4830 N HAMLIN AVE,60625.0,1150184.76848484,1931828.35687401,39.0,17.0,14.0,41.96884629862985,-87.72315753765615,"(41.96884629862985, -87.72315753765615)",2011-08-01
08/01/2011,Completed,04/18/2012,11-03505543,Tree Trim,Vacant Lot,5402 S WELLS ST,60609.0,1175524.96502771,1869109.13491501,3.0,9.0,37.0,41.796208075121655,-87.63186780653112,"(41.796208075121655, -87.63186780653113)",2011-08-01
08/01/2011,Completed,04/24/2012,11-03507721,Tree Trim,Parkway,647 W BUENA AVE,60613.0,1171018.60780594,1928225.52987057,46.0,23.0,3.0,41.95852732701079,-87.64665847090517,"(41.958527327010785, -87.64665847090517)",2011-08-01
08/01/2011,Completed,04/25/2012,11-03506393,Tree Trim,Parkway,6034 N ROCKWELL ST,,1157903.46868688,1939985.16222031,50.0,24.0,2.0,41.99107460228681,-87.6945523111651,"(41.99107460228681, -87.69455231116511)",2011-08-01
08/01/2011,Completed,05/10/2012,11-03503505,Tree Trim,Parkway,9416 S UNION AVE,60620.0,1173296.30753178,1842420.76532103,21.0,22.0,73.0,41.7230215334092,-87.64082825953986,"(41.723021533409195, -87.64082825953984)",2011-08-01
08/01/2011,Completed,05/11/2012,11-03505009,Tree Trim,Parkway,1264 N CLEVELAND AVE,60610.0,1172758.08269806,1908781.22802848,27.0,18.0,8.0,41.905132957657635,-87.64084093012266,"(41.90513295765763, -87.64084093012265)",2011-08-01
08/01/2011,Completed,05/15/2012,11-03501198,Tree Trim,Parkway,5421 W WINDSOR AVE,60630.0,1139374.43733099,1929743.67419153,45.0,16.0,15.0,41.963330131235146,-87.76295837688463,"(41.96333013123515, -87.76295837688463)",2011-08-01
08/01/2011,Completed,06/06/2012,11-03506210,Tree Trim,Parkway,10832 S LAWNDALE AVE,60655.0,1153613.9971836,1832377.46989168,19.0,22.0,74.0,41.695872727087064,-87.7131881582299,"(41.69587272708706, -87.7131881582299)",2011-08-01
08/01/2011,Completed,06/13/2012,11-03503591,Tree Trim,Parkway,1120 W ADDISON ST,60613.0,1168055.66868871,1924066.2283089,44.0,19.0,6.0,41.9471786729797,-87.6576718506317,"(41.9471786729797, -87.65767185063171)",2011-08-01
08/01/2011,Completed,06/26/2012,11-03507552,Tree Trim,Parkway,8223 S KINGSTON AVE,60617.0,1194604.70161214,1850940.98177619,7.0,4.0,46.0,41.745904867662226,-87.56249935490581,"(41.745904867662226, -87.56249935490581)",2011-08-01
08/01/2011,Completed,07/11/2012,11-03507266,Tree Trim,Parkway,3743 N SHEFFIELD AVE,60613.0,1168934.91697898,1925082.11922598,44.0,23.0,6.0,41.94994725345304,-87.65441041256382,"(41.94994725345304, -87.65441041256382)",2011-08-01
08/01/2011,Completed,07/23/2012,11-03504327,Tree Trim,Parkway,3126 N NORDICA AVE,60634.0,1128662.24797866,1920038.25639045,36.0,25.0,18.0,41.936886274318944,-87.80256517263678,"(41.936886274318944, -87.80256517263678)",2011-08-01
08/01/2011,Completed,08/01/2011,11-03506277,Tree Trim,,9808 S YALE AVE,60628.0,1176347.61281274,1839913.13219499,21.0,5.0,49.0,41.71607234821009,-87.62972674258755,"(41.71607234821009, -87.62972674258755)",2011-08-01
08/01/2011,Completed,08/01/2011,11-03506417,Tree Trim,,6023 S MICHIGAN AVE,60637.0,1178189.24740714,1865105.43617086,20.0,3.0,40.0,41.78516146362221,-87.6222192039246,"(41.78516146362221, -87.62221920392459)",2011-08-01
08/01/2011,Completed,08/01/2011,11-03506419,Tree Trim,,6021 S MICHIGAN AVE,60637.0,1178188.84740714,1865118.73617086,20.0,3.0,40.0,41.78519796922421,-87.62222026719074,"(41.785197969224214, -87.62222026719073)",2011-08-01
08/01/2011,Completed,08/01/2011,11-03506420,Tree Trim,,6018 S MICHIGAN AVE,60637.0,1178188.34740714,1865138.83617086,20.0,3.0,40.0,41.78525313697219,-87.62222149090138,"(41.78525313697219, -87.62222149090137)",2011-08-01
08/01/2011,Completed,08/01/2011,11-03506422,Tree Trim,,5401 S KEELER AVE,60632.0,1149283.61642388,1868463.66119774,23.0,8.0,62.0,41.79498409556326,-87.72811417126336,"(41.79498409556326, -87.72811417126336)",2011-08-01
08/01/2011,Completed,08/01/2011,11-03506423,Tree Trim,,5358 S KEELER AVE,60632.0,1149275.41642388,1868746.26119774,23.0,8.0,62.0,41.79575975163141,-87.72813694547668,"(41.79575975163141, -87.72813694547668)",2011-08-01
08/01/2011,Completed,08/01/2011,11-03506976,Tree Trim,,2958 N KILBOURN AVE,60641.0,1145868.9382793999,1919290.27048389,31.0,25.0,20.0,41.93452398870805,-87.73934640686554,"(41.934523988708044, -87.73934640686555)",2011-08-01
08/01/2011,Completed,08/03/2011,11-03507344,Tree Trim,Parkway,5354 W BERENICE AVE,60641.0,1139973.71243422,1925078.47000593,38.0,16.0,15.0,41.95051741537003,-87.76086959875664,"(41.95051741537003, -87.76086959875664)",2011-08-01
08/01/2011,Completed,08/09/2011,11-03503490,Tree Trim,Parkway,9800 S LEAVITT ST,60643.0,1163427.40811387,1839620.26049229,19.0,22.0,72.0,41.71554866137539,-87.6770553715596,"(41.71554866137538, -87.67705537155959)",2011-08-01
08/01/2011,Completed,08/11/2011,11-03504061,Tree Trim,Parkway,10801 S CENTRAL PARK AVE,60655.0,1154268.02428745,1832747.42008085,19.0,22.0,74.0,41.69687499417278,-87.71078371047878,"(41.69687499417278, -87.71078371047878)",2011-08-01
08/01/2011,Completed,09/01/2011,11-03501630,Tree Trim,Parkway,7306 S OAKLEY AVE,60636.0,1162336.54139262,1856165.29888351,18.0,8.0,66.0,41.760973567537604,-87.68059106773704,"(41.760973567537604, -87.68059106773704)",2011-08-01
08/01/2011,Completed,09/15/2011,11-03504846,Tree Trim,Parkway,9400 S MICHIGAN AVE,60619.0,1178805.67483043,1842679.96497173,6.0,6.0,49.0,41.723609420819685,-87.62064024066902,"(41.723609420819685, -87.62064024066902)",2011-08-01
08/01/2011,Completed,11/05/2012,11-03503994,Tree Trim,Parkway,1204 W 32ND ST,60608.0,1168811.0688015,1883592.81447317,11.0,9.0,60.0,41.836100505028455,-87.65606947784326,"(41.83610050502845, -87.65606947784326)",2011-08-01
08/01/2011,Completed,11/06/2012,11-03503193,Tree Trim,Parkway,5938 S PRAIRIE AVE,60637.0,1179055.31057435,1865699.59810397,20.0,2.0,40.0,41.78677220238495,-87.61902576236368,"(41.786772202384945, -87.61902576236368)",2011-08-01
08/01/2011,Completed,11/08/2012,11-03503926,Tree Trim,Parkway,2318 N SPAULDING AVE,60647.0,1153766.51432005,1915214.15548756,35.0,14.0,22.0,41.923184986623795,-87.71043143475269,"(41.923184986623795, -87.71043143475269)",2011-08-01
08/01/2011,Completed,11/09/2011,11-03506622,Tree Trim,Parkway,4950 N NEWCASTLE AVE,60656.0,1129917.24796835,1932166.64489866,41.0,16.0,10.0,41.970146498524656,-87.79767417806319,"(41.970146498524656, -87.79767417806318)",2011-08-01
08/01/2011,Completed,11/18/2011,11-03506594,Tree Trim,Parkway,4950 N NEWLAND AVE,60656.0,1129261.24011951,1932153.32063077,41.0,16.0,10.0,41.970121165063645,-87.8000867059238,"(41.97012116506365, -87.80008670592382)",2011-08-01
08/01/2011,Completed,11/21/2011,11-03503693,Tree Trim,Parkway,6251 N LOWELL AVE,60646.0,1146248.18656658,1941165.39637651,39.0,17.0,12.0,41.99454379409872,-87.73739351502894,"(41.99454379409872, -87.73739351502893)",2011-08-01
08/01/2011,Completed,11/28/2011,11-03506535,Tree Trim,Parkway,4954 N NEW ENGLAND AVE,60656.0,1129592.12989429,1932518.14999447,41.0,16.0,10.0,41.97111663642228,-87.79886161431105,"(41.97111663642228, -87.79886161431105)",2011-08-01
08/01/2011,Completed,11/30/2011,11-03500519,Tree Trim,Parkway,5600 N MAJOR AVE,60646.0,1137203.44690877,1936871.60699804,45.0,16.0,11.0,41.982929189781025,-87.77076839144668,"(41.98292918978102, -87.77076839144668)",2011-08-01
08/01/2011,Completed,12/01/2011,11-03504821,Tree Trim,Parkway,6139 N CAMPBELL AVE,60659.0,1158544.15478662,1940678.91348864,50.0,24.0,2.0,41.99296514580766,-87.69217659661301,"(41.99296514580766, -87.692176596613)",2011-08-01
08/01/2011,Completed,12/01/2011,11-03506617,Tree Trim,Parkway,1815 S CARPENTER ST,60608.0,1169531.37030581,1891417.65192144,25.0,12.0,31.0,41.85755693341411,-87.6531990528848,"(41.85755693341411, -87.65319905288482)",2011-08-01
08/01/2011,Completed,12/11/2012,11-03504292,Tree Trim,Parkway,2844 W LYNDALE ST,60647.0,1157005.62443033,1914957.01010151,35.0,14.0,22.0,41.92241417773344,-87.69853676053711,"(41.92241417773344, -87.69853676053711)",2011-08-01
08/01/2011,Completed,12/13/2012,11-03504786,Tree Trim,Parkway,10300 S ST LOUIS AVE,60655.0,1154804.57896745,1836110.40611194,19.0,22.0,74.0,41.70609300108313,-87.70872983504734,"(41.706093001083126, -87.70872983504734)",2011-08-01
08/01/2011,Completed,12/19/2011,11-03506427,Tree Trim,Parkway,480 W 28TH ST,60616.0,1173345.86622899,1886361.94021045,11.0,9.0,60.0,41.843599896029225,-87.63934768498751,"(41.84359989602923, -87.6393476849875)",2011-08-01
08/01/2011,Completed,12/21/2012,11-03505690,Tree Trim,Parkway,8700 S ADA ST,60620.0,1168848.23007933,1847070.99487334,21.0,22.0,71.0,41.73587947967225,-87.6569872889382,"(41.73587947967225, -87.6569872889382)",2011-08-01
08/01/2011,Completed,12/24/2012,11-03505749,Tree Trim,Parkway,3852 N NEWLAND AVE,60634.0,1129382.15502485,1924821.96002267,38.0,16.0,17.0,41.950001052029855,-87.7998099327407,"(41.95000105202986, -87.79980993274071)",2011-08-01
08/01/2011,Completed,12/26/2012,11-03506735,Tree Trim,Alley,4818 N MOBILE AVE,60630.0,1133208.13996631,1931687.03756598,45.0,16.0,11.0,41.968773310166505,-87.78558445252027,"(41.9687733101665, -87.78558445252028)",2011-08-01
08/01/2011,Completed,12/27/2012,11-03499881,Tree Trim,Alley,9514 S BELL AVE,60643.0,1163041.68241802,1841507.14148021,19.0,22.0,72.0,41.72073463147276,-87.6784155213582,"(41.72073463147276, -87.6784155213582)",2011-08-01
08/01/2011,Completed,12/29/2011,11-03504358,Tree Trim,Parkway,1109 N KEYSTONE AVE,60651.0,1149183.54998946,1907093.61591121,27.0,11.0,23.0,41.9009915588713,-87.72748174445046,"(41.9009915588713, -87.72748174445046)",2011-08-01
08/01/2011,Completed,12/29/2011,11-03507270,Tree Trim,,5430 N MAGNOLIA AVE,60640.0,1166984.62401701,1936202.98520406,48.0,20.0,77.0,41.98050547861764,-87.66125878384737,"(41.98050547861764, -87.66125878384737)",2011-08-01
08/01/2011,Completed,12/30/2011,11-03506587,Tree Trim,Parkway,5110 N NASHVILLE AVE,60656.0,1131576.39440333,1933578.65718911,41.0,16.0,10.0,41.97399257187983,-87.79154045963129,"(41.97399257187983, -87.7915404596313)",2011-08-01
08/01/2011,Completed,12/31/2012,11-03506553,Tree Trim,,10623 S MAPLEWOOD AVE,60655.0,1161263.98417765,1834003.59008876,19.0,22.0,72.0,41.70018052881456,-87.68513375786688,"(41.70018052881456, -87.68513375786688)",2011-08-01
08/01/2011,Completed,12/31/2012,11-03506650,Tree Trim,,10639 S MAPLEWOOD AVE,60655.0,1161267.68417765,1833886.59008876,19.0,22.0,72.0,41.699859383784926,-87.68512343420247,"(41.69985938378492, -87.68512343420247)",2011-08-01
08/02/2011,Completed - Dup,01/04/2012,11-03517649,Tree Trim,Parkway,3705 N KIMBALL AVE,60618.0,1153062.95777081,1924451.95439119,35.0,17.0,16.0,41.94854822105232,-87.71277086432201,"(41.94854822105232, -87.71277086432202)",2011-08-02
08/02/2011,Completed - Dup,01/07/2013,11-03511041,Tree Trim,Parkway,4210 N MARMORA AVE,60634.0,1136261.36920868,1927386.46009654,38.0,16.0,15.0,41.956918002003455,-87.77446076840143,"(41.95691800200345, -87.77446076840143)",2011-08-02
08/02/2011,Completed - Dup,01/17/2012,11-03510912,Tree Trim,Parkway,5974 N MANTON AVE,60646.0,1136000.43288672,1939323.65436658,45.0,16.0,11.0,41.98967941147173,-87.77513411456236,"(41.98967941147173, -87.77513411456236)",2011-08-02
08/02/2011,Completed - Dup,01/20/2012,11-03513479,Tree Trim,Parkway,3805 N CUMBERLAND AVE,60634.0,1119388.493067,1924211.37722537,36.0,16.0,17.0,41.94849036738661,-87.83655947187809,"(41.948490367386604, -87.83655947187809)",2011-08-02
08/02/2011,Completed - Dup,02/01/2012,11-03511327,Tree Trim,Parkway,7744 S SEELEY AVE,60620.0,1164039.35467663,1853291.73553121,18.0,6.0,71.0,41.75305247230687,-87.67443078988505,"(41.75305247230687, -87.67443078988504)",2011-08-02
08/02/2011,Completed - Dup,02/01/2012,11-03515577,Tree Trim,Parkway,7137 S MOZART ST,60629.0,1158607.19008077,1857180.5253014,18.0,8.0,66.0,41.7638363441867,-87.69423182074249,"(41.7638363441867, -87.6942318207425)",2011-08-02
08/02/2011,Completed - Dup,02/01/2012,11-03516898,Tree Trim,Parkway,3819 N HERMITAGE AVE,60613.0,1163996.39047896,1925407.11562033,47.0,19.0,6.0,41.95094497285597,-87.67255460917877,"(41.95094497285597, -87.67255460917876)",2011-08-02
08/02/2011,Completed - Dup,02/02/2012,11-03513241,Tree Trim,Parkway,537 W 57TH ST,60621.0,1173568.65802787,1867112.24158474,3.0,7.0,68.0,41.790771971045295,-87.63910082455406,"(41.790771971045295, -87.63910082455406)",2011-08-02
08/02/2011,Completed - Dup,02/02/2012,11-03517110,Tree Trim,Parkway,1945 N HAMLIN AVE,60647.0,1150735.06643399,1912657.6607678002,26.0,25.0,22.0,41.91622962071981,-87.72163711492783,"(41.916229620719804, -87.72163711492783)",2011-08-02
08/02/2011,Completed - Dup,02/02/2012,11-03517125,Tree Trim,Parkway,1943 N HAMLIN AVE,60647.0,1150735.46643399,1912644.2607678,26.0,25.0,22.0,41.91619284206088,-87.72163599647331,"(41.91619284206088, -87.72163599647332)",2011-08-02
08/02/2011,Completed - Dup,02/06/2012,11-03513795,Tree Trim,Parkway,12903 S NORMAL AVE,60628.0,1175327.6285736999,1819270.79193278,9.0,5.0,53.0,41.6594494203555,-87.63407610336556,"(41.6594494203555, -87.63407610336556)",2011-08-02
08/02/2011,Completed - Dup,02/07/2012,11-03514301,Tree Trim,Parkway,3407 N PARIS AVE,60634.0,1121148.59809873,1921566.34867126,36.0,16.0,17.0,41.941203892105854,-87.83014657981481,"(41.94120389210585, -87.83014657981481)",2011-08-02
08/02/2011,Completed - Dup,03/12/2012,11-03515203,Tree Trim,Parkway,3515 N NEENAH AVE,60634.0,1132085.39366825,1922665.70169278,36.0,16.0,17.0,41.944037435518496,-87.78992317961651,"(41.944037435518496, -87.7899231796165)",2011-08-02
08/02/2011,Completed - Dup,03/28/2012,11-03517655,Tree Trim,Parkway,3241 N HAMLIN AVE,60618.0,1150488.83992035,1921285.30378247,30.0,17.0,21.0,41.939909435182216,-87.72231586426298,"(41.93990943518222, -87.72231586426298)",2011-08-02
08/02/2011,Completed - Dup,04/16/2012,11-03511006,Tree Trim,Parkway,7335 S DORCHESTER AVE,60619.0,1186810.26450381,1856638.4742701,5.0,3.0,43.0,41.761727387961415,-87.59087915363938,"(41.761727387961415, -87.59087915363938)",2011-08-02
08/02/2011,Completed - Dup,04/26/2012,11-03516202,Tree Trim,Parkway,7439 S MERRILL AVE,60649.0,1191838.23701318,1856060.80637389,5.0,3.0,43.0,41.76002165739088,-87.57247015037535,"(41.76002165739088, -87.57247015037534)",2011-08-02
08/02/2011,Completed - Dup,05/09/2012,11-03510761,Tree Trim,Parkway,341 W 116TH ST,60628.0,1175990.39282948,1828002.76638595,34.0,5.0,53.0,41.68339657119041,-87.63139058416846,"(41.68339657119041, -87.63139058416846)",2011-08-02
08/02/2011,Completed - Dup,05/11/2012,11-03512394,Tree Trim,Parkway,1855 W 34TH ST,60608.0,1164535.55010242,1882159.70768455,11.0,9.0,59.0,41.83225934508318,-87.67179836462437,"(41.83225934508318, -87.67179836462437)",2011-08-02
08/02/2011,Completed - Dup,05/16/2012,11-03515931,Tree Trim,Parkway,10148 S WINSTON AVE,60643.0,1169258.09987657,1837691.18486905,21.0,22.0,73.0,41.710131036902816,-87.65575615268378,"(41.710131036902816, -87.65575615268376)",2011-08-02
08/02/2011,Completed - Dup,05/29/2012,11-03510629,Tree Trim,Parkway,2801 W ESTES AVE,60645.0,1156433.41451235,1946967.81590944,50.0,24.0,2.0,42.01026524447935,-87.69976950805592,"(42.01026524447935, -87.69976950805592)",2011-08-02
08/02/2011,Completed - Dup,05/31/2012,11-03509790,Tree Trim,Parkway,11143 S GREEN ST,60643.0,1172639.41823363,1830947.59421281,34.0,22.0,75.0,41.69155191444296,-87.64357099558254,"(41.691551914442954, -87.64357099558254)",2011-08-02
08/02/2011,Completed - Dup,08/24/2011,11-03513486,Tree Trim,Parkway,7233 S LUELLA AVE,60649.0,1192468.66862761,1857440.01102005,5.0,3.0,43.0,41.76379097879104,-87.57011480869969,"(41.76379097879105, -87.57011480869969)",2011-08-02
08/02/2011,Completed - Dup,09/13/2011,11-03514787,Tree Trim,Vacant Lot,1347 S KOLIN AVE,60623.0,1147599.11372176,1893368.06182873,24.0,10.0,29.0,41.8633576296933,-87.73365384078569,"(41.863357629693304, -87.73365384078568)",2011-08-02
08/02/2011,Completed - Dup,09/17/2012,11-03511110,Tree Trim,Parkway,7809 S WABASH AVE,60619.0,1178065.21208279,1853250.90082838,6.0,6.0,69.0,41.75263415574909,-87.62303291150721,"(41.752634155749085, -87.62303291150721)",2011-08-02
08/02/2011,Completed - Dup,09/22/2011,11-03510426,Tree Trim,Parkway,11143 S WHIPPLE ST,60655.0,1158003.80263247,1830565.83171453,19.0,22.0,74.0,41.69081339832166,-87.69716432716976,"(41.69081339832166, -87.69716432716977)",2011-08-02
08/02/2011,Completed - Dup,10/01/2012,11-03511696,Tree Trim,Parkway,8829 S OGLESBY AVE,60617.0,1193378.80471371,1846900.98341485,8.0,4.0,48.0,41.73484880886074,-87.56712300390444,"(41.73484880886074, -87.56712300390444)",2011-08-02
08/02/2011,Completed - Dup,10/05/2011,11-03516821,Tree Trim,Parkway,528 W 44TH PL,60609.0,1173515.83128652,1875414.49609681,11.0,9.0,61.0,41.81355536951981,-87.63904863000324,"(41.813555369519804, -87.63904863000323)",2011-08-02
08/02/2011,Completed - Dup,10/07/2011,11-03509216,Tree Trim,,9300 S GREEN ST,60620.0,1172281.87686953,1843108.82960581,21.0,22.0,73.0,41.724932012710056,-87.644523845992,"(41.724932012710056, -87.644523845992)",2011-08-02
08/02/2011,Completed - Dup,10/17/2011,11-03517677,Tree Trim,Parkway,1039 W 34TH PL,60608.0,1169948.02560526,1881959.80989552,11.0,9.0,60.0,41.83159471247912,-87.65194512470816,"(41.83159471247912, -87.65194512470816)",2011-08-02
08/02/2011,Completed - Dup,10/28/2011,11-03513594,Tree Trim,Parkway,4731 W CONGRESS PKWY,60644.0,1144927.47558779,1897273.39573364,24.0,11.0,25.0,41.874125147008044,-87.7433627965097,"(41.87412514700805, -87.7433627965097)",2011-08-02
08/02/2011,Completed - Dup,10/31/2011,11-03512315,Tree Trim,Parkway,7700 S RIDGELAND AVE,60649.0,1189205.62529496,1854268.89799577,8.0,4.0,43.0,41.755167993950344,-87.58217587392485,"(41.75516799395034, -87.58217587392484)",2011-08-02
08/02/2011,Completed - Dup,10/31/2011,11-03516938,Tree Trim,Parkway,2731 N WHIPPLE ST,60647.0,1155573.63628617,1918001.33697032,35.0,14.0,22.0,41.930797014677694,-87.70371620719405,"(41.930797014677694, -87.70371620719405)",2011-08-02
08/02/2011,Completed - Dup,11/10/2011,11-03515300,Tree Trim,Parkway,2321 W GRANVILLE AVE,60659.0,1159635.12431747,1941107.91631249,50.0,24.0,2.0,41.99411986158739,-87.68815172302065,"(41.99411986158739, -87.68815172302065)",2011-08-02
08/02/2011,Completed - Dup,11/12/2012,11-03512805,Tree Trim,Parkway,1452 E 84TH ST,60619.0,1187430.30717234,1849577.80811239,8.0,4.0,45.0,41.742337541262884,-87.5888305931243,"(41.74233754126288, -87.58883059312429)",2011-08-02
08/02/2011,Completed - Dup,11/13/2012,11-03512287,Tree Trim,Parkway,2238 S KOSTNER AVE,60623.0,1147406.46448841,1888746.97838419,22.0,10.0,29.0,41.85068048188189,-87.73447936371271,"(41.85068048188189, -87.73447936371271)",2011-08-02
08/02/2011,Completed - Dup,11/14/2012,11-03513421,Tree Trim,Parkway,10618 S PARNELL AVE,60628.0,1174513.01562182,1834478.8733861,34.0,22.0,49.0,41.701200901464674,-87.63660697902003,"(41.70120090146467, -87.63660697902003)",2011-08-02
08/02/2011,Completed - Dup,11/17/2011,11-03518098,Tree Trim,Parkway,4953 N OAK PARK AVE,60656.0,1130249.03001594,1932526.17591232,41.0,16.0,10.0,41.97112738935939,-87.79644588971085,"(41.97112738935939, -87.79644588971085)",2011-08-02
08/02/2011,Completed - Dup,11/18/2011,11-03510702,Tree Trim,Parkway,7244 S TALMAN AVE,60629.0,1159961.5038788,1856508.24201015,18.0,8.0,66.0,41.76196377933406,-87.68928637078635,"(41.76196377933406, -87.68928637078635)",2011-08-02
08/02/2011,Completed - Dup,11/25/2011,11-03516468,Tree Trim,Parkway,10905 S EMERALD AVE,60628.0,1173252.75381563,1832544.09312979,34.0,22.0,49.0,41.69591945495347,-87.64127854673856,"(41.69591945495347, -87.64127854673856)",2011-08-02
08/02/2011,Completed - Dup,11/25/2011,11-03517017,Tree Trim,Parkway,5158 S MELVINA AVE,60638.0,1135911.60129968,1869727.77621916,23.0,8.0,56.0,41.79870092438338,-87.7771203438867,"(41.79870092438338, -87.7771203438867)",2011-08-02
08/02/2011,Completed - Dup,11/30/2011,11-03512348,Tree Trim,Parkway,3304 N CENTRAL PARK AVE,60618.0,1151806.761671,1921748.99000873,35.0,17.0,21.0,41.94115594682268,-87.71745981585151,"(41.94115594682269, -87.71745981585151)",2011-08-02
08/02/2011,Completed - Dup,11/30/2012,11-03514585,Tree Trim,Parkway,1641 W CARMEN AVE,60640.0,1164456.57417707,1933931.40012348,47.0,20.0,3.0,41.974326222474815,-87.67062065315422,"(41.974326222474815, -87.67062065315422)",2011-08-02
08/02/2011,Completed - Dup,12/06/2011,11-03509295,Tree Trim,Parkway,1731 W CRYSTAL ST,60622.0,1164498.91000751,1908338.11999616,1.0,14.0,24.0,41.90409598970528,-87.67119191277371,"(41.90409598970528, -87.67119191277371)",2011-08-02
08/02/2011,Completed - Dup,12/06/2011,11-03517506,Tree Trim,Parkway,446 E 87TH PL,60619.0,1180752.48580115,1847070.52981004,6.0,6.0,44.0,41.73561321179081,-87.61337473777417,"(41.73561321179081, -87.61337473777415)",2011-08-02
08/02/2011,Completed - Dup,12/09/2011,11-03513815,Tree Trim,,1550 N STATE PKWY,60610.0,1176014.28142167,1910392.48312156,42.0,18.0,8.0,41.909481559186155,-87.62883140181472,"(41.909481559186155, -87.62883140181474)",2011-08-02
08/02/2011,Completed - Dup,12/13/2012,11-03513694,Tree Trim,Parkway,6828 S CLAREMONT AVE,60636.0,1161911.3738831999,1859323.20241434,17.0,8.0,66.0,41.7696481496794,-87.68206170801231,"(41.7696481496794, -87.68206170801231)",2011-08-02
08/02/2011,Completed - Dup,12/15/2011,11-03512963,Tree Trim,Parkway,10614 S PRAIRIE AVE,60628.0,1179793.63519165,1834641.11002711,9.0,5.0,49.0,41.701527245307396,-87.61726631220934,"(41.7015272453074, -87.61726631220934)",2011-08-02
08/02/2011,Completed - Dup,12/22/2011,11-03513721,Tree Trim,Alley,2445 W 35TH ST,60632.0,1160516.88998374,1881398.43999985,12.0,9.0,59.0,41.830254316622025,-87.68656444157874,"(41.830254316622025, -87.68656444157874)",2011-08-02
08/02/2011,Completed - Dup,12/23/2011,11-03510358,Tree Trim,Parkway,11522 S ARTESIAN AVE,60655.0,1162124.63009797,1828157.49757266,19.0,22.0,75.0,41.68411999030972,-87.68214421876591,"(41.68411999030972, -87.6821442187659)",2011-08-02
08/02/2011,Completed - Dup,12/29/2011,11-03512264,Tree Trim,Parkway,1348 W GLENLAKE AVE,60660.0,1166189.49869329,1940633.47913299,48.0,24.0,77.0,41.99267995646297,-87.66405563242884,"(41.992679956462965, -87.66405563242883)",2011-08-02
08/02/2011,Completed - Dup,12/29/2011,11-03516036,Tree Trim,Parkway,1109 N KEYSTONE AVE,60651.0,1149183.54998946,1907093.61591121,27.0,11.0,23.0,41.9009915588713,-87.72748174445046,"(41.9009915588713, -87.72748174445046)",2011-08-02
08/02/2011,Completed,01/04/2012,11-03516830,Tree Trim,Parkway,5252 N MASON AVE,60630.0,1135538.50311793,1934562.04190006,45.0,16.0,11.0,41.976621383177374,-87.77694697139488,"(41.976621383177374, -87.77694697139489)",2011-08-02
08/02/2011,Completed,01/10/2012,11-03516477,Tree Trim,Parkway,10867 S EMERALD AVE,60628.0,1173245.05381563,1832791.89312979,34.0,22.0,49.0,41.69659962593078,-87.64129944947693,"(41.69659962593078, -87.64129944947692)",2011-08-02
08/02/2011,Completed,01/10/2012,11-03517166,Tree Trim,,2035 N RACINE AVE,60614.0,1167982.8220733,1913678.23009736,43.0,18.0,7.0,41.918675066778576,-87.65824027648384,"(41.918675066778576, -87.65824027648385)",2011-08-02
08/02/2011,Completed,01/11/2012,11-03510964,Tree Trim,Parkway,1312 W 110TH PL,60643.0,1169550.19367371,1831492.89607543,34.0,22.0,75.0,41.6931156374918,-87.6548652780846,"(41.6931156374918, -87.65486527808461)",2011-08-02
08/02/2011,Completed,01/14/2013,11-03511301,Tree Trim,Parkway,2455 S LAWNDALE AVE,60623.0,1152095.59187177,1887438.38357659,22.0,10.0,30.0,41.846998514009606,-87.71730366126495,"(41.84699851400961, -87.71730366126496)",2011-08-02
08/02/2011,Completed,01/17/2013,11-03514377,Tree Trim,Parkway,6935 N HAMILTON AVE,60645.0,1160753.84318538,1945940.93849165,50.0,24.0,2.0,42.00735862367921,-87.68390175259356,"(42.00735862367921, -87.68390175259356)",2011-08-02
08/02/2011,Completed,01/20/2012,11-03511062,Tree Trim,Parkway,2830 W CHASE AVE,60645.0,1156251.11741528,1948279.40593104,50.0,24.0,2.0,42.01386799327626,-87.70040456572204,"(42.01386799327626, -87.70040456572205)",2011-08-02
08/02/2011,Completed,01/20/2012,11-03512825,Tree Trim,Alley,1246 N ASTOR ST,60610.0,1176490.60502176,1908792.62566898,43.0,18.0,8.0,41.905080731255204,-87.62713000282206,"(41.9050807312552, -87.62713000282204)",2011-08-02
08/02/2011,Completed,01/23/2012,11-03515591,Tree Trim,Parkway,8353 S KINGSTON AVE,60617.0,1194622.7674267,1850078.15872405,7.0,4.0,46.0,41.74353676648232,-87.56246148186956,"(41.74353676648232, -87.56246148186956)",2011-08-02
08/02/2011,Completed,01/23/2012,11-03517187,Tree Trim,Parkway,5452 S KIMBARK AVE,60615.0,1185589.32790538,1869289.6772279998,4.0,21.0,41.0,41.796472207450854,-87.59495581324957,"(41.79647220745085, -87.59495581324957)",2011-08-02
08/02/2011,Completed,01/24/2012,11-03511378,Tree Trim,,1838 N LINCOLN AVE,60614.0,1174183.56440674,1912736.16371489,43.0,18.0,7.0,41.91595379135632,-87.63548653870319,"(41.915953791356316, -87.6354865387032)",2011-08-02
08/02/2011,Completed,01/25/2012,11-03510821,Tree Trim,Parkway,11124 S WHIPPLE ST,60655.0,1158001.90263247,1830694.33171453,19.0,22.0,74.0,41.691166064853746,-87.69716780890033,"(41.69116606485374, -87.69716780890033)",2011-08-02
08/02/2011,Completed,01/25/2012,11-03514791,Tree Trim,Parkway,3659 N MOZART ST,60618.0,1156733.36449741,1924192.02898908,33.0,17.0,16.0,41.94776125284701,-87.69928617542911,"(41.94776125284701, -87.69928617542911)",2011-08-02
08/02/2011,Completed,01/26/2012,11-03511762,Tree Trim,Parkway,5701 N GLENWOOD AVE,60660.0,1165950.20099167,1938024.15732448,48.0,20.0,77.0,41.98552503690608,-87.66501074838648,"(41.985525036906076, -87.66501074838649)",2011-08-02
08/02/2011,Completed,01/26/2012,11-03512721,Tree Trim,,3236 N OZARK AVE,60634.0,1123858.45267266,1920588.2212854999,36.0,16.0,17.0,41.938475704477675,-87.82020809469118,"(41.938475704477675, -87.82020809469118)",2011-08-02
08/02/2011,Completed,02/01/2012,11-03512838,Tree Trim,Parkway,3858 W 82ND PL,60652.0,1152104.34089673,1849594.99537277,18.0,8.0,70.0,41.74315048779765,-87.71826525020676,"(41.74315048779765, -87.71826525020677)",2011-08-02
08/02/2011,Completed,02/06/2012,11-03513417,Tree Trim,Parkway,11163 S CHRISTIANA AVE,60655.0,1156016.50837449,1830353.55577408,19.0,22.0,74.0,41.69027091749714,-87.70444570504726,"(41.69027091749714, -87.70444570504726)",2011-08-02
08/02/2011,Completed,02/06/2012,11-03514563,Tree Trim,,6045 N JERSEY AVE,60659.0,1153382.10811319,1939975.92449403,50.0,17.0,13.0,41.991140591837684,-87.71118333769019,"(41.99114059183769, -87.71118333769019)",2011-08-02
08/02/2011,Completed,02/07/2012,11-03514313,Tree Trim,Parkway,3405 N PARIS AVE,60634.0,1121148.99809873,1921553.54867126,36.0,16.0,17.0,41.941168760792365,-87.83014538578124,"(41.94116876079237, -87.83014538578124)",2011-08-02
08/02/2011,Completed,02/07/2012,11-03514321,Tree Trim,Parkway,3406 N PARIS AVE,60634.0,1121148.79809873,1921559.94867126,36.0,16.0,17.0,41.94118632644914,-87.83014598279789,"(41.94118632644914, -87.83014598279789)",2011-08-02
08/02/2011,Completed,02/07/2012,11-03516515,Tree Trim,Parkway,11000 S EMERALD AVE,60628.0,1173272.47172886,1831914.45946838,34.0,22.0,49.0,41.694191208509366,-87.64122487636445,"(41.694191208509366, -87.64122487636443)",2011-08-02
08/02/2011,Completed,02/08/2012,11-03513503,Tree Trim,Parkway,10757 S FOREST AVE,60628.0,1180154.10361031,1833697.43281244,9.0,5.0,49.0,41.69892943408653,-87.615975183132,"(41.69892943408653, -87.615975183132)",2011-08-02
08/02/2011,Completed,02/08/2012,11-03513852,Tree Trim,Parkway,2705 S WHIPPLE ST,60623.0,1156465.88272857,1885886.91840202,12.0,10.0,30.0,41.8426539687991,-87.70130657942738,"(41.842653968799084, -87.70130657942738)",2011-08-02
08/02/2011,Completed,02/09/2012,11-03514649,Tree Trim,Parkway,7153 W HOOD AVE,60631.0,1127683.39888474,1940237.33778592,41.0,16.0,10.0,41.9923313250801,-87.80570552016302,"(41.9923313250801, -87.80570552016302)",2011-08-02
08/02/2011,Completed,02/10/2012,11-03511524,Tree Trim,Parkway,6319 N NORDICA AVE,60631.0,1128474.13686642,1941727.74377458,41.0,16.0,10.0,41.996407732185055,-87.80276289903574,"(41.996407732185055, -87.80276289903574)",2011-08-02
08/02/2011,Completed,02/10/2012,11-03516065,Tree Trim,Parkway,10024 S PRINCETON AVE,60628.0,1176058.50131184,1838357.28257546,9.0,5.0,49.0,41.711809359571106,-87.63083210290606,"(41.711809359571106, -87.63083210290607)",2011-08-02
08/02/2011,Completed,02/13/2012,11-03516337,Tree Trim,Parkway,3915 W 68TH PL,60629.0,1151448.43958865,1858892.39367215,13.0,8.0,65.0,41.76867695128907,-87.72042583740215,"(41.76867695128907, -87.72042583740216)",2011-08-02
08/02/2011,Completed,02/14/2012,11-03514856,Tree Trim,Parkway,2817 W WAVELAND AVE,60618.0,1156863.36449741,1924462.22898908,33.0,17.0,16.0,41.94850005918785,-87.69880097213016,"(41.94850005918785, -87.69880097213017)",2011-08-02
08/02/2011,Completed,02/16/2012,11-03512667,Tree Trim,Parkway,5600 W ADAMS BLVD,60644.0,1139088.16061194,1898555.79436668,29.0,15.0,25.0,41.877752355719295,-87.7647711831748,"(41.877752355719295, -87.76477118317479)",2011-08-02
08/02/2011,Completed,02/20/2012,11-03509319,Tree Trim,Parkway,1519 N LARRABEE ST,60610.0,1172049.11238816,1910471.89659707,43.0,18.0,8.0,41.90978791815049,-87.64339522792456,"(41.909787918150485, -87.64339522792457)",2011-08-02
08/02/2011,Completed,02/27/2012,11-03516711,Tree Trim,Parkway,8434 S DREXEL AVE,60619.0,1183693.13927911,1849249.86091868,8.0,6.0,44.0,41.741525527176094,-87.60253361859398,"(41.74152552717609, -87.60253361859398)",2011-08-02
08/02/2011,Completed,02/29/2012,11-03510568,Tree Trim,Vacant Lot,5812 S HERMITAGE AVE,60636.0,1165669.4155334,1866203.19378093,15.0,7.0,67.0,41.7884488186745,-87.66809125636091,"(41.7884488186745, -87.66809125636091)",2011-08-02
08/02/2011,Completed,02/29/2012,11-03513535,Tree Trim,Parkway,3516 N NORMANDY AVE,60634.0,1131115.76313108,1922641.88940012,36.0,16.0,17.0,41.94398890466013,-87.79348772456213,"(41.94398890466013, -87.79348772456213)",2011-08-02
08/02/2011,Completed,03/01/2013,11-03511877,Tree Trim,Parkway,1500 W HIGHLAND AVE,60660.0,1165154.55788202,1942305.13249032,40.0,24.0,77.0,41.997289147411365,-87.66781470021625,"(41.99728914741137, -87.66781470021625)",2011-08-02
08/02/2011,Completed,03/06/2012,11-03511646,Tree Trim,Vacant Lot,5028 S UNION AVE,60609.0,1172488.3900081,1871411.46000471,3.0,9.0,61.0,41.802593352300015,-87.64293528677005,"(41.802593352300015, -87.64293528677007)",2011-08-02
08/02/2011,Completed,03/06/2012,11-03511678,Tree Trim,Parkway,4326 N KENNETH AVE,60641.0,1145688.70077462,1928453.42471796,38.0,17.0,16.0,41.95967189859144,-87.73977558714859,"(41.95967189859144, -87.73977558714859)",2011-08-02
08/02/2011,Completed,03/07/2012,11-03517289,Tree Trim,Parkway,4455 N SPRINGFIELD AVE,60625.0,1149589.79757434,1929334.66162228,39.0,17.0,14.0,41.962015030733795,-87.72541030495724,"(41.962015030733795, -87.72541030495724)",2011-08-02
08/02/2011,Completed,03/08/2012,11-03509294,Tree Trim,Parkway,924 W 50TH ST,60609.0,1170993.49387144,1871680.21520541,20.0,9.0,61.0,41.80336366414017,-87.64840985286942,"(41.80336366414017, -87.64840985286942)",2011-08-02
08/02/2011,Completed,03/12/2012,11-03513861,Tree Trim,Parkway,5817 S CARPENTER ST,60621.0,1170309.86237999,1866153.82689113,16.0,7.0,68.0,41.78821356147027,-87.65107790894804,"(41.78821356147027, -87.65107790894805)",2011-08-02
08/02/2011,Completed,03/14/2012,11-03512215,Tree Trim,Parkway,2234 S KOSTNER AVE,60623.0,1147405.66448841,1888774.57838419,22.0,10.0,29.0,41.85075623517157,-87.7344815934745,"(41.850756235171566, -87.7344815934745)",2011-08-02
08/02/2011,Completed,03/19/2012,11-03510408,Tree Trim,Parkway,5652 N AUSTIN AVE,60646.0,1135230.48217358,1937199.4721983,45.0,16.0,10.0,41.98386421001729,-87.77801683422486,"(41.98386421001729, -87.77801683422486)",2011-08-02
08/02/2011,Completed,03/19/2012,11-03513090,Tree Trim,,6215 N LEGETT AVE,60646.0,1141812.84878236,1940839.16626834,45.0,16.0,12.0,41.993732135943326,-87.75371701669356,"(41.993732135943326, -87.75371701669357)",2011-08-02
08/02/2011,Completed,03/19/2013,11-03514889,Tree Trim,Parkway,4749 S LAFLIN ST,60609.0,1167136.38106678,1873242.34477382,20.0,9.0,61.0,41.80773379729256,-87.6625110154212,"(41.807733797292556, -87.6625110154212)",2011-08-02
08/02/2011,Completed,03/21/2012,11-03517923,Tree Trim,Parkway,5307 S NEVA AVE,60638.0,1129579.48026962,1868575.93968221,23.0,8.0,56.0,41.7956501586427,-87.80036834948739,"(41.7956501586427, -87.80036834948737)",2011-08-02
08/02/2011,Completed,03/22/2012,11-03509347,Tree Trim,,2350 E 95TH ST,60617.0,1193219.22527305,1842422.0940066,7.0,4.0,51.0,41.72256221706473,-87.56785354584713,"(41.72256221706473, -87.56785354584713)",2011-08-02
08/02/2011,Completed,03/22/2012,11-03516941,Tree Trim,Alley,2400 E 95TH ST,60617.0,1193751.86987706,1842435.24323253,7.0,4.0,51.0,41.7225852863834,-87.56590214265802,"(41.7225852863834, -87.56590214265803)",2011-08-02
08/02/2011,Completed,03/28/2012,11-03513548,Tree Trim,Parkway,9612 S INDIANA AVE,60628.0,1179275.87492531,1841283.65949879,6.0,5.0,49.0,41.71976708470851,-87.61896038161224,"(41.71976708470851, -87.61896038161223)",2011-08-02
08/02/2011,Completed,04/03/2013,11-03512058,Tree Trim,Parkway,4858 S DAMEN AVE,60609.0,1163842.89089743,1872447.51718682,20.0,9.0,61.0,41.805622602879424,-87.67461301494154,"(41.805622602879424, -87.67461301494153)",2011-08-02
08/02/2011,Completed,04/10/2012,11-03518138,Tree Trim,Parkway,831 E 90TH PL,60619.0,1183318.39796564,1845146.7654284001,8.0,6.0,44.0,41.730274897675756,-87.60403403040512,"(41.73027489767576, -87.60403403040513)",2011-08-02
08/02/2011,Completed,04/13/2012,11-03514167,Tree Trim,Parkway,10757 S FOREST AVE,,1180154.10361031,1833697.43281244,9.0,5.0,49.0,41.69892943408653,-87.615975183132,"(41.69892943408653, -87.615975183132)",2011-08-02
08/02/2011,Completed,04/17/2012,11-03513290,Tree Trim,Parkway,1521 N FAIRFIELD AVE,60622.0,1157807.1721816002,1910000.15950109,26.0,14.0,24.0,41.908795870610966,-87.69572702447773,"(41.90879587061097, -87.69572702447773)",2011-08-02
08/02/2011,Completed,04/18/2012,11-03510445,Tree Trim,Parkway,4349 S DR MARTIN LUTHER KING JR DR,60653.0,1179583.29588973,1876259.60689711,3.0,2.0,38.0,41.8157377497016,-87.61676712549685,"(41.8157377497016, -87.61676712549684)",2011-08-02
08/02/2011,Completed,04/25/2012,11-03514417,Tree Trim,Parkway,5635 N MENARD AVE,60646.0,1136547.20052478,1937099.38373126,45.0,16.0,11.0,41.98356603068624,-87.7731764845759,"(41.983566030686234, -87.7731764845759)",2011-08-02
08/02/2011,Completed,05/09/2012,11-03510769,Tree Trim,Parkway,338 W 116TH ST,60628.0,1176004.99282948,1828003.06638595,34.0,5.0,53.0,41.6833970679919,-87.63133712991659,"(41.6833970679919, -87.63133712991659)",2011-08-02
08/02/2011,Completed,05/09/2012,11-03511888,Tree Trim,Parkway,537 W 57TH ST,60621.0,1173568.65802787,1867112.24158474,3.0,7.0,68.0,41.790771971045295,-87.63910082455406,"(41.790771971045295, -87.63910082455406)",2011-08-02
08/02/2011,Completed,05/09/2012,11-03517605,Tree Trim,,6229 S MASON AVE,60638.0,1137811.80789261,1862628.14496644,13.0,8.0,64.0,41.779184329283524,-87.77032223009948,"(41.779184329283524, -87.77032223009948)",2011-08-02
08/02/2011,Completed,05/10/2012,11-03511857,Tree Trim,Parkway,3204 S RACINE AVE,60608.0,1168838.8688015,1883551.91447317,11.0,9.0,60.0,41.835987670018746,-87.65596865353125,"(41.835987670018746, -87.65596865353125)",2011-08-02
08/02/2011,Completed,05/10/2012,11-03514095,Tree Trim,,9440 S LA SALLE ST,60620.0,1176941.03879444,1842357.09487692,21.0,6.0,49.0,41.722765581323216,-87.62747993945548,"(41.72276558132322, -87.62747993945548)",2011-08-02
08/02/2011,Completed,05/14/2012,11-03510811,Tree Trim,Parkway,5252 N VIRGINIA AVE,60625.0,1155587.24216656,1934835.98000033,40.0,20.0,4.0,41.976992082895016,-87.70321134607563,"(41.976992082895016, -87.70321134607562)",2011-08-02
08/02/2011,Completed,05/16/2012,11-03512671,Tree Trim,Parkway,2326 N CLEVELAND AVE,60614.0,1172537.69130599,1915734.75368032,43.0,18.0,7.0,41.92421865078604,-87.6414444338298,"(41.92421865078604, -87.64144443382982)",2011-08-02
08/02/2011,Completed,05/17/2012,11-03509463,Tree Trim,,2700 S SPAULDING AVE,60623.0,1154799.13530737,1885876.4311916,22.0,10.0,30.0,41.84265868557629,-87.7074234155245,"(41.84265868557629, -87.7074234155245)",2011-08-02
08/02/2011,Completed,05/18/2012,11-03516858,Tree Trim,Parkway,2911 S NORMAL AVE,60616.0,1173430.13011074,1885626.50711285,11.0,9.0,60.0,41.84157993850281,-87.6390602735874,"(41.84157993850281, -87.6390602735874)",2011-08-02
08/02/2011,Completed,05/25/2012,11-03513180,Tree Trim,Parkway,2138 W SHAKESPEARE AVE,60647.0,1161747.99279106,1914382.39181046,32.0,14.0,22.0,41.920739730467844,-87.6811278958486,"(41.920739730467844, -87.68112789584859)",2011-08-02
08/02/2011,Completed,05/29/2012,11-03510520,Tree Trim,Parkway,2801 W ESTES AVE,60645.0,1156433.41451235,1946967.81590944,50.0,24.0,2.0,42.01026524447935,-87.69976950805592,"(42.01026524447935, -87.69976950805592)",2011-08-02
08/02/2011,Completed,05/29/2012,11-03510916,Tree Trim,Parkway,5641 W WARWICK AVE,60634.0,1138076.92513229,1924368.80201956,38.0,16.0,15.0,41.94860457049947,-87.76785935492174,"(41.94860457049947, -87.76785935492174)",2011-08-02
08/02/2011,Completed,05/31/2012,11-03509782,Tree Trim,,11143 S GREEN ST,60643.0,1172639.41823363,1830947.59421281,34.0,22.0,75.0,41.69155191444296,-87.64357099558254,"(41.691551914442954, -87.64357099558254)",2011-08-02
08/02/2011,Completed,06/21/2012,11-03515266,Tree Trim,Parkway,5411 W GIDDINGS ST,60630.0,1139355.8995198,1930887.03828353,45.0,16.0,15.0,41.96646796258845,-87.76299855291404,"(41.966467962588446, -87.76299855291404)",2011-08-02
08/02/2011,Completed,08/02/2011,11-03515346,Tree Trim,,3801 N PIONEER AVE,60634.0,1120719.96610498,1924239.38822724,36.0,16.0,17.0,41.94854595200779,-87.83166450776001,"(41.94854595200779, -87.83166450776001)",2011-08-02
08/02/2011,Completed,08/02/2011,11-03515578,Tree Trim,,5933 N NEWARK AVE,60631.0,1130118.48962775,1938996.55301326,41.0,16.0,10.0,41.98888497802077,-87.79677687372372,"(41.98888497802077, -87.79677687372372)",2011-08-02
08/02/2011,Completed,08/02/2011,11-03516024,Tree Trim,,5028 S KEATING AVE,60632.0,1145541.93592949,1870866.51097192,23.0,8.0,56.0,41.80164936379107,-87.74177448975846,"(41.80164936379107, -87.74177448975846)",2011-08-02
08/02/2011,Completed,08/02/2011,11-03516094,Tree Trim,,1541 E 74TH PL,60619.0,1187918.04510651,1855898.77598086,5.0,3.0,43.0,41.75967128041246,-87.58684260776434,"(41.75967128041246, -87.58684260776435)",2011-08-02
08/02/2011,Completed,08/02/2011,11-03516134,Tree Trim,,3759 N CUMBERLAND AVE,60634.0,1119397.793067,1923910.07722537,36.0,16.0,17.0,41.947663413139374,-87.83653170558856,"(41.947663413139374, -87.83653170558854)",2011-08-02
08/02/2011,Completed,08/09/2011,11-03512397,Tree Trim,Parkway,10100 S LAFAYETTE AVE,60628.0,1177705.55613139,1837999.75267479,9.0,5.0,49.0,41.710791215337856,-87.62481095882951,"(41.71079121533785, -87.62481095882951)",2011-08-02
08/02/2011,Completed,08/12/2011,11-03512011,Tree Trim,Parkway,2200 E 100TH ST,60617.0,1192490.34300207,1839092.66909666,7.0,4.0,51.0,41.713443696811794,-87.57063133787594,"(41.713443696811794, -87.57063133787594)",2011-08-02
08/02/2011,Completed,08/14/2012,11-03511767,Tree Trim,Parkway,6311 W NEWPORT AVE,60634.0,1133705.17560837,1922275.38537831,36.0,16.0,17.0,41.94293803227063,-87.78397867741477,"(41.942938032270625, -87.78397867741477)",2011-08-02
08/02/2011,Completed,08/16/2012,11-03513741,Tree Trim,Parkway,7529 S EAST END AVE,60649.0,1188841.91479268,1855392.45113277,8.0,4.0,43.0,41.75825983078681,-87.58347286473067,"(41.758259830786805, -87.58347286473067)",2011-08-02
08/02/2011,Completed,08/20/2012,11-03517437,Tree Trim,Parkway,7814 S KIMBARK AVE,60619.0,1186234.69796787,1853444.36759948,8.0,4.0,45.0,41.75297606810114,-87.59308936789715,"(41.75297606810114, -87.59308936789716)",2011-08-02
08/02/2011,Completed,08/22/2011,11-03511749,Tree Trim,Parkway,6100 N GLENWOOD AVE,60660.0,1165871.63319092,1940625.70896815,48.0,24.0,77.0,41.992665445840785,-87.66522506992659,"(41.99266544584079, -87.66522506992658)",2011-08-02
08/02/2011,Completed,08/30/2012,11-03512882,Tree Trim,,9530 S AVALON AVE,60628.0,1186209.55052274,1841876.29000464,8.0,5.0,50.0,41.72123264171694,-87.59354592252329,"(41.72123264171694, -87.59354592252328)",2011-08-02
08/02/2011,Completed,09/02/2011,11-03510770,Tree Trim,Alley,8422 S BENNETT AVE,60617.0,1190322.77922098,1849508.10619065,8.0,4.0,45.0,41.74207711366051,-87.57823498399176,"(41.742077113660514, -87.57823498399176)",2011-08-02
08/02/2011,Completed,09/09/2011,11-03510842,Tree Trim,Parkway,1712 N HONORE ST,60622.0,1163749.80350647,1911472.64182544,32.0,14.0,24.0,41.91271317123292,-87.67385504364991,"(41.91271317123292, -87.67385504364991)",2011-08-02
08/02/2011,Completed,09/11/2012,11-03517052,Tree Trim,Parkway,4951 N MOODY AVE,60630.0,1134203.54297034,1932577.64036894,45.0,16.0,11.0,41.971199687875036,-87.78190324216858,"(41.971199687875036, -87.78190324216858)",2011-08-02
08/02/2011,Completed,09/14/2011,11-03515601,Tree Trim,Vacant Lot,1344 S KOLIN AVE,60623.0,1147598.51372176,1893388.16182873,24.0,10.0,29.0,41.863412798070975,-87.73365552796015,"(41.863412798070975, -87.73365552796014)",2011-08-02
08/02/2011,Completed,09/22/2011,11-03513687,Tree Trim,,2556 N LAMON AVE,60639.0,1143288.55072133,1916645.26670416,31.0,25.0,19.0,41.92731450486251,-87.74889570629587,"(41.92731450486251, -87.74889570629588)",2011-08-02
08/02/2011,Completed,10/15/2012,11-03511142,Tree Trim,Parkway,7754 S SANGAMON ST,60620.0,1171319.32488047,1853415.07740889,17.0,6.0,71.0,41.75323484643716,-87.64774893227448,"(41.75323484643716, -87.64774893227447)",2011-08-02
08/02/2011,Completed,10/15/2012,11-03515402,Tree Trim,Parkway,7748 S SANGAMON ST,60620.0,1171318.22341059,1853455.2050741,17.0,6.0,71.0,41.753344986043295,-87.64775179693476,"(41.7533449860433, -87.64775179693477)",2011-08-02
08/02/2011,Completed,10/18/2012,11-03516633,Tree Trim,Parkway,3356 N OAK PARK AVE,60634.0,1130491.06190955,1921554.96413368,36.0,16.0,17.0,41.941017030152395,-87.79580894048954,"(41.941017030152395, -87.79580894048955)",2011-08-02
08/02/2011,Completed,11/10/2011,11-03516865,Tree Trim,Parkway,4725 S CAMPBELL AVE,60632.0,1160498.09510619,1873182.31986748,12.0,9.0,58.0,41.807708685042,-87.68686020271385,"(41.807708685042, -87.68686020271385)",2011-08-02
08/02/2011,Completed,11/14/2011,11-03517477,Tree Trim,,4107 N MCVICKER AVE,60634.0,1135285.7321294,1926677.33960728,38.0,16.0,15.0,41.95498950804865,-87.77806444424436,"(41.95498950804865, -87.77806444424438)",2011-08-02
08/02/2011,Completed,11/16/2011,11-03514274,Tree Trim,,7823 W ADDISON ST,60634.0,1123191.85978903,1923014.73406607,36.0,16.0,17.0,41.94514528646262,-87.82260490116516,"(41.94514528646262, -87.82260490116516)",2011-08-02
08/02/2011,Completed,11/28/2011,11-03510695,Tree Trim,Vacant Lot,1231 S KOSTNER AVE,60623.0,1147241.23489135,1894131.93039709,24.0,10.0,29.0,41.865460631564005,-87.7349480541475,"(41.865460631564005, -87.73494805414748)",2011-08-02
08/02/2011,Completed,11/30/2011,11-03516876,Tree Trim,Parkway,2456 W 47TH PL,60632.0,1160791.39510619,1873110.31986748,12.0,9.0,58.0,41.80750504891499,-87.68578644232667,"(41.80750504891499, -87.68578644232669)",2011-08-02
08/02/2011,Completed,12/02/2011,11-03511258,Tree Trim,Parkway,2445 S LAWNDALE AVE,60623.0,1152093.73719409,1887505.21898386,22.0,10.0,30.0,41.84718195507701,-87.71730870846518,"(41.84718195507701, -87.71730870846517)",2011-08-02
08/02/2011,Completed,12/02/2011,11-03512223,Tree Trim,Vacant Lot,2256 S KOSTNER AVE,60623.0,1147410.1405153,1888622.84160539,22.0,10.0,29.0,41.85033976409819,-87.73446904918373,"(41.85033976409819, -87.73446904918374)",2011-08-02
08/02/2011,Completed,12/07/2012,11-03509193,Tree Trim,Parkway,830 W 95TH ST,60643.0,1172329.37212096,1841838.37237446,21.0,22.0,73.0,41.72144465433604,-87.64438711419153,"(41.72144465433604, -87.64438711419153)",2011-08-02
08/02/2011,Completed,12/09/2011,11-03514522,Tree Trim,,244 E PEARSON ST,60611.0,1178451.51008603,1906098.32709085,42.0,18.0,8.0,41.89764293718733,-87.62000937132082,"(41.89764293718733, -87.62000937132083)",2011-08-02
08/02/2011,Completed,12/22/2011,11-03511234,Tree Trim,Parkway,2447 S LAWNDALE AVE,60623.0,1152094.13719409,1887491.81898386,22.0,10.0,30.0,41.84714517595937,-87.71730759322277,"(41.84714517595937, -87.71730759322276)",2011-08-02
08/02/2011,Completed,12/26/2012,11-03513633,Tree Trim,Parkway,5173 W CONCORD PL,60639.0,1141697.32920132,1910481.71001309,37.0,25.0,25.0,41.91043065837969,-87.75489562969362,"(41.91043065837969, -87.75489562969362)",2011-08-02
08/02/2011,Completed,12/27/2011,11-03512968,Tree Trim,Parkway,45 E 36TH PL,60653.0,1177321.85259681,1880976.97047841,3.0,2.0,35.0,41.82873403741975,-87.62491977960045,"(41.82873403741975, -87.62491977960046)",2011-08-02
08/02/2011,Completed,12/31/2012,11-03517380,Tree Trim,Parkway,4939 N KIMBALL AVE,60625.0,1152819.33982559,1932749.15552555,39.0,17.0,14.0,41.9713211307917,-87.71344573043461,"(41.9713211307917, -87.71344573043461)",2011-08-02
08/03/2011,Completed - Dup,01/12/2012,11-03521675,Tree Trim,Parkway,2635 N ALBANY AVE,60647.0,1155256.19858595,1917416.63830514,35.0,14.0,22.0,41.92919894755636,-87.70489847663794,"(41.92919894755636, -87.70489847663794)",2011-08-03
08/03/2011,Completed - Dup,01/17/2012,11-03520954,Tree Trim,,3655 N JANSSEN AVE,60613.0,1165989.6701222,1924371.52997349,44.0,19.0,6.0,41.948060874150734,-87.66525712109741,"(41.948060874150734, -87.66525712109741)",2011-08-03
08/03/2011,Completed - Dup,01/19/2012,11-03523404,Tree Trim,Parkway,10535 S WALLACE ST,60628.0,1174171.39070469,1834954.05997767,34.0,22.0,49.0,41.70251246135393,-87.63784383907934,"(41.70251246135394, -87.63784383907934)",2011-08-03
08/03/2011,Completed - Dup,01/20/2012,11-03519185,Tree Trim,Parkway,9606 S DOBSON AVE,60628.0,1184900.27327616,1841461.03102077,8.0,5.0,50.0,41.720123896980986,-87.59835447108036,"(41.720123896980986, -87.59835447108036)",2011-08-03
08/03/2011,Completed - Dup,01/27/2012,11-03521078,Tree Trim,Parkway,5600 S SEELEY AVE,60636.0,1163649.16622253,1867510.99218694,15.0,7.0,67.0,41.792080240842026,-87.67546208874028,"(41.79208024084202, -87.67546208874026)",2011-08-03
08/03/2011,Completed - Dup,01/31/2013,11-03523762,Tree Trim,Parkway,10521 S AVENUE M,60617.0,1201511.76172168,1835800.24569175,10.0,4.0,52.0,41.70418497507989,-87.5377038662802,"(41.70418497507989, -87.53770386628018)",2011-08-03
08/03/2011,Completed - Dup,02/01/2012,11-03521705,Tree Trim,Parkway,5528 S RUTHERFORD AVE,60638.0,1132324.77899423,1867142.00712743,23.0,8.0,56.0,41.791668036673215,-87.79033419503666,"(41.79166803667322, -87.79033419503666)",2011-08-03
08/03/2011,Completed - Dup,02/01/2012,11-03522212,Tree Trim,Parkway,8034 S ST LOUIS AVE,60652.0,1154451.51727503,1850976.48988938,18.0,8.0,70.0,41.74689518088498,-87.70962829786221,"(41.746895180884984, -87.70962829786221)",2011-08-03
08/03/2011,Completed - Dup,02/01/2012,11-03522462,Tree Trim,Parkway,5356 S NAGLE AVE,60638.0,1134287.46341711,1868369.44246858,23.0,8.0,56.0,41.79500209793084,-87.78310842416802,"(41.79500209793084, -87.78310842416802)",2011-08-03
08/03/2011,Completed - Dup,02/01/2012,11-03524290,Tree Trim,Parkway,3436 W 83RD ST,60652.0,1154920.72299533,1849343.1920124001,18.0,8.0,70.0,41.74240379303126,-87.70795248350842,"(41.74240379303126, -87.70795248350842)",2011-08-03
08/03/2011,Completed - Dup,02/01/2012,11-03526146,Tree Trim,Parkway,5201 S LONG AVE,60638.0,1141242.06378528,1869608.75800834,23.0,8.0,56.0,41.798278005826376,-87.75757494029484,"(41.798278005826376, -87.75757494029484)",2011-08-03
08/03/2011,Completed - Dup,02/21/2013,11-03521234,Tree Trim,Parkway,1534 S WASHTENAW AVE,60608.0,1158619.5258924998,1892284.44368806,28.0,10.0,29.0,41.86016570746675,-87.69322824559099,"(41.86016570746675, -87.693228245591)",2011-08-03
08/03/2011,Completed - Dup,02/24/2012,11-03525488,Tree Trim,Parkway,226 W 108TH ST,60628.0,1176689.08287317,1833324.58779423,34.0,5.0,49.0,41.69798479046597,-87.62867357108347,"(41.69798479046597, -87.62867357108347)",2011-08-03
08/03/2011,Completed - Dup,02/26/2013,11-03523784,Tree Trim,Parkway,6789 W TALCOTT AVE,60656.0,1129987.86689957,1936247.56568212,41.0,16.0,10.0,41.981343739932115,-87.79732060941551,"(41.981343739932115, -87.79732060941551)",2011-08-03
08/03/2011,Completed - Dup,02/28/2013,11-03525784,Tree Trim,Parkway,3748 S HERMITAGE AVE,60609.0,1165299.42689993,1879855.87037492,11.0,9.0,59.0,41.82592119593362,-87.66906095907045,"(41.825921195933624, -87.66906095907046)",2011-08-03
08/03/2011,Completed - Dup,03/02/2012,11-03523501,Tree Trim,Parkway,3014 E 80TH ST,60617.0,1197722.08010338,1852504.55723174,7.0,4.0,46.0,41.750118232374184,-87.55102481078745,"(41.75011823237418, -87.55102481078745)",2011-08-03
08/03/2011,Completed - Dup,03/09/2012,11-03525920,Tree Trim,Parkway,10530 S HAMILTON AVE,60643.0,1163904.1817206002,1834784.66149937,19.0,22.0,72.0,41.702268986309136,-87.6754444988912,"(41.70226898630913, -87.6754444988912)",2011-08-03
08/03/2011,Completed - Dup,03/16/2012,11-03523811,Tree Trim,Parkway,6143 S RHODES AVE,60637.0,1180962.63662361,1864397.83208238,20.0,3.0,42.0,41.78315633888088,-87.61207259318233,"(41.78315633888088, -87.61207259318235)",2011-08-03
08/03/2011,Completed - Dup,05/08/2012,11-03518544,Tree Trim,Parkway,9320 S ESSEX AVE,60617.0,1194464.0949871,1843651.14348321,7.0,4.0,48.0,41.725904376123644,-87.56325355993204,"(41.72590437612364, -87.56325355993205)",2011-08-03
08/03/2011,Completed - Dup,05/08/2012,11-03525455,Tree Trim,Parkway,2724 W CHICAGO AVE,60622.0,1158004.80989071,1905214.89466559,26.0,13.0,24.0,41.89566066536798,-87.69513177217539,"(41.89566066536798, -87.69513177217539)",2011-08-03
08/03/2011,Completed - Dup,05/30/2012,11-03527027,Tree Trim,Parkway,7110 N OLEANDER AVE,60631.0,1125112.16453432,1946608.42388259,41.0,16.0,9.0,42.00985727444179,-87.81502170813214,"(42.0098572744418, -87.81502170813212)",2011-08-03
08/03/2011,Completed - Dup,06/06/2012,11-03520458,Tree Trim,Parkway,7432 S ELLIS AVE,60619.0,1184016.265631,1855928.80369721,8.0,3.0,69.0,41.7598457005935,-87.60114146337769,"(41.7598457005935, -87.60114146337769)",2011-08-03
08/03/2011,Completed - Dup,06/11/2012,11-03523625,Tree Trim,Parkway,3850 N NOTTINGHAM AVE,60634.0,1128058.70768707,1924429.03852451,38.0,16.0,17.0,41.948945333929046,-87.80468379350344,"(41.948945333929046, -87.80468379350343)",2011-08-03
08/03/2011,Completed - Dup,07/10/2012,11-03524549,Tree Trim,Parkway,7924 S NORMAL AVE,60620.0,1174341.02207636,1852273.71007219,17.0,6.0,44.0,41.75003618387852,-87.63670945894472,"(41.75003618387852, -87.63670945894472)",2011-08-03
08/03/2011,Completed - Dup,07/11/2012,11-03525885,Tree Trim,Parkway,7228 S HERMITAGE AVE,60636.0,1165932.21216638,1856762.33460375,17.0,7.0,67.0,41.76253628828793,-87.66739573160056,"(41.76253628828793, -87.66739573160056)",2011-08-03
08/03/2011,Completed - Dup,08/04/2011,11-03525350,Tree Trim,Parkway,9535 S CLYDE AVE,60617.0,1192174.46269688,1842032.39012022,7.0,4.0,51.0,41.72151826027778,-87.57169294095777,"(41.72151826027778, -87.57169294095777)",2011-08-03
08/03/2011,Completed - Dup,08/29/2011,11-03524244,Tree Trim,Parkway,8600 W SUNNYSIDE AVE,60656.0,1117954.38000446,1928863.37267561,36.0,16.0,76.0,41.96127873020481,-87.84173304138031,"(41.96127873020481, -87.84173304138031)",2011-08-03
08/03/2011,Completed - Dup,09/09/2011,11-03522886,Tree Trim,Parkway,2300 W 96TH ST,60643.0,1162729.58473322,1840929.16711147,19.0,22.0,72.0,41.71915508483312,-87.67957474613114,"(41.71915508483312, -87.67957474613114)",2011-08-03
08/03/2011,Completed - Dup,09/13/2012,11-03526330,Tree Trim,Parkway,5516 W VAN BUREN ST,60644.0,1139819.68899149,1897470.40648036,29.0,15.0,25.0,41.87476057978171,-87.76211167969356,"(41.874760579781714, -87.76211167969356)",2011-08-03
08/03/2011,Completed - Dup,09/14/2011,11-03518518,Tree Trim,Parkway,1823 S TROY ST,60623.0,1155644.00323095,1891031.32323045,24.0,10.0,29.0,41.85678736262688,-87.70418436192676,"(41.85678736262688, -87.70418436192676)",2011-08-03
08/03/2011,Completed - Dup,09/26/2012,11-03526365,Tree Trim,Parkway,2621 N MOODY AVE,60639.0,1134958.79992137,1916773.14401537,29.0,25.0,19.0,41.927817133044414,-87.77950156485943,"(41.927817133044414, -87.77950156485942)",2011-08-03
08/03/2011,Completed - Dup,10/28/2011,11-03524211,Tree Trim,Parkway,4818 W CONGRESS PKWY,60644.0,1144362.92328501,1897253.90423085,24.0,15.0,25.0,41.874082289492115,-87.74543608669191,"(41.87408228949212, -87.74543608669192)",2011-08-03
08/03/2011,Completed - Dup,11/04/2011,11-03522444,Tree Trim,Parkway,9009 S MARSHFIELD AVE,60620.0,1166920.03871982,1844945.49401431,21.0,22.0,73.0,41.73008815356845,-87.66411203400335,"(41.730088153568445, -87.66411203400334)",2011-08-03
08/03/2011,Completed - Dup,11/07/2011,11-03523677,Tree Trim,Parkway,5422 N MONT CLARE AVE,60656.0,1127992.25249107,1935658.61277993,41.0,16.0,10.0,41.97976162782909,-87.80467339089432,"(41.979761627829085, -87.80467339089431)",2011-08-03
08/03/2011,Completed - Dup,11/09/2011,11-03522926,Tree Trim,Parkway,4823 N NEWLAND AVE,60656.0,1129255.13401167,1931712.00011818,41.0,16.0,10.0,41.96891024002499,-87.8001192585313,"(41.96891024002499, -87.80011925853131)",2011-08-03
08/03/2011,Completed - Dup,11/14/2012,11-03521466,Tree Trim,Parkway,9805 S AVENUE J,60617.0,1202456.52177543,1840724.28363204,10.0,4.0,52.0,41.71767292215333,-87.53407703981769,"(41.71767292215333, -87.5340770398177)",2011-08-03
08/03/2011,Completed - Dup,11/21/2011,11-03523207,Tree Trim,Parkway,6131 S MAY ST,60621.0,1169701.46471041,1864137.253586,16.0,7.0,68.0,41.782693073818564,-87.65336714006371,"(41.782693073818564, -87.6533671400637)",2011-08-03
08/03/2011,Completed - Dup,11/21/2011,11-03526032,Tree Trim,Parkway,52 E OHIO ST,60611.0,1176721.77288564,1904211.0496666,42.0,18.0,8.0,41.892503443539894,-87.62641953377232,"(41.89250344353989, -87.62641953377232)",2011-08-03
08/03/2011,Completed - Dup,11/30/2011,11-03521008,Tree Trim,Parkway,5126 W VAN BUREN ST,60644.0,1142097.95869818,1897523.02126769,28.0,15.0,25.0,41.87486305039128,-87.75374542186512,"(41.874863050391276, -87.75374542186512)",2011-08-03
08/03/2011,Completed - Dup,12/02/2011,11-03522489,Tree Trim,Parkway,4935 N NASHVILLE AVE,60656.0,1131566.34751378,1932426.00167385,41.0,16.0,10.0,41.97082974579804,-87.7916042085501,"(41.97082974579804, -87.7916042085501)",2011-08-03
08/03/2011,Completed - Dup,12/12/2011,11-03521849,Tree Trim,Parkway,8115 S ALBANY AVE,60652.0,1157124.1183928999,1850638.72387834,18.0,8.0,70.0,41.7459147184533,-87.69984421057691,"(41.7459147184533, -87.69984421057691)",2011-08-03
08/03/2011,Completed - Dup,12/14/2011,11-03520915,Tree Trim,Parkway,5544 S AUSTIN AVE,60638.0,1137314.85601157,1867195.74371213,23.0,8.0,56.0,41.79172755319735,-87.7720348281972,"(41.79172755319734, -87.77203482819722)",2011-08-03
08/03/2011,Completed - Dup,12/19/2011,11-03525917,Tree Trim,Parkway,537 W 44TH ST,60609.0,1173297.96989395,1875740.32183249,11.0,9.0,61.0,41.81445429392392,-87.63983811044426,"(41.81445429392392, -87.63983811044427)",2011-08-03
08/03/2011,Completed - Dup,12/19/2012,11-03524965,Tree Trim,Parkway,5127 N OAKLEY AVE,60625.0,1160085.52941629,1934062.30202205,47.0,20.0,4.0,41.97477708613853,-87.6866906081017,"(41.97477708613853, -87.68669060810169)",2011-08-03
08/03/2011,Completed - Dup,12/22/2011,11-03521541,Tree Trim,Parkway,8108 W ADDISON ST,60634.0,1121348.97799868,1922933.86480136,36.0,16.0,17.0,41.944953303091495,-87.82938053772345,"(41.94495330309149, -87.82938053772345)",2011-08-03
08/03/2011,Completed - Dup,12/28/2012,11-03522427,Tree Trim,Parkway,7421 S MICHIGAN AVE,60619.0,1178444.2555291,1855838.90087077,6.0,3.0,69.0,41.759727324890534,-87.62156541905338,"(41.75972732489053, -87.62156541905338)",2011-08-03
08/03/2011,Completed,01/05/2012,11-03524323,Tree Trim,Parkway,4101 W 26TH ST,60623.0,1149312.41991429,1886403.50378078,22.0,10.0,30.0,41.84421300121246,-87.72754474008755,"(41.84421300121246, -87.72754474008754)",2011-08-03
08/03/2011,Completed,01/09/2012,11-03525869,Tree Trim,Parkway,10642 S HOYNE AVE,60643.0,1164253.53619995,1834040.91907473,19.0,22.0,72.0,41.700220700363154,-87.67418609709337,"(41.70022070036316, -87.67418609709337)",2011-08-03
08/03/2011,Completed,01/10/2012,11-03521022,Tree Trim,Parkway,2025 N SEMINARY AVE,60614.0,1168644.55987645,1913630.31340807,43.0,18.0,7.0,41.91852926061906,-87.65581039519527,"(41.91852926061906, -87.65581039519526)",2011-08-03
08/03/2011,Completed,01/10/2013,11-03522720,Tree Trim,Parkway,3611 W 115TH PL,60655.0,1154341.10356926,1827764.7144841999,19.0,22.0,74.0,41.68320003103475,-87.71064801089442,"(41.68320003103475, -87.71064801089442)",2011-08-03
08/03/2011,Completed,01/13/2012,11-03523558,Tree Trim,Parkway,2606 W 105TH ST,60655.0,1160839.30120101,1834914.78680501,19.0,22.0,72.0,41.70268977387751,-87.68666373752116,"(41.70268977387751, -87.68666373752116)",2011-08-03
08/03/2011,Completed,01/17/2012,11-03522430,Tree Trim,Parkway,5245 S MAYFIELD AVE,60638.0,1137921.44868431,1869221.17163307,23.0,8.0,56.0,41.79727479012421,-87.76976182913393,"(41.79727479012421, -87.76976182913393)",2011-08-03
08/03/2011,Completed,01/17/2012,11-03524057,Tree Trim,Parkway,5158 S NASHVILLE AVE,60638.0,1133252.02270023,1869654.16301608,23.0,8.0,56.0,41.79854572698067,-87.78687552894888,"(41.79854572698067, -87.78687552894887)",2011-08-03
08/03/2011,Completed,01/17/2012,11-03524089,Tree Trim,Parkway,5154 S NASHVILLE AVE,60638.0,1133251.22270023,1869681.26301608,23.0,8.0,56.0,41.79862010821044,-87.78687783099684,"(41.798620108210436, -87.78687783099683)",2011-08-03
08/03/2011,Completed,01/18/2012,11-03522466,Tree Trim,Alley,2119 N CAMPBELL AVE,60647.0,1159535.26540779,1914299.92986585,1.0,14.0,22.0,41.920559340290716,-87.6892602026762,"(41.92055934029071, -87.68926020267621)",2011-08-03
08/03/2011,Completed,01/18/2012,11-03525951,Tree Trim,Parkway,10532 S HAMILTON AVE,60643.0,1163904.5817206001,1834771.16149937,19.0,22.0,72.0,41.702231931631616,-87.67544341182129,"(41.70223193163162, -87.67544341182129)",2011-08-03
08/03/2011,Completed,01/19/2012,11-03520655,Tree Trim,Parkway,5442 W HADDON AVE,60651.0,1139756.5414173,1907129.53998676,37.0,15.0,25.0,41.90126760667385,-87.76210745209639,"(41.90126760667385, -87.76210745209639)",2011-08-03
08/03/2011,Completed,01/19/2012,11-03522299,Tree Trim,Parkway,400 W 107TH ST,60628.0,1175515.34868545,1833959.74533444,34.0,22.0,49.0,41.699754027756065,-87.63295224557768,"(41.69975402775606, -87.63295224557767)",2011-08-03
08/03/2011,Completed,01/19/2012,11-03526760,Tree Trim,Parkway,4420 S ROCKWELL ST,60632.0,1159772.28641812,1875264.90331217,12.0,9.0,58.0,41.813438506264575,-87.68946505881861,"(41.81343850626457, -87.68946505881861)",2011-08-03
08/03/2011,Completed,01/20/2012,11-03518666,Tree Trim,Alley,5470 S RIDGEWOOD CT,60615.0,1186238.75001816,1869252.25996732,4.0,21.0,41.0,41.796354199788354,-87.59257554280403,"(41.79635419978835, -87.59257554280403)",2011-08-03
08/03/2011,Completed,01/20/2012,11-03526229,Tree Trim,Parkway,8105 S WASHTENAW AVE,60652.0,1159784.79989197,1850782.92770975,18.0,8.0,70.0,41.74625627021383,-87.69009090526077,"(41.74625627021383, -87.69009090526076)",2011-08-03
08/03/2011,Completed,01/20/2012,11-03526764,Tree Trim,Parkway,3121 W 84TH ST,60652.0,1157125.95837184,1848740.65653135,18.0,8.0,70.0,41.74070607445841,-87.6998886648454,"(41.74070607445841, -87.6998886648454)",2011-08-03
08/03/2011,Completed,01/22/2013,11-03525795,Tree Trim,Parkway,1529 N LONG AVE,60651.0,1140070.43379553,1909641.53151117,37.0,25.0,25.0,41.908155063664495,-87.76089290685196,"(41.908155063664495, -87.76089290685196)",2011-08-03
08/03/2011,Completed,01/23/2012,11-03518618,Tree Trim,Parkway,8535 S KINGSTON AVE,60617.0,1194647.71691331,1848874.87800096,7.0,4.0,46.0,41.740234250767,-87.56240956417959,"(41.740234250766996, -87.5624095641796)",2011-08-03
08/03/2011,Completed,01/25/2012,11-03521763,Tree Trim,Parkway,838 N WOLCOTT AVE,60622.0,1163579.98337581,1905731.96007289,1.0,13.0,24.0,41.896963907374186,-87.67464086141561,"(41.896963907374186, -87.67464086141561)",2011-08-03
08/03/2011,Completed,01/26/2012,11-03518384,Tree Trim,Parkway,3154 W BELDEN AVE,60647.0,1154748.66887296,1915237.51866915,26.0,14.0,22.0,41.92322946299315,-87.70682201037647,"(41.92322946299315, -87.70682201037647)",2011-08-03
08/03/2011,Completed,01/26/2012,11-03518619,Tree Trim,Parkway,1030 W ARDMORE AVE,60660.0,1168251.79148045,1938701.80493097,48.0,20.0,77.0,41.98733492338758,-87.65652599989878,"(41.98733492338758, -87.65652599989878)",2011-08-03
08/03/2011,Completed,01/26/2012,11-03523043,Tree Trim,Parkway,7012 W DIVERSEY AVE,60707.0,1128987.11870628,1917827.09493293,36.0,25.0,18.0,41.93081305296192,-87.80142162084006,"(41.930813052961916, -87.80142162084007)",2011-08-03
08/03/2011,Completed,01/26/2012,11-03525898,Tree Trim,Parkway,4150 W BELDEN AVE,60639.0,1148240.55193133,1914963.4454979,31.0,25.0,20.0,41.922605369527346,-87.73074239324527,"(41.92260536952735, -87.73074239324527)",2011-08-03
08/03/2011,Completed,01/27/2012,11-03521129,Tree Trim,,952 N HOYNE AVE,60622.0,1162228.67080923,1906417.28009884,32.0,13.0,24.0,41.898872840999104,-87.67958484049952,"(41.898872840999104, -87.67958484049952)",2011-08-03
08/03/2011,Completed,01/27/2012,11-03524545,Tree Trim,Parkway,1919 W CORTLAND ST,60622.0,1163185.32600185,1912655.52237499,32.0,14.0,22.0,41.91597096768897,-87.67589547827303,"(41.91597096768897, -87.67589547827303)",2011-08-03
08/03/2011,Completed,01/30/2012,11-03525712,Tree Trim,Parkway,3735 W 104TH ST,60655.0,1153154.15993204,1835388.55252887,19.0,22.0,74.0,41.704144788827975,-87.71479263088017,"(41.70414478882798, -87.71479263088017)",2011-08-03
08/03/2011,Completed,01/30/2012,11-03525835,Tree Trim,Parkway,3941 W 105TH ST,60655.0,1151921.32177758,1834688.34008091,19.0,22.0,74.0,41.70224748136131,-87.71932541441235,"(41.70224748136131, -87.71932541441234)",2011-08-03
08/03/2011,Completed,01/31/2012,11-03525295,Tree Trim,Parkway,1039 W ALTGELD ST,60614.0,1168942.24277213,1916783.96836764,43.0,19.0,7.0,41.92717659650428,-87.65462498278347,"(41.92717659650428, -87.65462498278347)",2011-08-03
08/03/2011,Completed,01/31/2013,11-03522284,Tree Trim,Parkway,7522 N DAMEN AVE,60645.0,1161659.65740916,1949921.1423798,49.0,24.0,1.0,42.01826149393968,-87.68045740411348,"(42.018261493939676, -87.68045740411348)",2011-08-03
08/03/2011,Completed,02/03/2012,11-03523602,Tree Trim,Parkway,8407 S KERFOOT AVE,60620.0,1173410.73321194,1849048.73710965,21.0,6.0,71.0,41.74120706016538,-87.64021362604878,"(41.74120706016538, -87.64021362604876)",2011-08-03
08/03/2011,Completed,02/07/2012,11-03521677,Tree Trim,Parkway,3413 N PARIS AVE,60634.0,1121147.09809873,1921604.84867126,36.0,16.0,17.0,41.9413095652903,-87.83015126241045,"(41.9413095652903, -87.83015126241045)",2011-08-03
08/03/2011,Completed,02/10/2012,11-03524730,Tree Trim,Parkway,6666 W IMLAY ST,60631.0,1130677.04506815,1942735.42722255,41.0,16.0,10.0,41.999135163198865,-87.7946358835823,"(41.999135163198865, -87.79463588358229)",2011-08-03
08/03/2011,Completed,02/14/2012,11-03518426,Tree Trim,Parkway,6894 N JEAN AVE,60646.0,1137137.45121991,1945492.6105104,41.0,16.0,12.0,42.006587088135866,-87.77080282954121,"(42.006587088135866, -87.77080282954121)",2011-08-03
08/03/2011,Completed,02/14/2012,11-03526263,Tree Trim,Parkway,5914 W ESTES AVE,60646.0,1136155.78081996,1946772.31207265,41.0,16.0,12.0,42.01011632609914,-87.77438385764229,"(42.010116326099144, -87.77438385764229)",2011-08-03
08/03/2011,Completed,02/15/2012,11-03523939,Tree Trim,Parkway,5322 N BROADWAY,60640.0,1167351.8151317,1935493.23999447,48.0,20.0,77.0,41.97855000405524,-87.65992891220688,"(41.978550004055236, -87.65992891220687)",2011-08-03
08/03/2011,Completed,02/21/2013,11-03521145,Tree Trim,Parkway,1534 S WASHTENAW AVE,60608.0,1158619.5258924998,1892284.44368806,28.0,10.0,29.0,41.86016570746675,-87.69322824559099,"(41.86016570746675, -87.693228245591)",2011-08-03
08/03/2011,Completed,02/23/2012,11-03522637,Tree Trim,Parkway,11336 S ST LAWRENCE AVE,60628.0,1182274.73489562,1829918.43771862,9.0,5.0,50.0,41.6885106294571,-87.60832695417776,"(41.6885106294571, -87.60832695417777)",2011-08-03
08/03/2011,Completed,02/23/2012,11-03526321,Tree Trim,Parkway,11330 S CHAMPLAIN AVE,60628.0,1182603.6031892,1829966.97429272,9.0,5.0,50.0,41.688636218852494,-87.60712149964426,"(41.68863621885249, -87.60712149964426)",2011-08-03
08/03/2011,Completed,02/24/2012,11-03521480,Tree Trim,Parkway,5736 S MONITOR AVE,60638.0,1138357.95750284,1865946.62009359,23.0,8.0,56.0,41.788280986848655,-87.7682399937489,"(41.78828098684866, -87.7682399937489)",2011-08-03
08/03/2011,Completed,02/24/2012,11-03525867,Tree Trim,Parkway,10804 S UNION AVE,60628.0,1173562.58487178,1833221.49630515,34.0,22.0,49.0,41.697771515512045,-87.6401241837817,"(41.697771515512045, -87.64012418378171)",2011-08-03
08/03/2011,Completed,02/25/2013,11-03523614,Tree Trim,Parkway,7032 W MELROSE ST,60634.0,1128670.78000473,1920796.9500173,36.0,16.0,17.0,41.93896807578848,-87.80251655040254,"(41.93896807578848, -87.80251655040254)",2011-08-03
08/03/2011,Completed,02/29/2012,11-03518405,Tree Trim,Alley,4853 W QUINCY ST,60644.0,1144100.02958227,1898562.15116844,28.0,15.0,25.0,41.87767721782151,-87.7463684738483,"(41.87767721782151, -87.74636847384829)",2011-08-03
08/03/2011,Completed,02/29/2012,11-03521699,Tree Trim,Parkway,2835 W 24TH BLVD,60623.0,1157829.81948989,1887798.14640971,12.0,10.0,30.0,41.8478709416183,-87.69624924366484,"(41.8478709416183, -87.69624924366485)",2011-08-03
08/03/2011,Completed,02/29/2012,11-03523204,Tree Trim,Parkway,12204 S LAFAYETTE AVE,60628.0,1178125.33122907,1824037.98401639,9.0,5.0,53.0,41.672468607125566,-87.62369489380848,"(41.672468607125566, -87.62369489380848)",2011-08-03
08/03/2011,Completed,02/29/2012,11-03525865,Tree Trim,,4117 W MAYPOLE AVE,60624.0,1148905.63199819,1901134.6980072,28.0,11.0,26.0,41.88464503447258,-87.72865681756197,"(41.88464503447258, -87.72865681756197)",2011-08-03
08/03/2011,Completed,02/29/2012,11-03526262,Tree Trim,Parkway,2410 N NEWLAND AVE,60707.0,1129685.9267761998,1915258.5007766997,36.0,25.0,18.0,41.92375258797389,-87.79891242657257,"(41.923752587973894, -87.79891242657258)",2011-08-03
08/03/2011,Completed,03/02/2012,11-03520236,Tree Trim,Parkway,3939 N KENNETH AVE,60641.0,1145851.53993269,1925810.46340808,38.0,17.0,16.0,41.952416300436674,-87.73924427248518,"(41.952416300436674, -87.73924427248518)",2011-08-03
08/03/2011,Completed,03/05/2013,11-03521795,Tree Trim,Parkway,2817 N SOUTHPORT AVE,60657.0,1166488.38000338,1918878.39592529,32.0,19.0,6.0,41.932976763980754,-87.66358173809328,"(41.93297676398076, -87.66358173809328)",2011-08-03
08/03/2011,Completed,03/08/2012,11-03524976,Tree Trim,Vacant Lot,200 E 63RD ST,60637.0,1178697.3507273002,1863268.17576991,20.0,3.0,40.0,41.78010829134104,-87.62041213850742,"(41.780108291341044, -87.62041213850742)",2011-08-03
08/03/2011,Completed,03/09/2012,11-03522313,Tree Trim,Parkway,2045 W 68TH ST,60636.0,1163920.43123429,1859557.03716707,17.0,7.0,67.0,41.77024784167789,-87.67469080172525,"(41.77024784167789, -87.67469080172525)",2011-08-03
08/03/2011,Completed,03/12/2012,11-03521454,Tree Trim,Parkway,800 E 60TH ST,60637.0,1182600.24972405,1865402.01867359,5.0,21.0,41.0,41.78587406571475,-87.6060374920739,"(41.78587406571475, -87.6060374920739)",2011-08-03
08/03/2011,Completed,03/13/2012,11-03526295,Tree Trim,Parkway,3625 W EDDY ST,60618.0,1151492.600029,1923358.98001555,35.0,17.0,21.0,41.945580071612866,-87.71857204887444,"(41.945580071612866, -87.71857204887444)",2011-08-03
08/03/2011,Completed,03/14/2012,11-03524552,Tree Trim,Parkway,3838 W 84TH ST,60652.0,1152269.62393022,1848598.50850852,18.0,8.0,70.0,41.74041271159528,-87.71768575894112,"(41.74041271159528, -87.71768575894112)",2011-08-03
08/03/2011,Completed,03/15/2012,11-03522226,Tree Trim,,1515 W BYRON ST,60613.0,1165316.04300682,1925978.36102417,47.0,19.0,6.0,41.952484474883626,-87.66768734476028,"(41.952484474883626, -87.66768734476028)",2011-08-03
08/03/2011,Completed,03/16/2012,11-03520435,Tree Trim,Parkway,5946 N RICHMOND ST,60659.0,1155561.81989985,1939251.25986892,40.0,20.0,2.0,41.98910834552935,-87.70318537839815,"(41.98910834552935, -87.70318537839815)",2011-08-03
08/03/2011,Completed,03/19/2012,11-03525037,Tree Trim,Parkway,4915 W BERTEAU AVE,60641.0,1142723.50553334,1927470.46963145,45.0,16.0,15.0,41.957030428474404,-87.75070166925266,"(41.95703042847441, -87.75070166925266)",2011-08-03
08/03/2011,Completed,03/20/2013,11-03526071,Tree Trim,Parkway,2005 W ROSCOE ST,60618.0,1162360.53127304,1922577.15037671,32.0,19.0,5.0,41.94321384640325,-87.6786473878608,"(41.94321384640326, -87.67864738786082)",2011-08-03
08/03/2011,Completed,03/22/2012,11-03525337,Tree Trim,Parkway,9537 S CLYDE AVE,60617.0,1192174.66269688,1842022.99012022,7.0,4.0,51.0,41.721492460892684,-87.5716925130171,"(41.721492460892684, -87.5716925130171)",2011-08-03
08/03/2011,Completed,03/22/2012,11-03526318,Tree Trim,Parkway,11651 S PEORIA ST,,1172395.27491429,1827494.91981286,34.0,5.0,53.0,41.68208258562724,-87.64456589568718,"(41.682082585627235, -87.64456589568718)",2011-08-03
08/03/2011,Completed,03/23/2012,11-03526628,Tree Trim,Parkway,11317 S EDBROOKE AVE,60628.0,1179217.95842981,1829950.28958258,9.0,5.0,49.0,41.6886680878221,-87.61951658754592,"(41.6886680878221, -87.6195165875459)",2011-08-03
08/03/2011,Completed,03/26/2012,11-03525889,Tree Trim,Parkway,4858 W CORTLAND ST,60639.0,1143578.25008517,1912189.37797506,31.0,25.0,19.0,41.915081665725886,-87.74794293964494,"(41.91508166572588, -87.74794293964496)",2011-08-03
08/03/2011,Completed,03/27/2013,11-03523095,Tree Trim,Parkway,5114 W WINONA ST,60630.0,1141346.46479886,1933765.09327011,45.0,16.0,11.0,41.97432899032829,-87.75560810833841,"(41.97432899032829, -87.75560810833842)",2011-08-03
08/03/2011,Completed,03/29/2012,11-03522103,Tree Trim,Parkway,6933 S UNION AVE,60621.0,1172833.29011651,1858906.20670313,6.0,7.0,68.0,41.76826994058696,-87.64203912602942,"(41.768269940586954, -87.6420391260294)",2011-08-03
08/03/2011,Completed,03/29/2012,11-03524677,Tree Trim,Parkway,8412 S VERNON AVE,60619.0,1180821.60152454,1849321.84779055,6.0,6.0,44.0,41.741789503393065,-87.61305249497971,"(41.74178950339307, -87.6130524949797)",2011-08-03
08/03/2011,Completed,03/29/2013,11-03525813,Tree Trim,Parkway,3732 W 105TH ST,60655.0,1153188.76006694,1834723.39689221,19.0,22.0,74.0,41.70231879314098,-87.71468342658359,"(41.70231879314098, -87.7146834265836)",2011-08-03
08/03/2011,Completed,04/01/2013,11-03519445,Tree Trim,Parkway,6707 W SCHREIBER AVE,60631.0,1130392.00440258,1942387.32479537,41.0,16.0,10.0,41.99818485563856,-87.79569252934195,"(41.99818485563856, -87.79569252934193)",2011-08-03
08/03/2011,Completed,04/10/2012,11-03520442,Tree Trim,Parkway,7436 S ELLIS AVE,60619.0,1184026.765631,1855902.50369721,8.0,3.0,69.0,41.75977328554252,-87.60110380180873,"(41.759773285542515, -87.60110380180873)",2011-08-03
08/03/2011,Completed,04/12/2012,11-03522266,Tree Trim,Parkway,1436 W PRATT BLVD,60626.0,1165343.62988621,1945274.19197221,49.0,24.0,1.0,42.00543227676482,-87.66703418597977,"(42.00543227676482, -87.66703418597977)",2011-08-03
08/03/2011,Completed,04/25/2012,11-03526261,Tree Trim,Parkway,2731 E 96TH ST,60617.0,1196043.94002305,1841828.50999717,10.0,4.0,51.0,41.720863978881475,-87.55752677188913,"(41.72086397888148, -87.55752677188912)",2011-08-03
08/03/2011,Completed,05/01/2012,11-03523579,Tree Trim,Parkway,10335 S SPAULDING AVE,60655.0,1156160.57320979,1835908.64152725,19.0,22.0,74.0,41.70551222532123,-87.70376961383221,"(41.70551222532123, -87.7037696138322)",2011-08-03
08/03/2011,Completed,05/11/2012,11-03518616,Tree Trim,Parkway,1054 W ARDMORE AVE,60660.0,1168087.69148045,1938696.70493097,48.0,20.0,77.0,41.98732448575391,-87.65712971063196,"(41.98732448575391, -87.65712971063195)",2011-08-03
08/03/2011,Completed,05/22/2012,11-03521889,Tree Trim,Parkway,6905 W 64TH ST,60638.0,1131484.03322137,1861306.15429086,23.0,8.0,64.0,41.775667878289276,-87.79355146501372,"(41.77566787828927, -87.79355146501372)",2011-08-03
08/03/2011,Completed,05/24/2012,11-03523550,Tree Trim,Parkway,2723 N NEWCASTLE AVE,60707.0,1130289.26950252,1917346.19307957,36.0,25.0,18.0,41.92947113250916,-87.79664745521038,"(41.92947113250916, -87.79664745521038)",2011-08-03
08/03/2011,Completed,05/30/2012,11-03518733,Tree Trim,Parkway,3423 N NATOMA AVE,60634.0,1131470.76710555,1922032.13842193,36.0,16.0,17.0,41.94230953641457,-87.79219701425463,"(41.94230953641457, -87.79219701425463)",2011-08-03
08/03/2011,Completed,05/30/2012,11-03520992,Tree Trim,,7035 N OLEANDER AVE,60631.0,1125110.2789733,1946113.57987629,41.0,16.0,9.0,42.008499408579,-87.8150396689358,"(42.008499408579, -87.8150396689358)",2011-08-03
08/03/2011,Completed,05/31/2012,11-03526723,Tree Trim,Parkway,10129 S ABERDEEN ST,60643.0,1170773.04461651,1837637.27018375,34.0,22.0,73.0,41.70995023992143,-87.65020973497144,"(41.70995023992144, -87.65020973497144)",2011-08-03
08/03/2011,Completed,06/01/2012,11-03522377,Tree Trim,Parkway,10754 S WALLACE ST,60628.0,1174214.34630651,1833566.49789764,34.0,22.0,49.0,41.698703831937884,-87.63772758460767,"(41.69870383193788, -87.63772758460767)",2011-08-03
08/03/2011,Completed,06/21/2012,11-03519992,Tree Trim,Parkway,8040 S PEORIA ST,60620.0,1171704.23480768,1851527.35588498,21.0,6.0,71.0,41.74804626725742,-87.64639361711536,"(41.74804626725742, -87.64639361711536)",2011-08-03
08/03/2011,Completed,06/25/2012,11-03521287,Tree Trim,Parkway,10543 S HAMLIN AVE,60655.0,1152874.65692201,1834425.08727084,19.0,22.0,74.0,41.70150636045655,-87.71584143277555,"(41.70150636045655, -87.71584143277555)",2011-08-03
08/03/2011,Completed,07/12/2012,11-03523891,Tree Trim,Parkway,1545 W DEVON AVE,60660.0,1164659.45991992,1942592.39253348,40.0,24.0,77.0,41.998087940727345,-87.66962777662874,"(41.99808794072734, -87.66962777662873)",2011-08-03
08/03/2011,Completed,07/13/2012,11-03518737,Tree Trim,Parkway,9151 S UNION AVE,60620.0,1173245.43016976,1844182.9461134998,21.0,22.0,73.0,41.7278583257623,-87.64096270196832,"(41.7278583257623, -87.64096270196833)",2011-08-03
08/03/2011,Completed,07/13/2012,11-03518749,Tree Trim,Parkway,9155 S UNION AVE,60620.0,1173246.13016976,1844156.0461135,21.0,22.0,73.0,41.727784492998,-87.64096093035472,"(41.727784492998, -87.64096093035474)",2011-08-03
08/03/2011,Completed,07/23/2012,11-03522615,Tree Trim,Parkway,3065 N NORDICA AVE,60634.0,1128675.04797866,1919631.25639045,36.0,25.0,18.0,41.93576919965506,-87.80252739128694,"(41.93576919965506, -87.80252739128694)",2011-08-03
08/03/2011,Completed,08/03/2011,11-03525257,Tree Trim,,5919 N KENMORE AVE,60660.0,1168170.26471544,1939546.94948327,48.0,20.0,77.0,41.98965578626467,-87.65680130145648,"(41.98965578626467, -87.65680130145648)",2011-08-03
08/03/2011,Completed,08/03/2011,11-03525260,Tree Trim,,5925 N KENMORE AVE,60660.0,1168168.46471544,1939605.14948327,48.0,20.0,77.0,41.98981552733781,-87.65680623106455,"(41.98981552733781, -87.65680623106454)",2011-08-03
08/03/2011,Completed,08/03/2011,11-03525264,Tree Trim,,5927 N KENMORE AVE,60660.0,1168167.86471544,1939624.64948327,48.0,20.0,77.0,41.98986904876336,-87.65680787136591,"(41.98986904876336, -87.6568078713659)",2011-08-03
08/03/2011,Completed,08/03/2011,11-03525266,Tree Trim,,5937 N KENMORE AVE,60660.0,1168165.26471544,1939707.54948327,48.0,24.0,77.0,41.990096584500705,-87.65681502585329,"(41.9900965845007, -87.65681502585328)",2011-08-03
08/03/2011,Completed,08/03/2011,11-03525269,Tree Trim,,5941 N KENMORE AVE,60660.0,1168164.66471544,1939728.84948327,48.0,24.0,77.0,41.990155045162076,-87.6568166138652,"(41.990155045162076, -87.6568166138652)",2011-08-03
08/03/2011,Completed,08/03/2011,11-03525271,Tree Trim,,5949 N KENMORE AVE,60660.0,1168163.36471544,1939771.44948327,48.0,24.0,77.0,41.99027196865071,-87.6568201577143,"(41.99027196865071, -87.6568201577143)",2011-08-03
08/03/2011,Completed,08/03/2011,11-03525274,Tree Trim,,5953 N KENMORE AVE,60660.0,1168162.76471544,1939792.64948327,48.0,24.0,77.0,41.99033015490817,-87.65682174863878,"(41.990330154908165, -87.65682174863878)",2011-08-03
08/03/2011,Completed,08/03/2011,11-03525441,Tree Trim,,1435 N KOLIN AVE,60651.0,1147114.85002899,1909152.27040071,37.0,25.0,23.0,41.906680560376145,-87.73502757302677,"(41.906680560376145, -87.73502757302677)",2011-08-03
08/03/2011,Completed,08/04/2011,11-03525283,Tree Trim,,5953 N KENMORE AVE,60660.0,1168162.76471544,1939792.64948327,48.0,24.0,77.0,41.99033015490817,-87.65682174863878,"(41.990330154908165, -87.65682174863878)",2011-08-03
08/03/2011,Completed,08/10/2011,11-03520427,Tree Trim,Parkway,6000 W 55TH ST,60638.0,1137304.35601157,1867492.64371213,23.0,8.0,56.0,41.792542487186616,-87.77206622296201,"(41.79254248718662, -87.77206622296201)",2011-08-03
08/03/2011,Completed,08/10/2011,11-03525846,Tree Trim,Parkway,3291 S PARNELL AVE,60616.0,1173166.82273108,1883090.58230175,11.0,9.0,60.0,41.834626982716635,-87.64010162553713,"(41.83462698271663, -87.64010162553713)",2011-08-03
08/03/2011,Completed,08/12/2011,11-03522190,Tree Trim,,9800 S DOBSON AVE,60628.0,1184941.97592334,1840206.54701632,8.0,5.0,50.0,41.716680469007116,-87.5982409587797,"(41.71668046900712, -87.59824095877971)",2011-08-03
08/03/2011,Completed,08/12/2011,11-03523722,Tree Trim,Parkway,2559 E 93RD ST,60617.0,1194926.78557639,1843796.25048081,7.0,4.0,48.0,41.726291191814056,-87.56155396244215,"(41.726291191814056, -87.56155396244215)",2011-08-03
