SERVICE REQUEST TYPE,SERVICE REQUEST NUMBER,DATE SERVICE REQUEST WAS RECEIVED,"LOCATION OF BUILDING ON THE LOT (IF GARAGE, CHANGE TYPE CODE TO BGD).",IS THE BUILDING DANGEROUS OR HAZARDOUS?,IS BUILDING OPEN OR BOARDED?,"IF THE BUILDING IS OPEN, WHERE IS THE ENTRY POINT?",IS THE BUILDING CURRENTLY VACANT OR OCCUPIED?,IS THE BUILDING VACANT DUE TO FIRE?,"ANY PEOPLE USING PROPERTY? (HOMELESS, CHILDEN, GANGS)",ADDRESS STREET NUMBER,ADDRESS STREET DIRECTION,ADDRESS STREET NAME,ADDRESS STREET SUFFIX,ZIP CODE,X COORDINATE,Y COORDINATE,Ward,Police District,Community Area,LATITUDE,LONGITUDE,Location,date
Vacant/Abandoned Building,11-03499833,08/01/2011,Front,,Open,,Vacant,False,True,1326,S,SPAULDING,AVE,60623.0,1154570.31930875,1893850.58489395,24.0,10.0,29.0,41.86454525194036,-87.7080500218956,"(41.86454525194037, -87.7080500218956)",2011-08-01
Vacant/Abandoned Building,11-03499986,08/01/2011,Front,,Open,REAR AND FRONT,Vacant,True,True,6223,S,CARPENTER,ST,60621.0,1170380.46339136,1863541.80069775,16.0,7.0,68.0,41.78104431957045,-87.6508950568023,"(41.78104431957045, -87.6508950568023)",2011-08-01
Vacant/Abandoned Building,11-03500465,08/01/2011,Front,,Open,,Vacant,False,False,349,E,73RD,ST,60619.0,1179794.00093355,1856690.37097617,6.0,3.0,69.0,41.76203309836421,-87.61659265339338,"(41.76203309836421, -87.61659265339338)",2011-08-01
Vacant/Abandoned Building,11-03501176,08/01/2011,,,,,,,,3081,N,ELBRIDGE,AVE,60618.0,1152477.31001391,1920230.67001363,35.0,14.0,21.0,41.93697631286527,-87.71503552841568,"(41.93697631286527, -87.71503552841567)",2011-08-01
Vacant/Abandoned Building,11-03501310,08/01/2011,,,,,,,,3220,S,THROOP,ST,60608.0,1168185.59181795,1883361.77688876,11.0,9.0,60.0,41.83548002570229,-87.65837123091316,"(41.83548002570229, -87.65837123091315)",2011-08-01
Vacant/Abandoned Building,11-03501478,08/01/2011,Front,,Open,,Vacant,False,False,349,E,73RD,ST,60619.0,1179794.00093355,1856690.37097617,6.0,3.0,69.0,41.76203309836421,-87.61659265339338,"(41.76203309836421, -87.61659265339338)",2011-08-01
Vacant/Abandoned Building,11-03501494,08/01/2011,Front,,Open,,Vacant,False,False,4306,W,CORTEZ,ST,60651.0,1147427.41012833,1906648.86007043,37.0,11.0,23.0,41.89980495332338,-87.73394365673622,"(41.89980495332338, -87.73394365673622)",2011-08-01
Vacant/Abandoned Building,11-03501552,08/01/2011,Front,,Open,,Occupied,False,True,5010,W,WABANSIA,AVE,60639.0,1142659.87511973,1910838.37563019,37.0,25.0,25.0,41.911391520729,-87.75135066654968,"(41.911391520729, -87.75135066654968)",2011-08-01
Vacant/Abandoned Building,11-03501579,08/01/2011,Front,,Open,,Vacant,False,False,4310,W,CORTEZ,ST,60651.0,1147402.51012833,1906648.16007043,37.0,11.0,23.0,41.899803509797735,-87.7340351335253,"(41.899803509797735, -87.7340351335253)",2011-08-01
Vacant/Abandoned Building,11-03501648,08/01/2011,Front,,Open,,Vacant,False,False,3244,W,BRYN MAWR,AVE,60659.0,1153637.88873088,1937030.40809349,40.0,17.0,13.0,41.98305283899724,-87.71032131932661,"(41.98305283899724, -87.71032131932661)",2011-08-01
Vacant/Abandoned Building,11-03501878,08/01/2011,Front,,Boarded,,Vacant,False,True,648,N,OAKLEY,BLVD,60612.0,1160953.84517247,1904360.62277498,1.0,13.0,24.0,41.89325576680043,-87.68432436164044,"(41.89325576680043, -87.68432436164044)",2011-08-01
Vacant/Abandoned Building,11-03502475,08/01/2011,Front,,Open,,Vacant,False,False,958,W,116TH,PL,60643.0,1171952.17999798,1827591.18998665,34.0,5.0,53.0,41.68235647591458,-87.64618506670871,"(41.682356475914574, -87.64618506670872)",2011-08-01
Vacant/Abandoned Building,11-03502565,08/01/2011,Front,,Open,,Vacant,False,False,11319,S,ABERDEEN,ST,60643.0,1171019.15597616,1829647.88671978,34.0,22.0,75.0,41.68802075797017,-87.64954072945932,"(41.68802075797017, -87.64954072945933)",2011-08-01
Vacant/Abandoned Building,11-03502597,08/01/2011,Front,,Open,,Vacant,False,False,5843,S,CARPENTER,ST,60621.0,1170314.76237999,1865973.92689113,16.0,7.0,68.0,41.787719788473154,-87.65106517697862,"(41.78771978847316, -87.65106517697863)",2011-08-01
Vacant/Abandoned Building,11-03502631,08/01/2011,Front,,Open,,Vacant,False,False,1139,W,112TH,PL,60643.0,1170627.83996798,1830151.14089565,34.0,22.0,75.0,41.68941028403903,-87.65095870980984,"(41.68941028403902, -87.65095870980983)",2011-08-01
Vacant/Abandoned Building,11-03502645,08/01/2011,Rear,,Boarded,NONE,Vacant,False,False,7252,S,CARPENTER,ST,60621.0,1170568.20192744,1856725.33898059,17.0,7.0,68.0,41.76233502352417,-87.65040520981876,"(41.762335023524166, -87.65040520981876)",2011-08-01
Vacant/Abandoned Building,11-03502654,08/01/2011,Front,,Open,,Vacant,False,False,1201,W,112TH,PL,60643.0,1170331.39246587,1830143.88687522,34.0,22.0,75.0,41.689396816774455,-87.65204421233696,"(41.689396816774455, -87.65204421233696)",2011-08-01
Vacant/Abandoned Building,11-03502685,08/01/2011,Front,,Open,,Vacant,False,False,1223,W,112TH,PL,60643.0,1170183.89246587,1830140.38687522,34.0,22.0,75.0,41.689390412137506,-87.65258431015963,"(41.68939041213751, -87.65258431015963)",2011-08-01
Vacant/Abandoned Building,11-03502721,08/01/2011,,,,,,,,3340,S,CALUMET,AVE,60616.0,1179143.05962412,1882905.45568222,2.0,21.0,35.0,41.8339845407157,-87.6181790570195,"(41.833984540715704, -87.6181790570195)",2011-08-01
Vacant/Abandoned Building,11-03502729,08/01/2011,Front,,Open,,Vacant,False,False,1332,W,110TH,PL,60643.0,1169415.99367371,1831489.69607543,34.0,22.0,75.0,41.69310975582177,-87.65535670422871,"(41.693109755821766, -87.65535670422871)",2011-08-01
Vacant/Abandoned Building,11-03502761,08/01/2011,Front,,Open,,Vacant,False,False,1409,W,109TH,PL,60643.0,1168846.0639751002,1832138.89928068,34.0,22.0,75.0,41.694903566716384,-87.65742468371648,"(41.694903566716384, -87.65742468371648)",2011-08-01
Vacant/Abandoned Building,11-03502779,08/01/2011,Front,,Open,,Vacant,False,False,1425,W,109TH,PL,60643.0,1168667.95501605,1832134.87013424,34.0,22.0,75.0,41.694896343623924,-87.65807691148655,"(41.69489634362392, -87.65807691148655)",2011-08-01
Vacant/Abandoned Building,11-03502877,08/01/2011,Front,,Open,,Vacant,False,False,1400,W,110TH,ST,60643.0,1168956.28958736,1831810.26280078,34.0,22.0,75.0,41.693999360261714,-87.65703056111606,"(41.69399936026171, -87.65703056111606)",2011-08-01
Vacant/Abandoned Building,11-03502917,08/01/2011,Front,,Open,,Vacant,False,False,1351,W,110TH,PL,60643.0,1169288.41951553,1831486.64719062,34.0,22.0,75.0,41.693104143723225,-87.65582386738481,"(41.693104143723225, -87.65582386738481)",2011-08-01
Vacant/Abandoned Building,11-03502947,08/01/2011,Front,,Open,,Vacant,False,False,320,W,112TH,ST,60628.0,1176175.27743222,1830658.44426621,34.0,5.0,49.0,41.69068001813046,-87.63063449076985,"(41.69068001813046, -87.63063449076984)",2011-08-01
Vacant/Abandoned Building,11-03503575,08/01/2011,Rear,,Open,REAR,Vacant,False,False,4354,S,PRINCETON,AVE,60609.0,1175013.87097422,1876007.45681538,3.0,9.0,37.0,41.815149165018646,-87.63353604570473,"(41.815149165018646, -87.63353604570472)",2011-08-01
Vacant/Abandoned Building,11-03503887,08/01/2011,Front,,Open,,Vacant,False,False,2412,E,91ST,ST,60617.0,1193880.00349696,1845101.07033178,7.0,4.0,48.0,41.729897427287185,-87.5653456978112,"(41.729897427287185, -87.56534569781121)",2011-08-01
Vacant/Abandoned Building,11-03503914,08/01/2011,,,Open,FRONT/REAR,Vacant,,,948,N,HOMAN,AVE,60651.0,1153532.47839431,1906200.21009136,27.0,11.0,23.0,41.898454579114656,-87.71153147561058,"(41.898454579114656, -87.71153147561058)",2011-08-01
Vacant/Abandoned Building,11-03503966,08/01/2011,Front,,Open,"FRONT, REAR OPEN & WINDOWS BROKEN OUT",Vacant,False,True,535,N,CENTRAL,AVE,60644.0,1138940.61332289,1902992.00423149,37.0,15.0,25.0,41.889928568214934,-87.76520511250808,"(41.889928568214934, -87.76520511250808)",2011-08-01
Vacant/Abandoned Building,11-03504349,08/01/2011,Front,,Open,,Vacant,False,True,8732,S,ADA,ST,60620.0,1168854.63007933,1846856.39487334,21.0,22.0,71.0,41.73529044845753,-87.65697002033066,"(41.73529044845753, -87.65697002033066)",2011-08-01
Vacant/Abandoned Building,11-03504528,08/01/2011,Rear,,Open,FRONT & REAR,Vacant,False,True,1358,N,MONTICELLO,AVE,60651.0,1151754.66988485,1908794.8342726002,26.0,25.0,23.0,41.9056096510335,-87.71799293039837,"(41.9056096510335, -87.71799293039838)",2011-08-01
Vacant/Abandoned Building,11-03504563,08/01/2011,Front,,Open,FRONT AND REAR,Vacant,False,True,3104,W,WALNUT,ST,60612.0,1155648.41580884,1901468.31153284,27.0,13.0,27.0,41.8854274581565,-87.70388724400387,"(41.8854274581565, -87.70388724400387)",2011-08-01
Vacant/Abandoned Building,11-03504586,08/01/2011,,,,,,,,39,W,108TH,PL,60628.0,1177923.88996633,1833023.22001666,34.0,5.0,49.0,41.69712998237168,-87.62416146028217,"(41.69712998237168, -87.62416146028217)",2011-08-01
Vacant/Abandoned Building,11-03504626,08/01/2011,,,,,,,,5412,S,HERMITAGE,AVE,60609.0,1165599.79967434,1868805.28719052,16.0,9.0,61.0,41.795590760447816,-87.66827270449778,"(41.795590760447816, -87.66827270449778)",2011-08-01
Vacant/Abandoned Building,11-03504641,08/01/2011,Front,,Open,DOORS OPEN,Vacant,False,True,130,N,WALLER,AVE,60644.0,1138138.13678425,1900387.4628994998,29.0,15.0,25.0,41.88279591283445,-87.76821519931849,"(41.88279591283445, -87.76821519931848)",2011-08-01
Vacant/Abandoned Building,11-03504695,08/01/2011,Rear,,Open,,Vacant,True,False,8125,S,MARQUETTE,AVE,60617.0,1195584.41812452,1851616.53762544,7.0,4.0,46.0,41.74773450613711,-87.55888727039093,"(41.74773450613711, -87.55888727039094)",2011-08-01
Vacant/Abandoned Building,11-03504926,08/01/2011,Front,,Open,ALL THROUGHOUT THE HOME,Vacant,False,True,1238,N,CENTRAL,AVE,60651.0,1138776.61049501,1907809.86000202,29.0,25.0,25.0,41.90315233530203,-87.7656903495706,"(41.90315233530203, -87.76569034957059)",2011-08-01
Vacant/Abandoned Building,11-03505010,08/01/2011,Front,,Boarded,,Vacant,False,True,2417,N,RIDGEWAY,AVE,60647.0,1150976.16507091,1915807.67208114,35.0,25.0,22.0,41.92486881072347,-87.7206686426538,"(41.92486881072347, -87.72066864265382)",2011-08-01
Vacant/Abandoned Building,11-03505146,08/01/2011,Front,,Open,,Vacant,False,True,6633,S,ST LAWRENCE,AVE,60637.0,1181375.05041067,1861162.39749562,20.0,3.0,42.0,41.774268493884506,-87.61066025274363,"(41.77426849388451, -87.61066025274363)",2011-08-01
Vacant/Abandoned Building,11-03505152,08/01/2011,Front,,Open,,Vacant,False,True,7144,S,CHAMPLAIN,AVE,60619.0,1181800.49000814,1857789.69002696,6.0,3.0,69.0,41.765003629322884,-87.60920477775807,"(41.76500362932288, -87.60920477775807)",2011-08-01
Vacant/Abandoned Building,11-03505217,08/01/2011,,,,,,,,5841,S,MOODY,AVE,60638.0,1136387.98042777,1865177.64469558,23.0,8.0,56.0,41.78620608382361,-87.7754815989655,"(41.78620608382361, -87.77548159896548)",2011-08-01
Vacant/Abandoned Building,11-03505221,08/01/2011,,,,,,,,3342,S,CALUMET,AVE,60616.0,1179143.35962412,1882891.45568222,2.0,21.0,35.0,41.83394611682958,-87.61817838393044,"(41.83394611682958, -87.61817838393044)",2011-08-01
Vacant/Abandoned Building,11-03505988,08/01/2011,Front,,Open,,Vacant,False,False,1049,N,HAMLIN,AVE,60651.0,1150857.66473048,1906731.93677051,27.0,11.0,23.0,41.89996646777724,-87.72134202068537,"(41.89996646777724, -87.72134202068538)",2011-08-01
Vacant/Abandoned Building,11-03506119,08/01/2011,Front,,Open,,Vacant,False,False,322,W,51ST,PL,60609.0,1174941.19003249,1870808.24000492,3.0,9.0,37.0,41.80088364153678,-87.63395784535079,"(41.800883641536764, -87.6339578453508)",2011-08-01
Vacant/Abandoned Building,11-03506206,08/01/2011,Front,,Open,,Vacant,False,False,9639,S,GENOA,AVE,60643.0,1170712.03052313,1840778.70912075,21.0,22.0,73.0,41.718572147575976,-87.65034191991985,"(41.71857214757598, -87.65034191991985)",2011-08-01
Vacant/Abandoned Building,11-03506306,08/01/2011,Rear,,Open,REAR,Vacant,False,True,11338,S,CALUMET,AVE,60628.0,1180599.07020904,1829847.61571086,9.0,5.0,49.0,41.68835482005897,-87.61446357931965,"(41.68835482005897, -87.61446357931965)",2011-08-01
Vacant/Abandoned Building,11-03506377,08/01/2011,Front,,Open,FRONT,Vacant,False,True,8817,S,PRINCETON,AVE,60620.0,1175703.70338094,1846468.27848877,21.0,6.0,49.0,41.734074964685476,-87.63188942447029,"(41.734074964685476, -87.63188942447029)",2011-08-01
Vacant/Abandoned Building,11-03506388,08/01/2011,Front,,Open,OPEN,Vacant,False,False,4718,W,WASHINGTON,BLVD,60644.0,1144919.30378076,1900084.83878497,28.0,11.0,25.0,41.88184024124134,-87.74332183937446,"(41.88184024124134, -87.74332183937447)",2011-08-01
Vacant/Abandoned Building,11-03506524,08/01/2011,Rear,,Open,REAR,Vacant,False,True,838,N,LAWLER,AVE,60651.0,1142536.27006797,1905102.98552647,37.0,15.0,25.0,41.89565526275712,-87.75194755543875,"(41.89565526275712, -87.75194755543875)",2011-08-01
Vacant/Abandoned Building,11-03506614,08/01/2011,,,,,,,,2315,E,92ND,ST,60617.0,1193309.83997804,1844419.75988906,7.0,4.0,48.0,41.728041789257134,-87.56745654086866,"(41.728041789257134, -87.56745654086865)",2011-08-01
Vacant/Abandoned Building,11-03506615,08/01/2011,,,,,,,,8531,S,SAGINAW,AVE,60617.0,1195310.27656607,1848919.16637928,7.0,4.0,46.0,41.74033946868969,-87.55998061659643,"(41.74033946868969, -87.55998061659643)",2011-08-01
Vacant/Abandoned Building,11-03506792,08/01/2011,Front,,Open,FRONT AND REAR,Occupied,False,True,5306,S,LAFLIN,ST,60609.0,1167237.84820943,1869549.52629011,16.0,9.0,61.0,41.797598107373155,-87.66224461036316,"(41.79759810737316, -87.66224461036316)",2011-08-01
Vacant/Abandoned Building,11-03506814,08/01/2011,Front,,Open,ALL WINDOWS AND DOORS,Vacant,False,True,1937,W,59TH,ST,60636.0,1164341.57112889,1865534.13822426,15.0,7.0,67.0,41.786640935362115,-87.67297882280012,"(41.78664093536212, -87.67297882280012)",2011-08-01
Vacant/Abandoned Building,11-03506830,08/01/2011,Front,,Open,,Vacant,False,False,537,W,44TH,PL,60609.0,1173455.53128652,1875412.59609681,11.0,9.0,61.0,41.81355149239443,-87.63926986940031,"(41.81355149239443, -87.63926986940031)",2011-08-01
Vacant/Abandoned Building,11-03507033,08/01/2011,Front,,Open,FRONT DOOR - TOWNHOUSE # 8,Vacant,False,True,1825,W,115TH,ST,60643.0,1166301.74913187,1828408.36189398,34.0,22.0,75.0,41.68472074609785,-87.66684589893272,"(41.684720746097845, -87.66684589893272)",2011-08-01
Vacant/Abandoned Building,11-03507096,08/01/2011,Front,,Open,FRONT DOOR AND BROKEN WINDOWS	,Vacant,False,True,11535,S,VINCENNES,AVE,60643.0,1165994.49709417,1828236.52883253,34.0,22.0,75.0,41.68425572359571,-87.66797552688288,"(41.68425572359571, -87.66797552688287)",2011-08-01
Vacant/Abandoned Building,11-03507189,08/01/2011,Rear,,Open,REAR DOOR WIDE OPEN,Vacant,False,True,8406,S,ESCANABA,AVE,60617.0,1196946.90003234,1849792.79009641,10.0,4.0,46.0,41.74269624457005,-87.55395535559968,"(41.74269624457005, -87.55395535559968)",2011-08-01
Vacant/Abandoned Building,11-03507194,08/01/2011,Front,,Open,,Vacant,False,True,7953,S,SOUTH SHORE,DR,60617.0,1198523.03922636,1852834.444428,7.0,4.0,46.0,41.751003444157746,-87.54807877817724,"(41.751003444157746, -87.54807877817724)",2011-08-01
Vacant/Abandoned Building,11-03507470,08/01/2011,Front,,Open,ALL THROUGHOUT THE HOME,Vacant,False,False,9226,S,LA SALLE,ST,60620.0,1176901.23812491,1843781.03838909,21.0,6.0,49.0,41.72667396529921,-87.62758296314439,"(41.72667396529921, -87.62758296314439)",2011-08-01
Vacant/Abandoned Building,11-03507500,08/01/2011,Front,,Open,ALL THROUGHOUT THE HOME,Vacant,False,False,9234,S,LA SALLE,ST,60620.0,1176902.63812491,1843727.43838909,21.0,6.0,49.0,41.726526848390456,-87.62757944458689,"(41.726526848390456, -87.62757944458689)",2011-08-01
Vacant/Abandoned Building,11-03507510,08/01/2011,,,Open,FRONT AND REAR,Vacant,False,True,4559,W,DEMING,PL,60639.0,1145564.63530669,1916653.25991817,31.0,25.0,20.0,41.927293563087595,-87.74053173735503,"(41.92729356308759, -87.74053173735501)",2011-08-01
Vacant/Abandoned Building,11-03507514,08/01/2011,Front,,Open,ALL THROUGHOUT THE HOME,Vacant,False,False,9232,S,LA SALLE,ST,60620.0,1176902.33812491,1843740.83838909,21.0,6.0,49.0,41.726563626493075,-87.62758014107101,"(41.72656362649307, -87.62758014107101)",2011-08-01
Vacant/Abandoned Building,11-03507696,08/01/2011,Garage,,Open,,Vacant,False,False,8639,S,YATES,BLVD,60617.0,1193662.88248365,1848194.03007979,7.0,4.0,46.0,41.738390098106365,-87.56604005020586,"(41.738390098106365, -87.56604005020586)",2011-08-01
Vacant/Abandoned Building,11-03507770,08/01/2011,Front,,Open,SOUTH BASEMENT WINDOW,Vacant,False,True,1219,N,HAMLIN,AVE,60651.0,1150823.14910582,1907837.93933099,27.0,25.0,23.0,41.903002123625726,-87.72143982256159,"(41.903002123625726, -87.72143982256159)",2011-08-01
Vacant/Abandoned Building,11-03507817,08/01/2011,Front,,Open,REAR,Vacant,,True,8240,S,PAULINA,ST,60620.0,1166443.82533104,1850057.57358967,18.0,6.0,71.0,41.744126602165096,-87.66571127886836,"(41.744126602165096, -87.66571127886834)",2011-08-01
Vacant/Abandoned Building,11-03507873,08/01/2011,Front,,Boarded,,Vacant,,False,12334,S,LOWE,AVE,,1174183.61002497,1823087.89000804,34.0,5.0,53.0,41.669949566179135,-87.63814972577124,"(41.66994956617913, -87.63814972577123)",2011-08-01
Vacant/Abandoned Building,11-03507879,08/01/2011,Front,,Open,FRONT,Vacant,,False,12324,S,LOWE,AVE,60628.0,1174176.71002497,1823154.69000804,34.0,5.0,53.0,41.67013302908651,-87.63817300677832,"(41.67013302908651, -87.63817300677832)",2011-08-01
Vacant/Abandoned Building,11-03507880,08/01/2011,Front,,Boarded,FRONT,Vacant,,False,12312,S,LOWE,AVE,60628.0,1174168.41002497,1823234.89000804,34.0,5.0,53.0,41.67035329477204,-87.63820101616922,"(41.67035329477204, -87.63820101616922)",2011-08-01
Vacant/Abandoned Building,11-03507970,08/01/2011,Front,,Boarded,,Vacant,,False,12313,S,UNION,AVE,60628.0,1173880.74843439,1823221.97056615,34.0,5.0,53.0,41.67032420450725,-87.63925421085466,"(41.67032420450726, -87.63925421085467)",2011-08-01
Vacant/Abandoned Building,11-03507973,08/01/2011,,,,,,,,1626,W,OHIO,ST,60622.0,1165360.79006934,1904086.50633012,1.0,13.0,24.0,41.89241095756768,-87.6681471027733,"(41.89241095756768, -87.66814710277329)",2011-08-01
Vacant/Abandoned Building,11-03507983,08/01/2011,,,,,,,,2535,W,NORTH,AVE,60647.0,1159092.81459171,1910549.86262807,26.0,14.0,24.0,41.91027797776349,-87.69098905389252,"(41.91027797776349, -87.69098905389252)",2011-08-01
Vacant/Abandoned Building,11-03507987,08/01/2011,Front,,Boarded,,Vacant,False,False,11766,S,WALLACE,ST,60628.0,1174423.74702418,1826814.60232956,34.0,5.0,53.0,41.680170946009724,-87.63716065651123,"(41.68017094600973, -87.63716065651124)",2011-08-01
Vacant/Abandoned Building,11-03508027,08/01/2011,,,,,,,,5327,W,ADAMS,ST,60644.0,1140883.01141389,1898815.36120523,29.0,15.0,25.0,41.878431823932665,-87.75817446422407,"(41.878431823932665, -87.75817446422407)",2011-08-01
Vacant/Abandoned Building,11-03508028,08/01/2011,,,,,,,,1639,N,KEELER,AVE,60639.0,1148137.95039178,1910565.18261318,30.0,25.0,23.0,41.91053808966953,-87.73123284440788,"(41.910538089669544, -87.73123284440788)",2011-08-01
Vacant/Abandoned Building,11-03508190,08/01/2011,Front,,Open,,Vacant,False,False,7733,S,MARSHFIELD,AVE,60620.0,1166686.21197367,1853428.60337484,17.0,6.0,71.0,41.753372021298674,-87.66472716648745,"(41.75337202129867, -87.66472716648744)",2011-08-01
Vacant/Abandoned Building,11-03508194,08/01/2011,Front,,Open,,Vacant,False,False,7755,S,MARSHFIELD,AVE,60620.0,1166690.31851722,1853281.3575265,17.0,6.0,71.0,41.75296787058355,-87.66471631096044,"(41.752967870583554, -87.66471631096044)",2011-08-01
Vacant/Abandoned Building,11-03508201,08/01/2011,Front,,Open,,Vacant,False,False,1635,W,77TH,ST,60620.0,1166665.31197367,1853649.00337484,17.0,6.0,71.0,41.75397727526649,-87.66479748123942,"(41.75397727526649, -87.6647974812394)",2011-08-01
Vacant/Abandoned Building,11-03508203,08/01/2011,Front,,Open,,Vacant,False,False,135,W,95TH,ST,60628.0,1176937.6599302,1841959.63987512,21.0,5.0,49.0,41.72167498802138,-87.6275042520755,"(41.721674988021384, -87.6275042520755)",2011-08-01
Vacant/Abandoned Building,11-03508226,08/01/2011,Front,,Open,,Vacant,False,False,7518,S,WINCHESTER,AVE,60620.0,1164659.89011537,1854775.486971,18.0,6.0,71.0,41.757111034325106,-87.67211497099707,"(41.75711103432511, -87.67211497099706)",2011-08-01
Vacant/Abandoned Building,11-03508329,08/01/2011,Front,,Open,"FRONT/REAR DOORS, WINDOWS - [MAJOR RAT PROBLEM - CAN SEE RATS ALL AROUND PROPERTY]",Vacant,True,False,6401,S,FRANCISCO,AVE,60629.0,1158146.41417305,1862060.93561938,15.0,8.0,66.0,41.77723829530847,-87.69578808294699,"(41.777238295308464, -87.69578808294699)",2011-08-01
Vacant/Abandoned Building,11-03508647,08/01/2011,Front,,Boarded,FRONT DOOR,Vacant,False,True,5239,S,PEORIA,ST,60609.0,1171195.59988108,1870085.0736709,3.0,9.0,61.0,41.79898200357988,-87.64771529860334,"(41.79898200357988, -87.64771529860334)",2011-08-01
Vacant/Abandoned Building,11-03508825,08/01/2011,Front,,Open,FRONT BACK,Vacant,False,False,5308,S,LAFLIN,ST,60609.0,1167238.24820943,1869536.12629011,16.0,9.0,61.0,41.797561327639215,-87.66224352713215,"(41.79756132763922, -87.66224352713216)",2011-08-01
Vacant/Abandoned Building,11-03508827,08/01/2011,Front,,Open,FRONT BACK,Vacant,False,False,5308,S,LAFLIN,ST,60609.0,1167238.24820943,1869536.12629011,16.0,9.0,61.0,41.797561327639215,-87.66224352713215,"(41.79756132763922, -87.66224352713216)",2011-08-01
Vacant/Abandoned Building,11-03508836,08/01/2011,Front,,Open,BLDG CONNECTED TO LIQUOR STORE - OPEN/UNSECURED,Vacant,True,False,6900,S,CLAREMONT,AVE,60636.0,1161924.52759343,1858849.77360536,17.0,8.0,66.0,41.76834872074034,-87.68202663335819,"(41.76834872074034, -87.68202663335818)",2011-08-01
Vacant/Abandoned Building,11-03509405,08/02/2011,Front,,Open,ALL,Vacant,False,True,7827,S,HOMAN,AVE,60652.0,1155074.31600767,1852384.56038673,18.0,8.0,70.0,41.75074674744133,-87.70730863767031,"(41.750746747441326, -87.70730863767032)",2011-08-02
Vacant/Abandoned Building,11-03509419,08/02/2011,Front,,Open,FRONT DOOR - FRONT WINDOW IS SHATTERED,Vacant,False,True,8836,S,MAY,ST,60620.0,1170200.63828754,1846216.38781274,21.0,22.0,71.0,41.73350504571084,-87.65205734548,"(41.73350504571084, -87.65205734548)",2011-08-02
Vacant/Abandoned Building,11-03509925,08/02/2011,Garage,,Open,SIDE DOOR,Vacant,False,True,7237,S,CHAMPLAIN,AVE,60619.0,1181816.88268142,1857172.57328173,6.0,3.0,69.0,41.76330981946206,-87.60916373718841,"(41.76330981946206, -87.6091637371884)",2011-08-02
Vacant/Abandoned Building,11-03510552,08/02/2011,Front,,Boarded,,Vacant,False,False,1231,S,KOSTNER,AVE,60623.0,1147241.23489135,1894131.93039709,24.0,10.0,29.0,41.865460631564005,-87.7349480541475,"(41.865460631564005, -87.73494805414748)",2011-08-02
Vacant/Abandoned Building,11-03510882,08/02/2011,Front,,Boarded,FRONT DOOR,Vacant,False,True,7001,S,EAST END,AVE,60649.0,1188987.21020213,1858900.4668051999,5.0,3.0,43.0,41.76788265109461,-87.58282820769955,"(41.76788265109461, -87.58282820769954)",2011-08-02
Vacant/Abandoned Building,11-03510893,08/02/2011,Front,,Open,DOORS,Vacant,False,True,7007,S,EAST END,AVE,60649.0,1188988.71020213,1858838.7668052,5.0,3.0,43.0,41.76771330521032,-87.58282468299211,"(41.767713305210314, -87.58282468299211)",2011-08-02
Vacant/Abandoned Building,11-03510910,08/02/2011,Front,,Open,FRONT AND REAR,Vacant,False,True,7011,S,EAST END,AVE,60649.0,1188989.81020213,1858797.6668051998,5.0,3.0,43.0,41.767600497026415,-87.58282196558967,"(41.767600497026415, -87.58282196558967)",2011-08-02
Vacant/Abandoned Building,11-03510981,08/02/2011,Front,,Open,,Vacant,True,False,5844,S,CALUMET,AVE,60637.0,1179481.2070907,1866337.74809363,20.0,2.0,40.0,41.788513626774716,-87.61744473019995,"(41.78851362677472, -87.61744473019996)",2011-08-02
Vacant/Abandoned Building,11-03511543,08/02/2011,Front,,Open,,Vacant,False,False,5658,S,WOOD,ST,60636.0,1165314.77438809,1867161.77207723,15.0,7.0,67.0,41.79108679947154,-87.66936445232363,"(41.79108679947155, -87.66936445232363)",2011-08-02
Vacant/Abandoned Building,11-03511626,08/02/2011,Front,,Open,ALL WINDOWS / DOORS ARE OPEN,Vacant,False,True,5009,W,ADAMS,ST,60644.0,1143183.84289132,1898870.16101433,28.0,15.0,25.0,41.87853957957997,-87.74972482673469,"(41.878539579579964, -87.7497248267347)",2011-08-02
Vacant/Abandoned Building,11-03511682,08/02/2011,Rear,,Open,,Vacant,False,True,12218,S,MAY,ST,60643.0,1170873.76991686,1823772.44368089,34.0,5.0,53.0,41.67190073090981,-87.65024350794576,"(41.67190073090981, -87.65024350794576)",2011-08-02
Vacant/Abandoned Building,11-03511768,08/02/2011,Front,,Open,,Vacant,False,False,13127,S,FORRESTVILLE,AVE,60827.0,1182310.91997299,1818389.01997739,9.0,5.0,54.0,41.65687139828221,-87.60854949758892,"(41.656871398282206, -87.60854949758892)",2011-08-02
Vacant/Abandoned Building,11-03511865,08/02/2011,Front,,Open,FRONT DOOR,Vacant,False,False,6229,S,ROCKWELL,ST,60629.0,1160109.50902833,1863255.73278936,15.0,8.0,66.0,41.78047682324761,-87.68855850892128,"(41.78047682324761, -87.68855850892128)",2011-08-02
Vacant/Abandoned Building,11-03511929,08/02/2011,Front,,Boarded,,Vacant,False,False,1724,W,61ST,ST,60636.0,1165782.31701701,1864242.07758754,15.0,7.0,67.0,41.783064871787744,-87.66773295279928,"(41.78306487178774, -87.66773295279928)",2011-08-02
Vacant/Abandoned Building,11-03512021,08/02/2011,Front,,Open,DOORS AND WINDOWS,Vacant,False,False,1753,W,71ST,ST,60636.0,1165803.85468224,1857609.6130296001,17.0,7.0,67.0,41.764864061529344,-87.66784215679623,"(41.764864061529344, -87.66784215679623)",2011-08-02
Vacant/Abandoned Building,11-03512182,08/02/2011,,,Open,FRONT AND BACK,Vacant,False,False,8050,S,ABERDEEN,ST,60620.0,1170373.22609315,1851759.17857119,21.0,6.0,71.0,41.74871147600894,-87.65126412761511,"(41.748711476008936, -87.65126412761511)",2011-08-02
Vacant/Abandoned Building,11-03512188,08/02/2011,Front,,Open,,Vacant,False,False,2256,S,KOSTNER,AVE,60623.0,1147410.1405153,1888622.84160539,22.0,10.0,29.0,41.85033976409819,-87.73446904918373,"(41.85033976409819, -87.73446904918374)",2011-08-02
Vacant/Abandoned Building,11-03512193,08/02/2011,Front,,Open,FRONT DOOR,Vacant,False,True,4551,S,HERMITAGE,AVE,60609.0,1165442.37783075,1874518.19162687,20.0,9.0,61.0,41.811270982723705,-87.66868797889587,"(41.811270982723705, -87.66868797889587)",2011-08-02
Vacant/Abandoned Building,11-03512247,08/02/2011,,,,,,,,12030,S,YALE,AVE,60628.0,1176776.5044293,1825164.99546835,34.0,5.0,53.0,41.67559167872544,-87.62859788428135,"(41.67559167872544, -87.62859788428135)",2011-08-02
Vacant/Abandoned Building,11-03512251,08/02/2011,,,,,,,,6635,S,LAFLIN,ST,60636.0,1167477.85809284,1860734.12902655,17.0,7.0,67.0,41.77340243548253,-87.6616170105586,"(41.773402435482524, -87.66161701055861)",2011-08-02
Vacant/Abandoned Building,11-03512273,08/02/2011,Front,,Open,,Vacant,False,True,6934,S,NORMAL,BLVD,60621.0,1174145.75500257,1858937.79721955,6.0,7.0,68.0,41.76832758088232,-87.63722739649772,"(41.768327580882314, -87.63722739649772)",2011-08-02
Vacant/Abandoned Building,11-03512301,08/02/2011,,,,,,,,11568,S,LAFAYETTE,AVE,60628.0,1177991.22720311,1828005.26598568,34.0,5.0,53.0,41.68335846171011,-87.62406618829566,"(41.683358461710114, -87.62406618829566)",2011-08-02
Vacant/Abandoned Building,11-03512305,08/02/2011,,,,,,,,5951,S,WOLCOTT,AVE,60636.0,1164707.42539002,1865201.29536897,15.0,7.0,67.0,41.78571985359482,-87.67164679703222,"(41.78571985359482, -87.67164679703222)",2011-08-02
Vacant/Abandoned Building,11-03512330,08/02/2011,Front,,Open,DO,Vacant,False,False,10014,S,PARNELL,AVE,60628.0,1174399.25409152,1838489.12809861,9.0,22.0,73.0,41.71220814999665,-87.63690477862049,"(41.71220814999665, -87.63690477862048)",2011-08-02
Vacant/Abandoned Building,11-03512332,08/02/2011,Front,,Open,,Vacant,False,False,6222,S,RICHMOND,ST,60629.0,1157783.53877644,1863239.03868763,15.0,8.0,66.0,41.7804785554783,-87.69708643539501,"(41.7804785554783, -87.69708643539502)",2011-08-02
Vacant/Abandoned Building,11-03512439,08/02/2011,Front,,Open,DOOR,Vacant,False,False,10012,S,PARNELL,AVE,60628.0,1174398.85409152,1838502.52809861,9.0,22.0,73.0,41.71224493039306,-87.6369058466074,"(41.71224493039306, -87.63690584660739)",2011-08-02
Vacant/Abandoned Building,11-03512486,08/02/2011,Front,,Open,THE DOORS ARE OPEN,Vacant,False,False,6533,S,MORGAN,ST,60621.0,1170768.11610854,1861500.30352832,17.0,7.0,68.0,41.77543375756015,-87.6495333598093,"(41.775433757560144, -87.6495333598093)",2011-08-02
Vacant/Abandoned Building,11-03512552,08/02/2011,Front,,Open,,Vacant,False,True,6846,S,PEORIA,ST,60621.0,1171487.58097666,1859443.44170429,17.0,7.0,68.0,41.76977375323882,-87.6469560663394,"(41.76977375323883, -87.64695606633941)",2011-08-02
Vacant/Abandoned Building,11-03512706,08/02/2011,Front,,Boarded,TALL WEEDS IN BACK YARD EYE SORE,Vacant,False,False,7718,S,WOOD,ST,60620.0,1165689.68098417,1853505.16910505,17.0,6.0,71.0,41.75360332198464,-87.668376923094,"(41.753603321984635, -87.668376923094)",2011-08-02
Vacant/Abandoned Building,11-03513379,08/02/2011,Front,,Open,,Vacant,False,True,6949,S,NORMAL,BLVD,60621.0,1174148.75500257,1858836.99721955,6.0,7.0,68.0,41.76805090730893,-87.6372193904388,"(41.768050907308925, -87.63721939043882)",2011-08-02
Vacant/Abandoned Building,11-03513577,08/02/2011,Front,,Open,FRONT AND REAR,Vacant,False,True,6020,S,MICHIGAN,AVE,60637.0,1178188.74740714,1865125.43617086,20.0,3.0,40.0,41.785216356960575,-87.62222043066639,"(41.78521635696058, -87.62222043066639)",2011-08-02
Vacant/Abandoned Building,11-03513869,08/02/2011,Front,,Open,,Vacant,False,False,5330,S,SPAULDING,AVE,60632.0,1155284.6281047,1869088.2864297,14.0,8.0,63.0,41.796580112179896,-87.70609151088934,"(41.7965801121799, -87.70609151088934)",2011-08-02
Vacant/Abandoned Building,11-03513977,08/02/2011,Rear,,Boarded,REAR OPEN - FRONT BOADED,Vacant,False,True,5411,W,HADDON,AVE,60651.0,1140006.0414173,1907134.63998676,37.0,15.0,25.0,41.90127703921175,-87.76119087694876,"(41.90127703921175, -87.76119087694875)",2011-08-02
Vacant/Abandoned Building,11-03513996,08/02/2011,Front,,Open,,Vacant,False,False,8420,S,KERFOOT,AVE,60620.0,1173492.23321194,1848927.93710965,21.0,6.0,71.0,41.740873767415756,-87.63991858250078,"(41.74087376741576, -87.63991858250078)",2011-08-02
Vacant/Abandoned Building,11-03514031,08/02/2011,Front,,Open,,Vacant,False,True,5328,S,SPAULDING,AVE,60632.0,1155284.3281047,1869101.6864297,14.0,8.0,63.0,41.79661688967733,-87.70609225247496,"(41.79661688967733, -87.70609225247496)",2011-08-02
Vacant/Abandoned Building,11-03514487,08/02/2011,Front,,Open,,Vacant,False,False,3608,S,UNION,AVE,60609.0,1172225.0039258,1880962.10917084,11.0,9.0,60.0,41.82880706664083,-87.64362009967209,"(41.82880706664083, -87.6436200996721)",2011-08-02
Vacant/Abandoned Building,11-03514603,08/02/2011,Front,,Open,,Vacant,False,True,4714,W,WASHINGTON,BLVD,60644.0,1144946.40378076,1900085.43878497,28.0,11.0,25.0,41.88184137641225,-87.7432223124162,"(41.88184137641225, -87.74322231241618)",2011-08-02
Vacant/Abandoned Building,11-03514655,08/02/2011,,,,,,,,5938,S,LAFLIN,ST,60636.0,1167351.24370349,1865354.24686838,15.0,7.0,67.0,41.786083330024645,-87.66194891816738,"(41.786083330024645, -87.66194891816737)",2011-08-02
Vacant/Abandoned Building,11-03514684,08/02/2011,Rear,,Open,,Vacant,False,False,4446,W,VAN BUREN,ST,60624.0,1146815.21793427,1897652.70592874,24.0,11.0,26.0,41.875130204683366,-87.73642211894396,"(41.87513020468337, -87.73642211894396)",2011-08-02
Vacant/Abandoned Building,11-03514689,08/02/2011,Rear,,Open,,Vacant,False,False,4448,W,VAN BUREN,ST,60624.0,1146801.71793427,1897652.40592874,24.0,11.0,26.0,41.87512963906732,-87.73647169366043,"(41.87512963906732, -87.73647169366043)",2011-08-02
Vacant/Abandoned Building,11-03514834,08/02/2011,Front,,Open,,Vacant,False,False,1115,W,71ST,ST,60621.0,1170050.41091745,1857722.29529823,17.0,7.0,68.0,41.76508206359913,-87.65227405337498,"(41.76508206359913, -87.65227405337498)",2011-08-02
Vacant/Abandoned Building,11-03514916,08/02/2011,Front,,Open,,Occupied,False,True,122,S,SACRAMENTO,BLVD,60612.0,1156409.9317003,1899182.0369249,28.0,11.0,27.0,41.87913833625144,-87.7011526512783,"(41.87913833625144, -87.7011526512783)",2011-08-02
Vacant/Abandoned Building,11-03515226,08/02/2011,Front,,Boarded,,Vacant,False,True,7547,S,VINCENNES,AVE,60620.0,1175645.76760143,1854869.92038849,17.0,6.0,69.0,41.75713140973546,-87.63185075153976,"(41.75713140973546, -87.63185075153977)",2011-08-02
Vacant/Abandoned Building,11-03515261,08/02/2011,Front,,Open,FRONT,Vacant,False,False,7159,S,NORMAL,BLVD,60621.0,1174197.10011406,1857445.1670242,6.0,7.0,68.0,41.76423048798695,-87.63708348019398,"(41.76423048798695, -87.63708348019398)",2011-08-02
Vacant/Abandoned Building,11-03515281,08/02/2011,Front,,Open,FRONT,Vacant,False,False,6029,S,LAFLIN,ST,60636.0,1167366.39301954,1864751.98883006,16.0,7.0,67.0,41.784430335572026,-87.66191061668516,"(41.78443033557202, -87.66191061668516)",2011-08-02
Vacant/Abandoned Building,11-03515474,08/02/2011,Front,,Open,FRONT AND REAR OF THE BUILDING,Vacant,False,True,6647,S,JUSTINE,ST,60636.0,1167150.28601654,1860645.3153020001,17.0,7.0,67.0,41.77316573377309,-87.66282035412058,"(41.773165733773084, -87.66282035412058)",2011-08-02
Vacant/Abandoned Building,11-03515547,08/02/2011,Front,,Boarded,,Vacant,False,True,8549,S,KINGSTON,AVE,60617.0,1194649.41691331,1848781.27800096,7.0,4.0,46.0,41.73997736271276,-87.56240640782976,"(41.73997736271276, -87.56240640782976)",2011-08-02
Vacant/Abandoned Building,11-03515562,08/02/2011,Front,,Open,,Vacant,True,True,11810,S,WALLACE,ST,60628.0,1174430.84702418,1826576.40232956,34.0,5.0,53.0,41.67951712994777,-87.63714171264999,"(41.67951712994777, -87.63714171264998)",2011-08-02
Vacant/Abandoned Building,11-03515622,08/02/2011,Front,,Open,FRONT,Vacant,False,False,6347,S,PAULINA,ST,60636.0,1166089.37682305,1862604.73271006,15.0,7.0,67.0,41.778565261031716,-87.66665371282195,"(41.778565261031716, -87.66665371282197)",2011-08-02
Vacant/Abandoned Building,11-03515651,08/02/2011,Front,,Open,FRONT,Vacant,False,False,6329,S,PAULINA,ST,60636.0,1166087.07682305,1862723.73271006,15.0,7.0,67.0,41.77889186122797,-87.6666587625822,"(41.77889186122797, -87.6666587625822)",2011-08-02
Vacant/Abandoned Building,11-03515993,08/02/2011,Front,,Open,,Vacant,False,True,4512,W,MONROE,ST,60624.0,1146263.13938406,1899281.20437212,28.0,11.0,26.0,41.87960951589046,-87.73840770409929,"(41.87960951589046, -87.7384077040993)",2011-08-02
Vacant/Abandoned Building,11-03516154,08/02/2011,Front,,Open,"SIDE DOOR, AND SIDE WINDOW",Vacant,False,True,7338,S,MARSHFIELD,AVE,60636.0,1166614.41038607,1856047.9865827998,17.0,7.0,67.0,41.76056150055854,-87.66491571165882,"(41.76056150055854, -87.66491571165882)",2011-08-02
Vacant/Abandoned Building,11-03516481,08/02/2011,Rear,,Open,FRONT AND REAR,Vacant,False,True,613,N,LOTUS,AVE,60644.0,1139812.21979059,1903520.76408932,37.0,15.0,25.0,41.89136367027448,-87.76199120919155,"(41.89136367027448, -87.76199120919155)",2011-08-02
Vacant/Abandoned Building,11-03516535,08/02/2011,Front,,Boarded,FRONT,Vacant,False,False,7000,S,MORGAN,ST,60621.0,1170853.5704898997,1858409.4638728,17.0,7.0,68.0,41.76695025131162,-87.64931021003662,"(41.76695025131162, -87.64931021003663)",2011-08-02
Vacant/Abandoned Building,11-03516549,08/02/2011,Front,,Boarded,FRONT WINDOW BASEMENT,Vacant,False,False,7032,S,MORGAN,ST,60621.0,1170859.0704898997,1858194.8638728,17.0,7.0,68.0,41.76636124222143,-87.64929630592455,"(41.76636124222143, -87.64929630592455)",2011-08-02
Vacant/Abandoned Building,11-03516560,08/02/2011,Front,,Boarded,SIDE BASEMENT WINDOW,Vacant,False,False,7052,S,MORGAN,ST,60621.0,1170862.51383097,1858060.70280923,17.0,7.0,68.0,41.76599301241921,-87.6492875955888,"(41.76599301241921, -87.6492875955888)",2011-08-02
Vacant/Abandoned Building,11-03516656,08/02/2011,Front,,Open,REAR DR AT 2ND LEVEL,Vacant,False,True,7923,S,DAMEN,AVE,60620.0,1164408.08452548,1852013.06012873,18.0,6.0,71.0,41.749535844452424,-87.67311549039701,"(41.74953584445242, -87.67311549039701)",2011-08-02
Vacant/Abandoned Building,11-03516693,08/02/2011,Front,,Open,FRONT PORCH,Vacant,False,True,3314,W,DIVERSEY,AVE,60647.0,1153897.13351358,1918428.43400433,35.0,14.0,21.0,41.9320026202625,-87.70986561484959,"(41.9320026202625, -87.70986561484959)",2011-08-02
Vacant/Abandoned Building,11-03516791,08/02/2011,,,,,,,,563,N,LARAMIE,AVE,60644.0,1141597.02510265,1903272.33000701,28.0,15.0,25.0,41.89064913811339,-87.75544251910011,"(41.89064913811339, -87.75544251910011)",2011-08-02
Vacant/Abandoned Building,11-03516867,08/02/2011,Front,,Open,REAR,Vacant,False,False,9021,S,HOUSTON,AVE,60617.0,1198089.7887316002,1845733.97600949,10.0,4.0,46.0,41.731530064249895,-87.54990325916593,"(41.731530064249895, -87.54990325916594)",2011-08-02
Vacant/Abandoned Building,11-03516890,08/02/2011,,,Open,REAR/WINDOWS,Vacant,,,323,W,112TH,ST,60628.0,1176160.07743222,1830658.14426621,34.0,5.0,49.0,41.69067953513343,-87.63069014768239,"(41.69067953513343, -87.63069014768237)",2011-08-02
Vacant/Abandoned Building,11-03517069,08/02/2011,Front,,Open,THE ENTRY POINT IS IN THE FRONT AND THE REAR OF THE BUILDING.,Vacant,False,True,7641,S,GREEN,ST,60620.0,1171960.78532824,1854183.52363062,17.0,6.0,71.0,41.755329510345334,-87.64537570909607,"(41.75532951034533, -87.64537570909607)",2011-08-02
Vacant/Abandoned Building,11-03517074,08/02/2011,Front,,Open,FRONT DOOR,Vacant,False,True,9422,S,INDIANA,AVE,60619.0,1179249.20401007,1842545.38173093,6.0,6.0,49.0,41.723230019482635,-87.61901972400734,"(41.72323001948263, -87.61901972400734)",2011-08-02
Vacant/Abandoned Building,11-03517133,08/02/2011,Front,,Boarded,FRONT,Vacant,False,True,9248,S,LA SALLE,ST,60620.0,1176905.23812491,1843633.83838909,21.0,6.0,49.0,41.72626993924253,-87.62757273167217,"(41.726269939242535, -87.62757273167217)",2011-08-02
Vacant/Abandoned Building,11-03517183,08/02/2011,Front,,Open,,Vacant,False,False,1844,W,HUBBARD,ST,60622.0,1164026.59947784,1903120.50810877,26.0,13.0,24.0,41.88978846156218,-87.67307432056441,"(41.88978846156218, -87.67307432056441)",2011-08-02
Vacant/Abandoned Building,11-03517233,08/02/2011,Front,,Open,THE ENTRY POINT IS IN THE FRONT AND REAR OF THE BUILDING.,Vacant,False,True,7639,S,GREEN,ST,60620.0,1171960.48532824,1854196.92363062,17.0,6.0,71.0,41.75536628823569,-87.64537641582645,"(41.75536628823569, -87.64537641582646)",2011-08-02
Vacant/Abandoned Building,11-03517494,08/02/2011,Front,,Open,,Vacant,False,False,11359,S,LAFLIN,ST,60643.0,1168148.3340311002,1829299.85247669,34.0,22.0,75.0,41.6871277458624,-87.66006053451592,"(41.6871277458624, -87.66006053451592)",2011-08-02
Vacant/Abandoned Building,11-03518661,08/03/2011,Front,,Open,FRONT DOOR,Vacant,False,False,7944,S,SANGAMON,ST,60620.0,1171355.57622789,1852117.31792118,17.0,6.0,71.0,41.749672832163725,-87.64765398608992,"(41.749672832163725, -87.64765398608992)",2011-08-03
Vacant/Abandoned Building,11-03519195,08/03/2011,Rear,,Open,,Vacant,False,False,2315,E,96TH,ST,60617.0,1193362.68997336,1841975.8500098998,7.0,4.0,51.0,41.72133417892281,-87.56734260596346,"(41.72133417892281, -87.56734260596345)",2011-08-03
Vacant/Abandoned Building,11-03519232,08/03/2011,Rear,,Open,REAR DOOR,Vacant,False,True,7623,S,SAGINAW,AVE,60649.0,1195247.44658936,1854929.33152942,7.0,4.0,43.0,41.75683338262007,-87.56001290367348,"(41.756833382620066, -87.56001290367347)",2011-08-03
Vacant/Abandoned Building,11-03519242,08/03/2011,Garage,,Open,,Vacant,False,False,6504,S,LAFLIN,ST,60636.0,1167454.2367146001,1861605.7320933,17.0,7.0,67.0,41.77579473164928,-87.66167864755418,"(41.77579473164928, -87.66167864755418)",2011-08-03
Vacant/Abandoned Building,11-03520082,08/03/2011,,,,,,,,5418,W,VAN BUREN,ST,60644.0,1140412.05819467,1897484.0534749,29.0,15.0,25.0,41.874787190294214,-87.7599363853279,"(41.874787190294214, -87.7599363853279)",2011-08-03
Vacant/Abandoned Building,11-03520129,08/03/2011,,,,,,,,2047,W,CORTEZ,ST,60622.0,1162562.75997062,1906991.53002019,32.0,13.0,24.0,41.90044163439296,-87.67834164347343,"(41.900441634392955, -87.67834164347344)",2011-08-03
Vacant/Abandoned Building,11-03520132,08/03/2011,,,,,,,,7740,S,SOUTH CHICAGO,AVE,60619.0,1187363.62099324,1853797.58079841,5.0,4.0,45.0,41.75391858999832,-87.58894116875406,"(41.75391858999832, -87.58894116875406)",2011-08-03
Vacant/Abandoned Building,11-03520163,08/03/2011,Front,,Open,,Vacant,False,True,1057,W,47TH,PL,60609.0,1170066.45138462,1873312.27101624,3.0,9.0,61.0,41.807862421311455,-87.65176229002864,"(41.80786242131145, -87.65176229002864)",2011-08-03
Vacant/Abandoned Building,11-03520181,08/03/2011,,,,,,,,814,W,MARQUETTE,RD,60621.0,1171973.49241802,1860427.88071419,16.0,7.0,68.0,41.77246451684282,-87.64514605714761,"(41.772464516842824, -87.64514605714761)",2011-08-03
Vacant/Abandoned Building,11-03520271,08/03/2011,Front,,Open,,Vacant,False,False,124,E,118TH,PL,60628.0,1179145.98138312,1826418.41019258,9.0,5.0,53.0,41.678977729064776,-87.61988716633817,"(41.67897772906478, -87.61988716633817)",2011-08-03
Vacant/Abandoned Building,11-03520413,08/03/2011,Garage,,Open,GARAGE,Vacant,False,True,6438,S,ST LAWRENCE,AVE,60637.0,1181341.21810134,1862452.95939701,20.0,3.0,42.0,41.77781070106412,-87.61074452297264,"(41.77781070106412, -87.61074452297264)",2011-08-03
Vacant/Abandoned Building,11-03520532,08/03/2011,Front,,Boarded,FRONTYARD -- FILLED WITH WEEDS...,Vacant,False,True,4157,S,KEDZIE,AVE,60632.0,1155702.0086833,1876809.21007627,14.0,9.0,58.0,41.81775900282639,-87.70435371498958,"(41.817759002826385, -87.70435371498958)",2011-08-03
Vacant/Abandoned Building,11-03521326,08/03/2011,Front,,Boarded,,Vacant,False,True,7848,S,DOBSON,AVE,60619.0,1184582.4864136998,1853180.39089079,8.0,6.0,69.0,41.75229053872988,-87.59915225209153,"(41.75229053872988, -87.59915225209153)",2011-08-03
Vacant/Abandoned Building,11-03521422,08/03/2011,Front,,Open,ALL THROUGHOUT THE HOME,Vacant,False,True,1435,W,99TH,ST,60643.0,1168358.05791917,1839098.94843084,21.0,22.0,73.0,41.71401354744143,-87.6590118884486,"(41.71401354744143, -87.65901188844859)",2011-08-03
Vacant/Abandoned Building,11-03521457,08/03/2011,Front,,Open,,Vacant,False,False,12424,S,PARNELL,AVE,60628.0,1174890.7806835,1822509.18350531,34.0,5.0,53.0,41.66834581720335,-87.6355787154797,"(41.66834581720335, -87.6355787154797)",2011-08-03
Vacant/Abandoned Building,11-03521481,08/03/2011,,,Open,FRONT,Vacant,,,6815,W,ARCHER,AVE,60638.0,1131824.03502629,1867312.5460772,23.0,8.0,56.0,41.792144691498606,-87.79216643785949,"(41.7921446914986, -87.7921664378595)",2011-08-03
Vacant/Abandoned Building,11-03521549,08/03/2011,Front,,Boarded,,Vacant,False,False,4844,W,SCHOOL,ST,60641.0,1143494.42398133,1921501.68503003,38.0,16.0,15.0,41.94063713249406,-87.74801736408537,"(41.94063713249406, -87.74801736408538)",2011-08-03
Vacant/Abandoned Building,11-03521693,08/03/2011,Front,,Boarded,,Vacant,False,False,5030,W,SCHOOL,ST,60641.0,1142250.66059821,1921472.01958633,38.0,16.0,15.0,41.94057894067468,-87.7525894295825,"(41.94057894067469, -87.7525894295825)",2011-08-03
Vacant/Abandoned Building,11-03521788,08/03/2011,Front,,Open,BACK DOOR,Vacant,False,True,1856,E,79TH,ST,60649.0,1190026.18999323,1852963.41927888,8.0,4.0,43.0,41.75156594553262,-87.57921070932869,"(41.75156594553262, -87.57921070932868)",2011-08-03
Vacant/Abandoned Building,11-03521811,08/03/2011,Rear,,Boarded,,Vacant,False,False,8023,S,STEWART,AVE,60620.0,1175018.63101426,1851733.06167398,17.0,6.0,44.0,41.74853749599856,-87.63424250985761,"(41.748537495998555, -87.63424250985761)",2011-08-03
Vacant/Abandoned Building,11-03522521,08/03/2011,Front,,Open,,Vacant,True,False,104,W,110TH,ST,60628.0,1177526.18372385,1832016.22077874,34.0,5.0,49.0,41.69437560783618,-87.62564792009339,"(41.69437560783618, -87.62564792009339)",2011-08-03
Vacant/Abandoned Building,11-03522735,08/03/2011,Front,,Open,,Vacant,False,True,2600,W,ROOSEVELT,RD,60608.0,1159043.25058158,1894616.2410968998,28.0,11.0,29.0,41.86655571661245,-87.69160887905024,"(41.866555716612446, -87.69160887905024)",2011-08-03
Vacant/Abandoned Building,11-03522878,08/03/2011,Front,,Open,2ND FL WINDOWS,Vacant,False,True,4735,S,LANGLEY,AVE,60615.0,1181729.57656951,1873769.57309591,4.0,2.0,38.0,41.80885551875054,-87.60897124196968,"(41.80885551875054, -87.60897124196967)",2011-08-03
Vacant/Abandoned Building,11-03522898,08/03/2011,Front,,Open,FRONT REAR TALL WEEDS EYE SORE,Vacant,False,False,6623,S,KILPATRICK,AVE,60629.0,1146187.42198186,1860274.98818071,13.0,8.0,64.0,41.77257228666426,-87.73967541156715,"(41.77257228666426, -87.73967541156715)",2011-08-03
Vacant/Abandoned Building,11-03523149,08/03/2011,Front,,Open,DOOR WINDOWS,Vacant,True,True,10509,S,STATE,ST,60628.0,1178110.31090537,1835270.81000346,9.0,5.0,49.0,41.703293472043526,-87.62341106246227,"(41.70329347204352, -87.62341106246227)",2011-08-03
Vacant/Abandoned Building,11-03523269,08/03/2011,Front,,Open,FRONT AND REAR DOOR,Vacant,False,False,6129,S,MAY,ST,60621.0,1169701.06471041,1864150.653586,16.0,7.0,68.0,41.78272985369153,-87.65336821808174,"(41.78272985369152, -87.65336821808174)",2011-08-03
Vacant/Abandoned Building,11-03523285,08/03/2011,Rear,,Open,,Vacant,False,False,9635,S,GENOA,AVE,60643.0,1170719.03052313,1840804.00912075,21.0,22.0,73.0,41.718641422126474,-87.65031554623816,"(41.718641422126474, -87.65031554623815)",2011-08-03
Vacant/Abandoned Building,11-03523291,08/03/2011,Front,,Open,BASEMENT DOOR,Vacant,,True,4943,W,CRYSTAL,ST,,1143182.29809025,1907865.93477207,37.0,25.0,25.0,41.90322507272877,-87.74950575420151,"(41.903225072728766, -87.74950575420152)",2011-08-03
Vacant/Abandoned Building,11-03523306,08/03/2011,Front,,Open,BASEMENT DOOR,Vacant,False,True,4943,W,CRYSTAL,ST,,1143182.29809025,1907865.93477207,37.0,25.0,25.0,41.90322507272877,-87.74950575420151,"(41.903225072728766, -87.74950575420152)",2011-08-03
Vacant/Abandoned Building,11-03523374,08/03/2011,Front,,Open,DOORS AND WINDOWS,Vacant,False,True,5245,S,SANGAMON,ST,60609.0,1170868.01007381,1870032.81612206,20.0,9.0,61.0,41.79884576700317,-87.64891816868591,"(41.798845767003165, -87.6489181686859)",2011-08-03
Vacant/Abandoned Building,11-03523648,08/03/2011,Rear,,Open,,Vacant,True,True,2544,W,WARREN,BLVD,60612.0,1159515.79582938,1900268.37198223,2.0,13.0,28.0,41.88205599520323,-87.68971852287214,"(41.88205599520323, -87.68971852287214)",2011-08-03
Vacant/Abandoned Building,11-03523773,08/03/2011,Rear,,Open,REAR,Vacant,False,False,7916,S,JUSTINE,ST,60620.0,1167380.02987916,1852233.47331313,21.0,6.0,71.0,41.750077594461054,-87.66221874005467,"(41.750077594461054, -87.66221874005467)",2011-08-03
Vacant/Abandoned Building,11-03523942,08/03/2011,Front,,Open,,Vacant,False,True,4512,S,CALUMET,AVE,60653.0,1179188.49452011,1875173.80782257,3.0,2.0,38.0,41.812767251690616,-87.61824846052272,"(41.81276725169062, -87.61824846052272)",2011-08-03
Vacant/Abandoned Building,11-03524228,08/03/2011,Front,,Open,FRONT,Vacant,False,False,7342,S,PAULINA,ST,60636.0,1166283.80120637,1856013.07101043,17.0,7.0,67.0,41.760472730469274,-87.66612840194577,"(41.76047273046927, -87.66612840194577)",2011-08-03
Vacant/Abandoned Building,11-03524273,08/03/2011,Front,,Open,FRONT,Vacant,False,False,6929,S,CARPENTER,ST,60621.0,1170509.53653253,1858867.83928437,17.0,7.0,68.0,41.76821559143836,-87.65055789405619,"(41.768215591438356, -87.65055789405618)",2011-08-03
Vacant/Abandoned Building,11-03524333,08/03/2011,Front,,Open,,Vacant,False,True,6412,S,VERNON,AVE,60637.0,1180352.81798349,1862595.55301953,20.0,3.0,42.0,41.778224725507634,-87.61436361433887,"(41.77822472550763, -87.61436361433887)",2011-08-03
Vacant/Abandoned Building,11-03524874,08/03/2011,Rear,,Open,REAR DOOR,Vacant,False,False,1743,W,21ST,ST,,1165070.33389625,1890121.00283322,25.0,12.0,31.0,41.854094609977224,-87.66961042501232,"(41.85409460997723, -87.66961042501231)",2011-08-03
Vacant/Abandoned Building,11-03524978,08/03/2011,Front,,Open,,Vacant,True,True,2955,E,81ST,ST,60617.0,1197515.62743137,1851835.7649143997,7.0,4.0,46.0,41.74828816616883,-87.55180358773883,"(41.74828816616883, -87.55180358773885)",2011-08-03
Vacant/Abandoned Building,11-03525018,08/03/2011,Rear,,Open,NONE,Vacant,False,False,10721,S,CALUMET,AVE,60628.0,1180478.87418394,1833947.20943047,9.0,5.0,49.0,41.69960742597166,-87.61477840380766,"(41.69960742597166, -87.61477840380765)",2011-08-03
Vacant/Abandoned Building,11-03525365,08/03/2011,Front,,Open,,Vacant,False,False,6231,S,CAMPBELL,AVE,60629.0,1160773.58726875,1863261.30212511,15.0,8.0,66.0,41.78047841625268,-87.68612371495148,"(41.78047841625268, -87.68612371495149)",2011-08-03
Vacant/Abandoned Building,11-03525622,08/03/2011,Front,,Boarded,TALLWEEDS,Vacant,False,False,5229,S,RICHMOND,ST,60632.0,1157595.02613424,1869828.34711261,14.0,9.0,63.0,41.79856436600315,-87.69759892873077,"(41.79856436600315, -87.69759892873077)",2011-08-03
Vacant/Abandoned Building,11-03525922,08/03/2011,,,,,,,,5927,S,THROOP,ST,60636.0,1168672.40556575,1865463.5263116,16.0,7.0,67.0,41.78635479429523,-87.6571017356834,"(41.78635479429523, -87.6571017356834)",2011-08-03
Vacant/Abandoned Building,11-03525954,08/03/2011,Rear,,Open,,Vacant,False,False,8435,S,BURLEY,AVE,60617.0,1199276.58892865,1849660.25682269,10.0,4.0,46.0,41.742274346313785,-87.5454239759647,"(41.74227434631378, -87.5454239759647)",2011-08-03
Vacant/Abandoned Building,11-03526097,08/03/2011,Front,,Open,FRONT WIDE OPEN,Vacant,False,True,7228,S,HALSTED,ST,60621.0,1172217.66041778,1856932.84333195,17.0,7.0,68.0,41.76286834679517,-87.64435363573249,"(41.762868346795166, -87.64435363573249)",2011-08-03
Vacant/Abandoned Building,11-03526256,08/03/2011,,,,,,,,822,N,LOCKWOOD,AVE,60651.0,1140872.54652052,1904968.35381705,37.0,15.0,25.0,41.89531659116624,-87.75806143179561,"(41.89531659116624, -87.75806143179561)",2011-08-03
Vacant/Abandoned Building,11-03526385,08/03/2011,Front,,Open,FRONT AND BACK DOORS; SIDE WINDOWS,Vacant,False,True,5823,W,SUPERIOR,ST,60644.0,1137460.64980662,1904410.01240658,29.0,15.0,25.0,41.893846523971426,-87.77060612900046,"(41.89384652397142, -87.77060612900046)",2011-08-03
Vacant/Abandoned Building,11-03526569,08/03/2011,Front,,Open,"GARAGE, REAR DOORS/WINDOWS OF PROP.",Vacant,False,True,5140,S,ARTESIAN,AVE,60632.0,1160904.76231478,1870520.90438829,14.0,9.0,63.0,41.80039702056949,-87.68544223150947,"(41.80039702056949, -87.68544223150948)",2011-08-03
Vacant/Abandoned Building,11-03526742,08/03/2011,Garage,,Open,,Vacant,False,True,2217,W,50TH,PL,60609.0,1162321.9599777001,1871144.79002394,16.0,9.0,63.0,41.80207961036752,-87.68022752041603,"(41.802079610367514, -87.68022752041603)",2011-08-03
Vacant/Abandoned Building,11-03527768,08/04/2011,Front,,Open,REAR,Vacant,False,True,4357,W,21ST,PL,60623.0,1147668.87222325,1889398.81007538,24.0,10.0,29.0,41.852464166329824,-87.7334995546862,"(41.852464166329824, -87.7334995546862)",2011-08-04
Vacant/Abandoned Building,11-03527824,08/04/2011,Front,,Boarded,,Vacant,False,True,200,S,HAMILTON,AVE,60612.0,1162101.02003208,1899057.30003362,2.0,12.0,28.0,41.87867911320762,-87.6802594381965,"(41.87867911320762, -87.6802594381965)",2011-08-04
Vacant/Abandoned Building,11-03528185,08/04/2011,Front,,Open,ALL SIDES OPEN,Vacant,True,True,2175,N,MENARD,AVE,60639.0,1137369.96157613,1913911.69209739,37.0,25.0,19.0,41.91992190933895,-87.77071031379063,"(41.91992190933895, -87.77071031379062)",2011-08-04
Vacant/Abandoned Building,11-03528679,08/04/2011,,,,,,,,2631,W,GLADYS,AVE,60612.0,1158827.00929445,1898330.11031461,28.0,11.0,27.0,41.876751369988256,-87.69230090634396,"(41.876751369988256, -87.69230090634395)",2011-08-04
Vacant/Abandoned Building,11-03528876,08/04/2011,,,,,,,,1148,W,111TH,ST,60643.0,1170647.76661392,1831187.53261074,34.0,22.0,75.0,41.692253877078784,-87.65085569749772,"(41.692253877078784, -87.6508556974977)",2011-08-04
Vacant/Abandoned Building,11-03528952,08/04/2011,,,,,,,,5431,S,RIDGEWAY,AVE,60632.0,1152296.62007305,1868331.41492069,23.0,8.0,62.0,41.794562451572475,-87.71706882753195,"(41.79456245157248, -87.71706882753195)",2011-08-04
Vacant/Abandoned Building,11-03528955,08/04/2011,,,,,,,,8223,S,EVANS,AVE,60619.0,1182658.06289116,1850635.93840196,6.0,6.0,44.0,41.74535313477811,-87.6062831432228,"(41.74535313477811, -87.60628314322278)",2011-08-04
Vacant/Abandoned Building,11-03528959,08/04/2011,,,,,,,,3753,W,DICKENS,AVE,60647.0,1151014.44121945,1913693.38739383,26.0,25.0,22.0,41.91906627591712,-87.72058351022119,"(41.91906627591712, -87.72058351022119)",2011-08-04
Vacant/Abandoned Building,11-03529560,08/04/2011,Front,,Open,FRONT AND REAR NO DOORS,Vacant,False,False,6637,S,CLAREMONT,AVE,60636.0,1161884.40272548,1860584.59468553,15.0,8.0,66.0,41.77311014750261,-87.68212556325756,"(41.77311014750261, -87.68212556325757)",2011-08-04
Vacant/Abandoned Building,11-03529679,08/04/2011,Front,,Boarded,,Vacant,False,False,11621,S,PRINCETON,AVE,60628.0,1176365.79847745,1827871.01576698,34.0,5.0,53.0,41.683026625657185,-87.63002029774775,"(41.68302662565718, -87.63002029774775)",2011-08-04
Vacant/Abandoned Building,11-03529699,08/04/2011,Front,,Open,"FRONT, BACK AND WINDOWS",Vacant,False,False,4518,W,CONGRESS,PKWY,60624.0,1146290.15573356,1897307.32612568,24.0,11.0,26.0,41.874192444963725,-87.73835874582113,"(41.874192444963725, -87.73835874582113)",2011-08-04
Vacant/Abandoned Building,11-03529740,08/04/2011,Front,,Open,,Vacant,False,False,5931,S,ADA,ST,60636.0,1168342.11202644,1865427.50786966,16.0,7.0,67.0,41.78626307754725,-87.65831379654864,"(41.786263077547254, -87.65831379654863)",2011-08-04
Vacant/Abandoned Building,11-03529880,08/04/2011,Rear,,Open,,Vacant,False,False,37,W,109TH,PL,60628.0,1177956.79701029,1832359.14990188,34.0,5.0,49.0,41.695306935253356,-87.62406099644112,"(41.69530693525336, -87.62406099644112)",2011-08-04
Vacant/Abandoned Building,11-03530234,08/04/2011,Front,,Open,REAR,Vacant,True,True,4936,W,CORTEZ,ST,60651.0,1143260.5417086,1906532.0073785998,37.0,15.0,25.0,41.89956316398221,-87.74925170588533,"(41.8995631639822, -87.74925170588533)",2011-08-04
Vacant/Abandoned Building,11-03530239,08/04/2011,Rear,,Open,REAR,Vacant,False,False,8347,S,PAULINA,ST,60620.0,1166463.18250656,1849346.65539174,18.0,6.0,71.0,41.74217532757049,-87.66566056303725,"(41.74217532757049, -87.66566056303724)",2011-08-04
Vacant/Abandoned Building,11-03530439,08/04/2011,,,,,,,,2236,W,35TH,ST,60609.0,1161909.74516627,1881433.01178723,11.0,9.0,59.0,41.83032029576385,-87.68145305029596,"(41.830320295763855, -87.68145305029597)",2011-08-04
Vacant/Abandoned Building,11-03530479,08/04/2011,Front,,Open,BACK DOOR OPEN,Vacant,False,True,3009,W,21ST,PL,60623.0,1156623.05001683,1889564.82002318,24.0,10.0,30.0,41.852743373911245,-87.70063037534635,"(41.85274337391124, -87.70063037534636)",2011-08-04
Vacant/Abandoned Building,11-03530952,08/04/2011,Front,,Boarded,TALL WEEDS BACKYARD EYE SORE,Vacant,False,False,7373,S,KIMBARK,AVE,60619.0,1186154.69700328,1856370.83642275,5.0,3.0,43.0,41.761008466478856,-87.59329028300043,"(41.761008466478856, -87.59329028300044)",2011-08-04
Vacant/Abandoned Building,11-03531333,08/04/2011,Front,,Open,FRONT AND BACK DOORS - WINDOWS,Vacant,False,True,1432,S,HARDING,AVE,60623.0,1150278.16003097,1892871.44768866,24.0,10.0,29.0,41.861943088922146,-87.72383212862698,"(41.86194308892215, -87.72383212862697)",2011-08-04
Vacant/Abandoned Building,11-03531627,08/04/2011,Front,,Open,NEEDS BOARDUP,Vacant,False,True,8649,S,SAGINAW,AVE,60617.0,1195326.6059764998,1848136.56941372,7.0,4.0,46.0,41.738191555103135,-87.55994655655287,"(41.738191555103135, -87.55994655655287)",2011-08-04
Vacant/Abandoned Building,11-03531634,08/04/2011,Front,,Open,NEEDS BOARD UP,Vacant,False,True,8655,S,SAGINAW,AVE,60617.0,1195327.41992346,1848096.45368114,7.0,4.0,46.0,41.738081454116575,-87.55994489528685,"(41.73808145411658, -87.55994489528685)",2011-08-04
Vacant/Abandoned Building,11-03531656,08/04/2011,Front,,Open,OPEN IN THE BACK LOOKS LIKE ITS BOARDED IN THE FRONT ENTRANCE IS IN THE BACK,Vacant,False,True,6925,S,PEORIA,ST,60621.0,1171500.77480889,1858922.02286876,17.0,7.0,68.0,41.76834262753917,-87.64692295704188,"(41.76834262753917, -87.64692295704187)",2011-08-04
Vacant/Abandoned Building,11-03532110,08/04/2011,Garage,,Open,,Vacant,,True,2443,W,61ST,ST,60629.0,1161029.31751401,1864141.89118498,15.0,8.0,66.0,41.78288958766779,-87.68516182272836,"(41.78288958766779, -87.68516182272836)",2011-08-04
Vacant/Abandoned Building,11-03532135,08/04/2011,Rear,,Open,REAR,Vacant,False,True,6634,S,MOZART,ST,60629.0,1158520.39909123,1860520.53160765,15.0,8.0,66.0,41.773003586408905,-87.6944589999143,"(41.773003586408905, -87.69445899991429)",2011-08-04
Vacant/Abandoned Building,11-03532304,08/04/2011,Front,,Open,"FRONT DOOR, BACK WINDOW IS BUSTED OUT",Vacant,False,True,9021,S,ABERDEEN,ST,60620.0,1170568.60209958,1844982.36062493,21.0,22.0,73.0,41.730110699631574,-87.65074516398661,"(41.73011069963157, -87.65074516398661)",2011-08-04
Vacant/Abandoned Building,11-03532845,08/04/2011,Rear,,Open,REAR,Vacant,False,False,11959,S,YALE,AVE,60628.0,1176763.1044293002,1825631.69546835,9.0,5.0,53.0,41.67687267686189,-87.62863296025263,"(41.67687267686189, -87.62863296025262)",2011-08-04
Vacant/Abandoned Building,11-03533033,08/04/2011,Front,,Open,,Vacant,False,False,8437,S,PAXTON,AVE,60617.0,1192311.23469153,1849488.54268953,8.0,4.0,46.0,41.741975319115255,-87.57095007658867,"(41.74197531911526, -87.57095007658867)",2011-08-04
Vacant/Abandoned Building,11-03533356,08/04/2011,,,,,,,,109,S,WASHTENAW,AVE,60612.0,1158376.10946944,1899488.78719349,2.0,11.0,27.0,41.8799401191515,-87.69392477902764,"(41.8799401191515, -87.69392477902764)",2011-08-04
Vacant/Abandoned Building,11-03533681,08/04/2011,Front,,Open,FRONT AND REAR OF THE BUILDING,Vacant,False,True,7919,S,LAFAYETTE,AVE,60620.0,1177316.71056604,1852394.85531255,6.0,6.0,44.0,41.750301990546774,-87.62580164005149,"(41.750301990546774, -87.6258016400515)",2011-08-04
Vacant/Abandoned Building,11-03533697,08/04/2011,Front,,Open,FRONT AND BACK,Vacant,False,True,3229,W,MAYPOLE,AVE,60624.0,1154817.99012187,1900792.69107232,28.0,11.0,27.0,41.8835901626686,-87.70695484444221,"(41.88359016266859, -87.70695484444222)",2011-08-04
Vacant/Abandoned Building,11-03533792,08/04/2011,Front,,Open,ALL WINDOWS,Vacant,False,False,6819,S,ELIZABETH,ST,60636.0,1169165.19060759,1859561.17746978,17.0,7.0,67.0,41.770147378311336,-87.6554655272534,"(41.770147378311336, -87.6554655272534)",2011-08-04
Vacant/Abandoned Building,11-03534223,08/04/2011,Front,,Open,REAR,Vacant,False,False,531,W,44TH,ST,60609.0,1173362.06989395,1875742.22183249,11.0,9.0,61.0,41.81445808793935,-87.63960292919128,"(41.81445808793935, -87.63960292919128)",2011-08-04
Vacant/Abandoned Building,11-03534270,08/04/2011,Front,,Open,BOTH BACK DOORS OPEN 1ST AND 2ND FLOOR... SQUATTERS . PEOPLE THERE MOSTLY AT NIGHT,Vacant,False,True,7331,S,KENWOOD,AVE,60619.0,1186475.64010861,1856659.17682715,5.0,3.0,43.0,41.761792116604425,-87.59210491620755,"(41.76179211660443, -87.59210491620755)",2011-08-04
Vacant/Abandoned Building,11-03534335,08/04/2011,Front,,Open,FRONT AND REAR.. PEOPLE CONTINUE TO GET IN THIS BLDG..,Vacant,False,True,909,N,CICERO,AVE,60651.0,1144190.90070875,1905646.14441787,37.0,11.0,25.0,41.89711482417069,-87.7458567408078,"(41.89711482417069, -87.7458567408078)",2011-08-04
Vacant/Abandoned Building,11-03534413,08/04/2011,Front,,Open,,Vacant,False,True,20,W,112TH,ST,60628.0,1178102.05649592,1830705.62193195,34.0,5.0,49.0,41.69076613191377,-87.62357904174091,"(41.69076613191377, -87.6235790417409)",2011-08-04
Vacant/Abandoned Building,11-03534555,08/04/2011,Rear,,Open,REAR DOOR,Vacant,False,True,10201,S,LOWE,AVE,60628.0,1173771.87519112,1837232.67538967,9.0,22.0,73.0,41.708774162955066,-87.63923950557438,"(41.70877416295506, -87.63923950557438)",2011-08-04
Vacant/Abandoned Building,11-03535332,08/04/2011,Front,,Open,?,Vacant,False,False,8137,S,CALIFORNIA,AVE,60652.0,1159125.96540969,1850548.74377299,18.0,8.0,70.0,41.74562712224825,-87.69251143079369,"(41.74562712224825, -87.69251143079369)",2011-08-04
Vacant/Abandoned Building,11-03535707,08/05/2011,Front,,Open,FRONT & REAR,Vacant,False,False,12544,S,WALLACE,ST,60628.0,1174595.3513218001,1821594.46999131,9.0,5.0,53.0,41.66584225161972,-87.63668698547156,"(41.66584225161972, -87.63668698547156)",2011-08-05
Vacant/Abandoned Building,11-03536007,08/05/2011,Rear,,Open,,Vacant,False,False,6157,S,ROCKWELL,ST,60629.0,1160096.00902833,1863732.43278936,15.0,8.0,66.0,41.78178523216332,-87.68859489864157,"(41.781785232163315, -87.68859489864157)",2011-08-05
Vacant/Abandoned Building,11-03536865,08/05/2011,Front,,Open,,Vacant,False,False,1100,N,LAMON,AVE,60651.0,1143495.15997464,1906871.79480848,37.0,15.0,25.0,41.900491192616975,-87.74838143365103,"(41.900491192616975, -87.74838143365103)",2011-08-05
Vacant/Abandoned Building,11-03537255,08/05/2011,Rear,,Open,BACK,Vacant,False,True,11119,S,ALBANY,AVE,60655.0,1157673.74001796,1830630.05999311,19.0,22.0,74.0,41.69099633558136,-87.69837098857393,"(41.69099633558136, -87.69837098857393)",2011-08-05
Vacant/Abandoned Building,11-03537367,08/05/2011,Front,,Open,"THE PROPERTY IS FILLED WITH WEEDS, NOT BEING MAINTAINED ..CREATING A RODENT PROBLEM",Vacant,False,False,5646,N,MENARD,AVE,60646.0,1136548.00052478,1937173.38373126,45.0,16.0,11.0,41.983769078600346,-87.77317176232295,"(41.983769078600346, -87.77317176232293)",2011-08-05
Vacant/Abandoned Building,11-03537701,08/05/2011,Front,,Open,"FRONT, BACK AND WINDOWS",Vacant,False,False,4130,W,CONGRESS,PKWY,60624.0,1148937.28006636,1897371.89557798,24.0,11.0,26.0,41.87431886757636,-87.72863795554005,"(41.874318867576356, -87.72863795554005)",2011-08-05
Vacant/Abandoned Building,11-03537720,08/05/2011,,,,,,,,4448,N,SAWYER,AVE,60625.0,1153917.08756666,1929381.88871205,33.0,17.0,14.0,41.96205927749065,-87.70949931700214,"(41.96205927749066, -87.70949931700214)",2011-08-05
Vacant/Abandoned Building,11-03538215,08/05/2011,Front,,Open,BACK DOOR AND DOORS OPEN PEOPLE COMING IN AND OUT,Vacant,False,True,6000,S,LOOMIS,BLVD,60636.0,1168023.33870917,1864964.12728925,16.0,7.0,67.0,41.78499836682808,-87.65949589526882,"(41.784998366828084, -87.65949589526883)",2011-08-05
Vacant/Abandoned Building,11-03538361,08/05/2011,Front,,Open,THIS PROPERTY IS NOT BEING MAINTAINED.. WEEDSOVERGROWN .. IN BACK YARD.. AND FRONT YARD .. CREATING A RODENT PROBLEM...,Vacant,False,False,5706,S,THROOP,ST,60636.0,1168632.32372938,1866930.43326844,16.0,7.0,67.0,41.790381025572174,-87.6572063996172,"(41.79038102557217, -87.65720639961718)",2011-08-05
Vacant/Abandoned Building,11-03538566,08/05/2011,Front,,Open,"THE PROPERTY IN FORECLOSURE .. GRASS HAS NOT BEEN CUT.. OVERGROWN WEEDS, AND JUNK IN BACK YARD",Vacant,False,False,11341,S,CHAMPLAIN,AVE,60628.0,1182605.3031892,1829893.67429272,9.0,5.0,50.0,41.688435034300355,-87.60711753830758,"(41.68843503430035, -87.60711753830756)",2011-08-05
Vacant/Abandoned Building,11-03538697,08/05/2011,Front,,Open,ABANDONED BUILDING OPEN NOT SECURED IN THE REAR,Vacant,False,False,7950,S,PEORIA,ST,60620.0,1171676.80471357,1852459.94191267,17.0,6.0,71.0,41.75060600631601,-87.64646684974787,"(41.75060600631601, -87.64646684974787)",2011-08-05
Vacant/Abandoned Building,11-03538784,08/05/2011,Front,,Boarded,,Vacant,False,False,1121,W,71ST,ST,60621.0,1169986.67739088,1857720.29379643,17.0,7.0,68.0,41.76507795576464,-87.65250771348445,"(41.76507795576464, -87.65250771348445)",2011-08-05
Vacant/Abandoned Building,11-03538818,08/05/2011,Front,,Open,FRONT AND REAR OF THE BUILDING,Vacant,False,False,1125,W,71ST,ST,60621.0,1169944.17739088,1857718.99379643,17.0,7.0,68.0,41.76507531140098,-87.65266352613514,"(41.76507531140098, -87.65266352613514)",2011-08-05
Vacant/Abandoned Building,11-03538912,08/05/2011,Front,,Open,ALL AROUND,Vacant,False,True,2126,S,HARDING,AVE,60623.0,1150382.47671495,1889588.76989557,24.0,10.0,29.0,41.852932991208064,-87.7235347781468,"(41.852932991208064, -87.7235347781468)",2011-08-05
Vacant/Abandoned Building,11-03538950,08/05/2011,,,,,,,,620,N,MONTICELLO,AVE,60624.0,1151941.11726807,1903890.01813123,27.0,11.0,23.0,41.89214668308404,-87.71743738488281,"(41.89214668308404, -87.71743738488281)",2011-08-05
Vacant/Abandoned Building,11-03538977,08/05/2011,Front,,Open,FRONT AND REAR OF THE BUILDING,Vacant,False,False,7025,S,WINCHESTER,AVE,60636.0,1164569.12231894,1858079.09287766,17.0,7.0,67.0,41.7661785042534,-87.67235459129031,"(41.76617850425341, -87.67235459129031)",2011-08-05
Vacant/Abandoned Building,11-03539152,08/05/2011,Front,,Open,FRONT AND REAR OF THE BUILDING WITH CORDS GOING INTO 7009 S. WINCHESTER,Vacant,False,False,7005,S,WINCHESTER,AVE,60636.0,1164565.42231894,1858212.89287766,17.0,7.0,67.0,41.76654574785771,-87.67236438449342,"(41.76654574785771, -87.67236438449342)",2011-08-05
Vacant/Abandoned Building,11-03539359,08/05/2011,Front,,Open,ALL WINDOWS ARE GONE AND SIDE DOOR OFF,Vacant,False,False,1261,W,71ST,ST,60636.0,1169064.10010304,1857694.20678979,17.0,7.0,67.0,41.76502635843103,-87.65588998407975,"(41.76502635843103, -87.65588998407974)",2011-08-05
Vacant/Abandoned Building,11-03539388,08/05/2011,Front,,Open,"FRONT, SIDE, REAR",Vacant,,True,2542,W,WARREN,BLVD,,1159530.79582938,1900268.77198223,2.0,13.0,28.0,41.88205678413303,-87.68966343188916,"(41.88205678413303, -87.68966343188916)",2011-08-05
Vacant/Abandoned Building,11-03539592,08/05/2011,Front,,Open,FRONT AND REAR OF THE BUILDING,Vacant,False,False,7248,S,MARSHFIELD,AVE,60636.0,1166597.19009789,1856643.02526689,17.0,7.0,67.0,41.76219473458682,-87.66496188011541,"(41.76219473458682, -87.6649618801154)",2011-08-05
Vacant/Abandoned Building,11-03539650,08/05/2011,,,,,,,,1644,N,HERMITAGE,AVE,60622.0,1164428.7000073,1910995.58210004,32.0,14.0,24.0,41.91138973610028,-87.6713744796995,"(41.91138973610028, -87.6713744796995)",2011-08-05
Vacant/Abandoned Building,11-03539692,08/05/2011,Front,,Open,REAR OF THE BUILDING,Vacant,False,False,7800,S,WOOD,ST,60620.0,1165704.80112547,1852963.01792843,17.0,6.0,71.0,41.752115261682796,-87.66833686948964,"(41.752115261682796, -87.66833686948962)",2011-08-05
Vacant/Abandoned Building,11-03539708,08/05/2011,Front,,Open,,Vacant,False,False,1332,S,MILLARD,AVE,60623.0,1152255.91012284,1893444.15762706,24.0,10.0,29.0,41.86347591224728,-87.71655696715969,"(41.86347591224728, -87.71655696715969)",2011-08-05
Vacant/Abandoned Building,11-03539724,08/05/2011,Front,,Open,ALL  AROUND,Vacant,False,False,1327,E,HYDE PARK,BLVD,60615.0,1185810.36011646,1871450.5055083,4.0,21.0,41.0,41.80239647100253,-87.59407713321447,"(41.802396471002524, -87.59407713321447)",2011-08-05
Vacant/Abandoned Building,11-03539741,08/05/2011,Front,,Open,REAR OF THE BUILDING,Vacant,False,False,7706,S,MAY,ST,60620.0,1169988.027584,1853700.63479285,17.0,6.0,71.0,41.75404746155171,-87.652619348576,"(41.754047461551714, -87.652619348576)",2011-08-05
Vacant/Abandoned Building,11-03540045,08/05/2011,Front,,Open,FRONT AND REAR OF THE BUILDING,Vacant,False,False,7222,S,WINCHESTER,AVE,60636.0,1164605.29750027,1856773.38489662,17.0,7.0,67.0,41.76259469811001,-87.67225877743219,"(41.76259469811001, -87.6722587774322)",2011-08-05
Vacant/Abandoned Building,11-03552234,08/08/2011,,,,,,,,11402,S,CHURCH,ST,60643.0,1166007.22189349,1829258.37498032,19.0,22.0,75.0,41.68705957710547,-87.66790005135478,"(41.687059577105465, -87.66790005135476)",2011-08-08
Vacant/Abandoned Building,11-03540211,08/05/2011,Front,,Open,"FRONT AND REAR -- USING THE PROPERTY TO FIGHT DOGS, AND DRUGS .. ETC..",Vacant,False,True,133,W,112TH,ST,60628.0,1177313.88261254,1830686.48542861,34.0,5.0,49.0,41.690731403241145,-87.6264651610507,"(41.690731403241145, -87.6264651610507)",2011-08-05
Vacant/Abandoned Building,11-03540234,08/05/2011,Front,,Open,REAR -- USING PROPERTY FOR DRUGS AND FIGHT DOGS..,Vacant,False,True,135,W,112TH,ST,60628.0,1177302.38261254,1830686.18542861,34.0,5.0,49.0,41.69073083895145,-87.62650727212879,"(41.69073083895145, -87.62650727212879)",2011-08-05
Vacant/Abandoned Building,11-03540597,08/05/2011,Rear,,Boarded,,Vacant,False,False,1533,S,KARLOV,AVE,60623.0,1149302.05592461,1892175.16780968,24.0,10.0,29.0,41.860051372383396,-87.72743332032482,"(41.8600513723834, -87.72743332032483)",2011-08-05
Vacant/Abandoned Building,11-03540673,08/05/2011,Front,,Open,,Vacant,False,False,5822,W,OHIO,ST,60644.0,1137500.61102453,1903389.29313047,29.0,15.0,25.0,41.891044821127245,-87.77048395368145,"(41.89104482112724, -87.77048395368145)",2011-08-05
Vacant/Abandoned Building,11-03540951,08/05/2011,Front,,Open,FRONT AND BACK,Vacant,False,True,317,N,LAMON,AVE,60644.0,1143651.84020064,1901669.04929406,28.0,15.0,25.0,41.88621132280735,-87.74793631489784,"(41.88621132280734, -87.74793631489784)",2011-08-05
Vacant/Abandoned Building,11-03541003,08/05/2011,Front,,Open,,Vacant,False,True,209,S,WHIPPLE,ST,60612.0,1156080.41240635,1898808.52758157,28.0,11.0,27.0,41.87812004348736,-87.70237267579068,"(41.87812004348735, -87.70237267579068)",2011-08-05
Vacant/Abandoned Building,11-03541025,08/05/2011,Front,,Open,FRONT,Vacant,False,True,211,S,WHIPPLE,ST,60612.0,1156080.61240635,1898802.42758157,28.0,11.0,27.0,41.878103300442355,-87.70237210609396,"(41.87810330044236, -87.70237210609396)",2011-08-05
Vacant/Abandoned Building,11-03541051,08/05/2011,Rear,,Open,,Vacant,False,True,555,E,89TH,PL,60619.0,1181511.13938974,1845758.69942051,6.0,6.0,44.0,41.731995946622696,-87.610635701318,"(41.731995946622696, -87.610635701318)",2011-08-05
Vacant/Abandoned Building,11-03541224,08/05/2011,Garage,,Open,GARAGE OVERHEAD DOOR IS OPEN,Vacant,False,False,7312,S,ALBANY,AVE,60629.0,1156971.81407882,1855973.25186828,18.0,8.0,66.0,41.76055658610309,-87.7002584581443,"(41.760556586103085, -87.70025845814429)",2011-08-05
Vacant/Abandoned Building,11-03541321,08/05/2011,Front,,Open,,Vacant,False,False,9027,S,COLFAX,AVE,60617.0,1195067.28000067,1845569.18000503,7.0,4.0,48.0,41.73115280969513,-87.56098105676679,"(41.73115280969513, -87.5609810567668)",2011-08-05
Vacant/Abandoned Building,11-03541852,08/05/2011,Front,,Open,FRONY DOOR,Vacant,False,False,9203,S,GREENWOOD,AVE,60619.0,1185154.77060683,1844180.80147264,8.0,4.0,47.0,41.72758129086419,-87.59733715569948,"(41.727581290864194, -87.59733715569949)",2011-08-05
Vacant/Abandoned Building,11-03541877,08/05/2011,Front,,Open,,Vacant,False,False,7220,S,RIDGELAND,AVE,60649.0,1189121.61251675,1857363.08997169,8.0,3.0,43.0,41.76366074002776,-87.58238476765345,"(41.76366074002776, -87.58238476765345)",2011-08-05
Vacant/Abandoned Building,11-03541903,08/05/2011,Front,,Open,,Vacant,False,False,7223,S,RIDGELAND,AVE,60649.0,1189122.51251675,1857329.78997169,8.0,3.0,43.0,41.76356934042031,-87.58238253453709,"(41.76356934042031, -87.58238253453709)",2011-08-05
Vacant/Abandoned Building,11-03541913,08/05/2011,Front,,Open,IN THE REAR,Vacant,False,False,8222,S,BRANDON,AVE,60617.0,1198910.8799725,1851062.88002358,7.0,4.0,46.0,41.74613242579582,-87.54671692138456,"(41.74613242579582, -87.54671692138457)",2011-08-05
Vacant/Abandoned Building,11-03541937,08/05/2011,Rear,,Open,,Vacant,False,True,2429,W,25TH,ST,60608.0,1160440.98583431,1887342.94822663,25.0,10.0,31.0,41.846568273235675,-87.6866787328666,"(41.84656827323568, -87.6866787328666)",2011-08-05
Vacant/Abandoned Building,11-03542019,08/05/2011,Front,,Open,MISSING WINDOWS UNSECURED DOORS,Vacant,False,,5153,S,CHRISTIANA,AVE,60632.0,1154914.2999272,1870256.34600086,14.0,8.0,63.0,41.799792839415325,-87.70741836193727,"(41.79979283941533, -87.70741836193727)",2011-08-05
Vacant/Abandoned Building,11-03542121,08/05/2011,Front,,Boarded,"FRONT WINDOW, ROOF, BASEMENT",Vacant,False,True,638,S,ST LOUIS,AVE,60624.0,1153142.72999159,1897012.81997909,24.0,11.0,27.0,41.87325118658066,-87.71320685759164,"(41.87325118658066, -87.71320685759166)",2011-08-05
Vacant/Abandoned Building,11-03542170,08/05/2011,Front,,Open,,Occupied,False,True,2930,N,WISNER,AVE,60618.0,1152819.73288326,1919136.48398758,35.0,14.0,21.0,41.933966996695354,-87.71380612786287,"(41.93396699669535, -87.71380612786288)",2011-08-05
Vacant/Abandoned Building,11-03542304,08/05/2011,Front,,Open,,Vacant,False,True,824,N,LEAMINGTON,AVE,60651.0,1141872.32018778,1905001.8816141998,37.0,15.0,25.0,41.89539014177568,-87.75438862989455,"(41.89539014177568, -87.75438862989454)",2011-08-05
Vacant/Abandoned Building,11-03542321,08/05/2011,Front,,Open,FRONT AND REAR,Vacant,False,True,5029,W,WRIGHTWOOD,AVE,60639.0,1142420.25591351,1916829.36608773,31.0,25.0,19.0,41.92783588831738,-87.75208178624635,"(41.92783588831738, -87.75208178624636)",2011-08-05
Vacant/Abandoned Building,11-03542362,08/05/2011,Front,,Open,FR,Vacant,False,False,4541,W,ALTGELD,ST,60639.0,1145695.95001261,1916296.26489166,31.0,25.0,20.0,41.92631144221706,-87.74005828144672,"(41.92631144221706, -87.74005828144672)",2011-08-05
Vacant/Abandoned Building,11-03542374,08/05/2011,Front,,Open,BACK,Vacant,True,True,4934,W,WEST END,AVE,60644.0,1143343.10012448,1900527.03021149,28.0,15.0,25.0,41.88308325852104,-87.74909864512743,"(41.88308325852104, -87.74909864512743)",2011-08-05
Vacant/Abandoned Building,11-03542383,08/05/2011,,,Open,FRONT,Vacant,,,5055,W,MONTANA,ST,60639.0,1142279.80603131,1915833.29088287,31.0,25.0,19.0,41.92510516749209,-87.75262268117662,"(41.92510516749209, -87.75262268117662)",2011-08-05
Vacant/Abandoned Building,11-03542439,08/05/2011,Front,,Open,,Vacant,False,False,2216,W,18TH,PL,60608.0,1161781.60002863,1891042.12001452,25.0,12.0,31.0,41.856691370689845,-87.68165570072122,"(41.85669137068984, -87.68165570072124)",2011-08-05
Vacant/Abandoned Building,11-03542586,08/05/2011,,,Open,FRONT AND REAR,Vacant,,True,2112,N,KILBOURN,AVE,60639.0,1146044.13097988,1913659.35790263,31.0,25.0,20.0,41.91906889490754,-87.73884603973299,"(41.91906889490754, -87.73884603973298)",2011-08-05
Vacant/Abandoned Building,11-03542590,08/05/2011,,,Open,FRONT AND REAR,Vacant,,True,2114,N,KILBOURN,AVE,60639.0,1146043.73097988,1913672.85790263,31.0,25.0,20.0,41.919105947854575,-87.73884716555563,"(41.919105947854575, -87.73884716555563)",2011-08-05
Vacant/Abandoned Building,11-03542602,08/05/2011,Front,,Open,REAR AND FRONT,Vacant,False,True,4624,W,SCHUBERT,AVE,60639.0,1144949.1479,1917475.9598,31.0,25.0,19.0,41.92956278542079,-87.742772602182,"(41.929562785420785, -87.74277260218201)",2011-08-05
Vacant/Abandoned Building,11-03542612,08/05/2011,Front,,Open,,Vacant,,,4919,W,BARRY,AVE,60641.0,1143035.58569367,1920160.58451926,31.0,25.0,19.0,41.936965609970244,-87.74973733295342,"(41.93696560997024, -87.74973733295342)",2011-08-05
Vacant/Abandoned Building,11-03542686,08/05/2011,Front,,Boarded,"CALLER IS REQUESTING ""FAST TRACK"" STATUS FOR THIS PROPERTY - TOTAL EYESOAR",Vacant,False,False,6751,S,HONORE,ST,60636.0,1165180.33250315,1859907.36789359,15.0,7.0,67.0,41.77118262701216,-87.67006260277823,"(41.77118262701216, -87.67006260277823)",2011-08-05
Vacant/Abandoned Building,11-03542762,08/05/2011,Front,,Open,BACK,Vacant,False,True,3611,W,MADISON,ST,60624.0,1152265.94627774,1899775.27510943,28.0,11.0,27.0,41.88084899875943,-87.71635307082977,"(41.880848998759426, -87.71635307082977)",2011-08-05
Vacant/Abandoned Building,11-03542985,08/05/2011,Front,,Open,FRONT,Vacant,False,True,830,E,89TH,PL,60619.0,1183333.54467783,1845812.19283321,8.0,6.0,44.0,41.7321005544165,-87.60395788718958,"(41.7321005544165, -87.60395788718958)",2011-08-05
Vacant/Abandoned Building,11-03543081,08/05/2011,Front,,Boarded,REAR,Vacant,False,True,4728,W,RACE,AVE,60644.0,1144743.76002085,1903240.54997075,28.0,11.0,25.0,41.890503193208055,-87.74388684418993,"(41.890503193208055, -87.74388684418992)",2011-08-05
Vacant/Abandoned Building,11-03543094,08/05/2011,Front,,Boarded,REAR,Vacant,False,True,5529,S,LA SALLE,ST,60621.0,1176236.25012045,1868225.91746557,3.0,2.0,68.0,41.79376848221197,-87.62928601519494,"(41.79376848221198, -87.62928601519494)",2011-08-05
Vacant/Abandoned Building,11-03543208,08/05/2011,Front,,Open,SIDE,Vacant,False,True,7718,S,CHAPPEL,AVE,60649.0,1191209.38099787,1854198.76128232,8.0,4.0,43.0,41.75492728982256,-87.57483504049108,"(41.754927289822554, -87.57483504049108)",2011-08-05
Vacant/Abandoned Building,11-03543235,08/05/2011,Rear,,Open,SIDE AND REAR AND UPSTAIRS WINDOWS,Vacant,False,True,7150,S,WOLCOTT,AVE,60636.0,1164914.47451347,1857591.69927963,17.0,7.0,67.0,41.76483373982717,-87.67110250196636,"(41.76483373982717, -87.67110250196636)",2011-08-05
Vacant/Abandoned Building,11-03543291,08/05/2011,Front,,Boarded,FRONT,Vacant,True,True,8626,S,LAFLIN,ST,60620.0,1167839.6428666,1847533.13581843,21.0,6.0,71.0,41.73716935233235,-87.6606691537326,"(41.73716935233235, -87.66066915373261)",2011-08-05
Vacant/Abandoned Building,11-03543737,08/06/2011,Front,,Boarded,FRONT DOOR IS OPEN,Vacant,False,False,1050,N,SPRINGFIELD,AVE,60651.0,1150202.94369909,1906391.12802041,27.0,11.0,23.0,41.899044045303995,-87.72375573645111,"(41.899044045303995, -87.72375573645111)",2011-08-06
Vacant/Abandoned Building,11-03543763,08/06/2011,Front,,Open,,Vacant,False,False,4610,S,WABASH,AVE,60653.0,1177488.86700898,1874475.04241304,3.0,2.0,38.0,41.810888418210865,-87.62450381301319,"(41.81088841821087, -87.62450381301318)",2011-08-06
Vacant/Abandoned Building,11-03544076,08/06/2011,Front,,Open,FRONT DOOR,Vacant,False,False,11038,S,WALLACE,ST,60628.0,1174273.39410141,1831683.77672307,34.0,22.0,49.0,41.69353605138803,-87.63756706670294,"(41.69353605138803, -87.63756706670294)",2011-08-06
Vacant/Abandoned Building,11-03544199,08/06/2011,Front,,Boarded,,Vacant,False,False,7823,S,ADA,ST,60620.0,1168798.5132342,1852889.6509834,17.0,6.0,71.0,41.75184775634652,-87.6570018861528,"(41.75184775634652, -87.6570018861528)",2011-08-06
Vacant/Abandoned Building,11-03544207,08/06/2011,Front,,Open,DOORS AND WINDOWS,Vacant,False,True,1145,N,AVERS,AVE,60651.0,1150506.70670121,1907363.86582197,27.0,11.0,23.0,41.9017074069264,-87.72261458228179,"(41.9017074069264, -87.72261458228179)",2011-08-06
Vacant/Abandoned Building,11-03544289,08/06/2011,Front,,Open,,Vacant,False,True,7200,S,DR MARTIN LUTHER KING JR,DR,60619.0,1180154.78681588,1857368.0496018997,6.0,3.0,69.0,41.76388446355349,-87.61524960607844,"(41.763884463553495, -87.61524960607844)",2011-08-06
Vacant/Abandoned Building,11-03544336,08/06/2011,Front,,Open,FRONT DOOR,Vacant,False,True,6417,S,ABERDEEN,ST,60621.0,1170084.85279061,1862253.09761347,16.0,7.0,68.0,41.77751439680031,-87.65201625837389,"(41.777514396800306, -87.65201625837389)",2011-08-06
Vacant/Abandoned Building,11-03544338,08/06/2011,Front,,Open,FRONT,Vacant,True,False,5724,S,HOYNE,AVE,60636.0,1163339.48839756,1866678.20569409,15.0,7.0,67.0,41.7898014654301,-87.67662095651418,"(41.7898014654301, -87.67662095651418)",2011-08-06
Vacant/Abandoned Building,11-03544355,08/06/2011,Front,,Boarded,,Vacant,False,True,7316,S,UNIVERSITY,AVE,60619.0,1185148.06578358,1856733.44960145,5.0,3.0,69.0,41.76202721641301,-87.59696822628548,"(41.76202721641301, -87.59696822628547)",2011-08-06
Vacant/Abandoned Building,11-03544400,08/06/2011,Front,,Open,,Vacant,False,True,6859,S,CALUMET,AVE,60637.0,1179662.5443055,1859608.22307116,20.0,3.0,69.0,41.77004299736217,-87.61698538929907,"(41.770042997362175, -87.61698538929906)",2011-08-06
Vacant/Abandoned Building,11-03544450,08/06/2011,Rear,,Open,,Vacant,False,False,2322,S,KOSTNER,AVE,60623.0,1147423.3405153,1888178.04160539,22.0,10.0,29.0,41.8491189223816,-87.7344319877266,"(41.8491189223816, -87.7344319877266)",2011-08-06
Vacant/Abandoned Building,11-03544468,08/06/2011,Front,,Open,ALL THE WAY AROUND,Vacant,False,False,723,W,48TH,ST,60609.0,1172286.69213145,1873043.07220587,11.0,9.0,61.0,41.807075107087186,-87.64362698031256,"(41.807075107087186, -87.64362698031256)",2011-08-06
Vacant/Abandoned Building,11-03544777,08/06/2011,Front,,Open,DOORS AND WINDOWS,Vacant,False,False,218,N,LOCKWOOD,AVE,60644.0,1141005.59412309,1901077.88039966,28.0,15.0,25.0,41.884638207389024,-87.75766863567223,"(41.88463820738902, -87.75766863567223)",2011-08-06
Vacant/Abandoned Building,11-03544810,08/06/2011,Front,,Open,SIDE,Vacant,False,True,6715,S,INDIANA,AVE,60637.0,1178754.15899463,1860534.50301719,20.0,3.0,69.0,41.77260552023506,-87.6202869706802,"(41.77260552023506, -87.62028697068021)",2011-08-06
Vacant/Abandoned Building,11-03544921,08/06/2011,Front,,Open,NOT BOARDED UP,Vacant,False,True,4753,S,LANGLEY,AVE,60615.0,1181732.62520882,1873649.11661499,4.0,2.0,38.0,41.808524905982615,-87.60896378411171,"(41.808524905982615, -87.6089637841117)",2011-08-06
Vacant/Abandoned Building,11-03544941,08/06/2011,Front,,Open,"7121-23 S HARVARD, FRONT/REAR DOORS WIDE OPEN, WINDOWS BROKEN - BASEMENT RIGHT OFF OF ALLEY",Vacant,False,True,7121,S,HARVARD,AVE,60621.0,1175190.9700321,1857729.69018272,6.0,7.0,69.0,41.76498911911799,-87.63343223233227,"(41.76498911911799, -87.63343223233227)",2011-08-06
Vacant/Abandoned Building,11-03545092,08/06/2011,Front,,Boarded,REAR BASEMENT DOOR,Vacant,False,True,8028,S,ESCANABA,AVE,60617.0,1196893.60942378,1852295.03738693,7.0,4.0,46.0,41.74956392493874,-87.55406757961889,"(41.74956392493874, -87.55406757961889)",2011-08-06
Vacant/Abandoned Building,11-03545143,08/06/2011,Front,,Open,?,Vacant,False,False,10000,S,CALUMET,AVE,60628.0,1180346.8599861,1838734.58010346,9.0,5.0,49.0,41.712747630146524,-87.61511558125031,"(41.71274763014652, -87.6151155812503)",2011-08-06
Vacant/Abandoned Building,11-03545385,08/06/2011,Rear,,Boarded,PRIVACY FENCE/FRONT GATE HAS BEEN REMOVED AND ONE OF THE WOODEN BOARDS FROM THE PRIVACY FENCE HAS BEEN REMOVED,Vacant,False,True,10600,S,STATE,ST,60628.0,1178128.71747015,1834654.92861951,34.0,5.0,49.0,41.70160299098701,-87.62336225379839,"(41.701602990987006, -87.62336225379839)",2011-08-06
Vacant/Abandoned Building,11-03545756,08/07/2011,Front,,Open,REAR SIDE DOOR,Vacant,True,True,29,W,110TH,PL,60628.0,1178027.32997064,1831696.82000226,34.0,5.0,49.0,41.69348781250992,-87.62382272895388,"(41.693487812509915, -87.62382272895388)",2011-08-07
Vacant/Abandoned Building,11-03545803,08/07/2011,Front,,Open,,Vacant,False,True,9240,S,CLYDE,AVE,60617.0,1191787.65120606,1844111.94131193,8.0,4.0,48.0,41.72723413552988,-87.57304246274407,"(41.72723413552988, -87.57304246274406)",2011-08-07
Vacant/Abandoned Building,11-03545892,08/07/2011,Front,,Open,,Vacant,False,False,8319,S,COLFAX,AVE,60617.0,1194949.92483165,1850314.35820045,7.0,4.0,46.0,41.74417686850689,-87.56125501420681,"(41.74417686850689, -87.56125501420681)",2011-08-07
Vacant/Abandoned Building,11-03545912,08/07/2011,Front,,Open,FRONT DOOR,Vacant,True,False,4609,W,ERIE,ST,60644.0,1145414.41603065,1903915.10989415,28.0,11.0,25.0,41.89234159358312,-87.74140675813267,"(41.89234159358312, -87.74140675813267)",2011-08-07
Vacant/Abandoned Building,11-03546062,08/07/2011,Rear,,Open,2ND FLOOR WINDOW,Vacant,False,False,1618,N,MARSHFIELD,AVE,60622.0,1165097.78002997,1910838.58498651,1.0,14.0,24.0,41.91094472952406,-87.66892097240324,"(41.91094472952406, -87.66892097240324)",2011-08-07
Vacant/Abandoned Building,11-03546083,08/07/2011,Front,,Open,REAR,Vacant,False,True,1645,S,HOMAN,AVE,60623.0,1153976.1455944,1891357.74991197,24.0,10.0,29.0,41.85771648758337,-87.7102976482704,"(41.85771648758337, -87.7102976482704)",2011-08-07
Vacant/Abandoned Building,11-03546529,08/07/2011,Front,,Open,UNK,Vacant,False,False,1107,E,103RD ST,ER,60628.0,1185341.1637807,1839056.63487308,8.0,5.0,50.0,41.71351561271889,-87.5968149610656,"(41.7135156127189, -87.59681496106559)",2011-08-07
Vacant/Abandoned Building,11-03546962,08/07/2011,Front,,Open,REAR,Vacant,False,True,3916,W,FILLMORE,ST,60624.0,1150437.90151751,1895085.37818195,24.0,11.0,29.0,41.868015260158145,-87.72318797770548,"(41.86801526015815, -87.72318797770549)",2011-08-07
Vacant/Abandoned Building,11-03547009,08/07/2011,Front,,Boarded,,Vacant,False,False,6213,N,OZANAM,AVE,60631.0,1123535.68988398,1940548.47519599,41.0,16.0,10.0,41.993254228748796,-87.82095565461559,"(41.993254228748796, -87.8209556546156)",2011-08-07
Vacant/Abandoned Building,11-03547081,08/07/2011,Front,,Boarded,SIDE AND REAR,Vacant,False,True,9600,S,EWING,AVE,60617.0,1202113.99211693,1842061.32000348,10.0,4.0,52.0,41.721350570688784,-87.5352861615076,"(41.721350570688784, -87.53528616150761)",2011-08-07
Vacant/Abandoned Building,11-03547122,08/07/2011,Front,,Open,REAR AND SIDE -- OVERGROWN YARDS AND DEAD ANIMAL IN BACK YARD - INFESTED WITH RODANTS,Vacant,False,True,10631,S,MICHIGAN,AVE,60628.0,1178816.90412187,1834462.22298261,9.0,5.0,49.0,41.701058584117824,-87.62084818454697,"(41.701058584117824, -87.62084818454697)",2011-08-07
Vacant/Abandoned Building,11-03547520,08/07/2011,Front,,Open,,Vacant,False,True,2442,W,63RD,ST,60629.0,1161070.86527829,1862811.51449598,15.0,8.0,66.0,41.77923799186161,-87.6850462679806,"(41.77923799186161, -87.6850462679806)",2011-08-07
Vacant/Abandoned Building,11-03548741,08/08/2011,Rear,,Open,GARAGE,Vacant,False,True,1828,N,KEELER,AVE,60639.0,1148099.02551532,1911836.26301284,30.0,25.0,20.0,41.91402680936436,-87.73134306737465,"(41.91402680936436, -87.73134306737465)",2011-08-08
Vacant/Abandoned Building,11-03548804,08/08/2011,Front,,Open,WINDOWS,Vacant,False,False,1938,S,CHRISTIANA,AVE,60623.0,1154339.95490537,1890256.00877278,24.0,10.0,29.0,41.85468593225498,-87.70899164867598,"(41.85468593225498, -87.70899164867599)",2011-08-08
Vacant/Abandoned Building,11-03548813,08/08/2011,Front,,Open,DOORS AND WINDOWS,Vacant,False,False,1933,S,CHRISTIANA,AVE,60623.0,1154338.95490537,1890289.60877278,24.0,10.0,29.0,41.854778154462906,-87.7089944223992,"(41.85477815446291, -87.70899442239919)",2011-08-08
Vacant/Abandoned Building,11-03549255,08/08/2011,Rear,,Open,2ND FLOOR,Vacant,False,True,2009,W,70TH,ST,60636.0,1164173.12811171,1858237.33622161,17.0,7.0,67.0,41.766621087200704,-87.67380160952787,"(41.766621087200704, -87.67380160952787)",2011-08-08
Vacant/Abandoned Building,11-03550215,08/08/2011,Front,,Open,BACK,Vacant,False,True,416,N,LECLAIRE,AVE,60644.0,1142294.65992273,1902341.9746723,28.0,15.0,25.0,41.888083209470736,-87.75290354353727,"(41.888083209470736, -87.75290354353727)",2011-08-08
Vacant/Abandoned Building,11-03550373,08/08/2011,Garage,,Open,OPEN GARAGE,Vacant,False,False,8831,S,ESCANABA,AVE,60617.0,1196921.67929358,1846969.95830187,10.0,4.0,46.0,41.73495079724543,-87.55414140775856,"(41.734950797245425, -87.55414140775856)",2011-08-08
Vacant/Abandoned Building,11-03550498,08/08/2011,Front,,Open,FRONT/REAR.,Vacant,False,False,440,N,MONTICELLO,AVE,60624.0,1151961.88317434,1902750.19008665,27.0,11.0,23.0,41.88901846972437,-87.7173911694281,"(41.88901846972437, -87.71739116942811)",2011-08-08
Vacant/Abandoned Building,11-03550530,08/08/2011,Front,,Open,FRONT/REAR.,Vacant,False,False,438,N,MONTICELLO,AVE,60624.0,1151962.08317434,1902738.79008665,27.0,11.0,23.0,41.88898718301447,-87.71739073545969,"(41.88898718301447, -87.71739073545969)",2011-08-08
Vacant/Abandoned Building,11-03550563,08/08/2011,Front,,Open,,Vacant,False,False,434,N,MONTICELLO,AVE,60624.0,1151962.48317434,1902716.09008665,27.0,11.0,23.0,41.88892488400444,-87.71738986488745,"(41.88892488400444, -87.71738986488745)",2011-08-08
Vacant/Abandoned Building,11-03550675,08/08/2011,Front,,Open,FRONT DOOR,Vacant,False,False,8915,S,MAY,ST,60620.0,1170215.62573148,1845602.60823427,21.0,22.0,73.0,41.73182042177886,-87.65202023831833,"(41.73182042177887, -87.65202023831833)",2011-08-08
Vacant/Abandoned Building,11-03550728,08/08/2011,Front,,Boarded,,Vacant,False,False,5120,S,HONORE,ST,60609.0,1164882.00992284,1870734.03280357,16.0,9.0,61.0,41.800898680673434,-87.6708503619329,"(41.80089868067344, -87.6708503619329)",2011-08-08
Vacant/Abandoned Building,11-03550739,08/08/2011,Front,,Open,OPEN,Vacant,False,True,4321,S,HONORE,ST,60609.0,1164739.72003128,1876029.92128701,12.0,9.0,61.0,41.81543422516492,-87.67122256175115,"(41.81543422516492, -87.67122256175116)",2011-08-08
Vacant/Abandoned Building,11-03550836,08/08/2011,Front,,Boarded,REAR PORCH @ (2),Vacant,False,False,4216,S,WELLS,ST,60609.0,1175316.48931242,1876990.34759202,3.0,9.0,37.0,41.8178395383396,-87.63239659246338,"(41.8178395383396, -87.63239659246337)",2011-08-08
Vacant/Abandoned Building,11-03550858,08/08/2011,,,,,,,,7438,S,YATES,BLVD,60649.0,1193494.92758323,1856106.31732275,7.0,3.0,43.0,41.76010617289803,-87.56639699723866,"(41.76010617289802, -87.56639699723866)",2011-08-08
Vacant/Abandoned Building,11-03550897,08/08/2011,,,,,,,,6935,S,PEORIA,ST,60621.0,1171502.47480889,1858855.12286876,17.0,7.0,68.0,41.76815900854013,-87.64691868274593,"(41.768159008540124, -87.64691868274593)",2011-08-08
Vacant/Abandoned Building,11-03550899,08/08/2011,,,,,,,,10529,S,BENSLEY,AVE,60617.0,1194537.22802026,1835687.60666715,10.0,4.0,51.0,41.70404986685827,-87.56324658061844,"(41.70404986685827, -87.56324658061843)",2011-08-08
Vacant/Abandoned Building,11-03550903,08/08/2011,,,,,,,,2835,W,CONGRESS,PKWY,60612.0,1157554.66522444,1897642.64258097,2.0,11.0,27.0,41.874890872526066,-87.69699128415044,"(41.874890872526066, -87.69699128415046)",2011-08-08
Vacant/Abandoned Building,11-03550905,08/08/2011,,,,,,,,11942,S,PERRY,AVE,60628.0,1177732.48379596,1825767.53431708,9.0,5.0,53.0,41.677223628564505,-87.62508068949829,"(41.677223628564505, -87.62508068949829)",2011-08-08
Vacant/Abandoned Building,11-03550947,08/08/2011,,,,,,,,8945,S,ASHLAND,AVE,60620.0,1167239.07096828,1845364.36048428,21.0,22.0,73.0,41.731230773016655,-87.66293136829832,"(41.73123077301666, -87.66293136829832)",2011-08-08
Vacant/Abandoned Building,11-03550954,08/08/2011,,,,,,,,1438,S,HAMLIN,AVE,60623.0,1151279.89010212,1892750.76700673,24.0,10.0,29.0,41.86159235315795,-87.72015807271202,"(41.86159235315795, -87.72015807271202)",2011-08-08
Vacant/Abandoned Building,11-03551033,08/08/2011,,,,,,,,56,W,114TH,PL,60628.0,1177880.0113178,1829043.66997518,34.0,5.0,49.0,41.68621050878971,-87.62444203008629,"(41.68621050878971, -87.62444203008629)",2011-08-08
Vacant/Abandoned Building,11-03551036,08/08/2011,,,,,,,,12604,S,YALE,AVE,60628.0,1176903.87749913,1821368.57203257,9.0,5.0,53.0,41.66517083292901,-87.62824536928522,"(41.66517083292901, -87.62824536928522)",2011-08-08
Vacant/Abandoned Building,11-03551112,08/08/2011,,,,,,,,10305,S,GREEN BAY,AVE,60617.0,1200505.91000181,1837218.15259254,10.0,4.0,52.0,41.708101276160605,-87.54133928231589,"(41.708101276160605, -87.54133928231587)",2011-08-08
Vacant/Abandoned Building,11-03551156,08/08/2011,,,,,,,,2643,N,FAIRFIELD,AVE,60647.0,1157581.65158056,1917507.27996968,35.0,14.0,22.0,41.929400586262865,-87.69635064470823,"(41.929400586262865, -87.69635064470823)",2011-08-08
Vacant/Abandoned Building,11-03551157,08/08/2011,,,,,,,,6114,N,ROCKWELL,ST,60659.0,1157887.85762957,1940498.81129161,50.0,24.0,2.0,41.992484396115906,-87.69459564082622,"(41.99248439611591, -87.69459564082622)",2011-08-08
Vacant/Abandoned Building,11-03551158,08/08/2011,,,,,,,,2954,N,MOBILE,AVE,60634.0,1133897.16990406,1918968.94399724,29.0,25.0,19.0,41.933861410896064,-87.78335096014642,"(41.93386141089606, -87.78335096014642)",2011-08-08
Vacant/Abandoned Building,11-03551204,08/08/2011,Front,,Open,FRONT AND BACK,Vacant,False,True,3026,W,LEXINGTON,ST,60612.0,1156308.21042954,1896547.17106709,28.0,11.0,27.0,41.87191005405927,-87.7015973642111,"(41.87191005405927, -87.7015973642111)",2011-08-08
Vacant/Abandoned Building,11-03551458,08/08/2011,,,,,,,,7210,S,LOWE,AVE,60621.0,1173393.43667738,1857087.92889399,17.0,7.0,68.0,41.7632679966812,-87.6400396482926,"(41.7632679966812, -87.64003964829259)",2011-08-08
Vacant/Abandoned Building,11-03551493,08/08/2011,,,,,,,,1125,W,59TH,ST,60621.0,1169724.44001144,1865672.38517739,16.0,7.0,68.0,41.786905157164284,-87.65323838807213,"(41.78690515716429, -87.65323838807213)",2011-08-08
Vacant/Abandoned Building,11-03551754,08/08/2011,Front,,Open,FRONT AND REAR.. KIDS GOING IN AND OUT OF IT.. AND SOMETIMES ADULT MALES..,Vacant,False,True,6957,S,BISHOP,ST,60636.0,1167867.84188039,1858606.6229972001,17.0,7.0,67.0,41.76755591787257,-87.66024845299349,"(41.76755591787257, -87.66024845299349)",2011-08-08
Vacant/Abandoned Building,11-03551849,08/08/2011,Front,,Open,ALL AROUND INC. GARAGE,Vacant,False,True,8001,S,TROY,ST,60652.0,1156769.54643054,1851388.74022122,18.0,8.0,70.0,41.747980040916524,-87.70112325452841,"(41.74798004091652, -87.70112325452841)",2011-08-08
Vacant/Abandoned Building,11-03552081,08/08/2011,Front,,Open,,Vacant,False,True,4826,W,SUPERIOR,ST,60644.0,1144045.62191152,1904527.66161275,28.0,15.0,25.0,41.89404830826144,-87.74641843714775,"(41.89404830826144, -87.74641843714775)",2011-08-08
Vacant/Abandoned Building,11-03552203,08/08/2011,Rear,,Open,"FRONT, BACK, AND SIDES",Vacant,False,False,4144,W,21ST,ST,60623.0,1149075.81228375,1889767.41080956,24.0,10.0,29.0,41.853448567628476,-87.72832608435806,"(41.853448567628476, -87.72832608435807)",2011-08-08
Vacant/Abandoned Building,11-03552342,08/08/2011,Front,,Open,,Vacant,False,True,65,W,112TH,ST,60628.0,1177761.38261254,1830697.58542861,34.0,5.0,49.0,41.690751774580896,-87.6248265077148,"(41.690751774580896, -87.62482650771481)",2011-08-08
Vacant/Abandoned Building,11-03552429,08/08/2011,Front,,Open,BUSHES ARE OVERGROWN... HI WEEDS.. NO MAINTANCE TO PROPERTY .. FRONT YARD IS TERRIBLE.. CREATING A RODENT PROBLEM,Vacant,False,False,11181,S,HERMOSA,AVE,60643.0,1166097.89067381,1830466.2584023997,19.0,22.0,75.0,41.69037229447827,-87.66753394811951,"(41.69037229447827, -87.6675339481195)",2011-08-08
Vacant/Abandoned Building,11-03552824,08/08/2011,,,Open,"FRONT AND BACK DOOR, WINDOWS AND GARAGE",Vacant,,True,4953,W,POTOMAC,AVE,60651.0,1143106.88588708,1908195.07041449,37.0,25.0,25.0,41.90412966579383,-87.74977453786116,"(41.90412966579383, -87.74977453786116)",2011-08-08
Vacant/Abandoned Building,11-03553124,08/08/2011,Rear,,Open,REAR DOORS & WINDOWS,Vacant,False,True,8638,S,WOOD,ST,60620.0,1165853.07911445,1847400.2876658002,18.0,6.0,71.0,41.73684717494371,-87.66795112130319,"(41.73684717494371, -87.66795112130318)",2011-08-08
Vacant/Abandoned Building,11-03553883,08/08/2011,Front,,Open,,Vacant,False,True,6642,S,ST LAWRENCE,AVE,60637.0,1181376.75041067,1861102.19749562,20.0,3.0,42.0,41.774103259992046,-87.6106558753434,"(41.774103259992046, -87.61065587534341)",2011-08-08
Vacant/Abandoned Building,11-03554151,08/08/2011,Front,,Open,THE ENTRY POINT IS IN THE REAR AND THE FRONT OF THE BUILDING.,Vacant,False,True,6717,S,LAFLIN,ST,60636.0,1167492.10412353,1860192.32973096,17.0,7.0,67.0,41.77191536333511,-87.6615803010053,"(41.77191536333511, -87.66158030100529)",2011-08-08
Vacant/Abandoned Building,11-03554262,08/08/2011,Front,,Open,THE ENTRY POINT IS IN THE REAR AND THE FRONT OF THE BUILDING.,Vacant,False,False,6510,S,BISHOP,ST,60636.0,1167784.78190401,1861573.81399205,17.0,7.0,67.0,41.77570005370063,-87.66046781443735,"(41.77570005370063, -87.66046781443735)",2011-08-08
Vacant/Abandoned Building,11-03554328,08/08/2011,Front,,Open,UNSECURED DOORS AND WINDOWS,Vacant,False,,4444,S,KEDVALE,AVE,60632.0,1149425.60340586,1874848.88426751,14.0,8.0,57.0,41.812503353010705,-87.72742843702666,"(41.8125033530107, -87.72742843702666)",2011-08-08
Vacant/Abandoned Building,11-03554359,08/08/2011,Front,,Open,,Vacant,False,False,9344,S,CALUMET,AVE,60619.0,1180225.76653206,1843093.73811423,6.0,6.0,49.0,41.72471248585933,-87.61542593684145,"(41.72471248585933, -87.61542593684146)",2011-08-08
Vacant/Abandoned Building,11-03554586,08/08/2011,Front,,Open,THE ENTRY POINT IS IN THE FRONT OF THE BUILDING.,Vacant,False,False,7654,S,BISHOP,ST,60620.0,1167886.71123404,1853983.02291884,17.0,6.0,71.0,41.754867738741396,-87.6603118828507,"(41.7548677387414, -87.6603118828507)",2011-08-08
Vacant/Abandoned Building,11-03554587,08/08/2011,Front,,Open,"FRONT, BROKEN WINDOWS,",Vacant,False,True,7021,S,HARPER,AVE,60637.0,1187596.77388799,1858747.84799528,5.0,3.0,43.0,41.76749703181043,-87.58792956056604,"(41.76749703181043, -87.58792956056604)",2011-08-08
Vacant/Abandoned Building,11-03555010,08/08/2011,,,Open,SIDE ENTRANCE TO PROPERTY AND WINDOWS,Vacant,False,True,2204,N,KENNETH,AVE,60639.0,1146359.35566594,1914279.82889923,31.0,25.0,20.0,41.920765526062276,-87.73767202158669,"(41.92076552606227, -87.73767202158668)",2011-08-08
Vacant/Abandoned Building,11-03555064,08/08/2011,Front,,Open,FRONT AND REAR,Vacant,False,True,6221,S,DR MARTIN LUTHER KING JR,DR,60637.0,1179988.36047658,1863853.29999583,20.0,3.0,42.0,41.78168446055733,-87.61566123732784,"(41.78168446055733, -87.61566123732784)",2011-08-08
Vacant/Abandoned Building,11-03555312,08/08/2011,Front,,Boarded,BOARDS ARE OPEN WINDOWS ARE INTACT,Vacant,False,False,12332,S,LAFAYETTE,AVE,60628.0,1178150.73198611,1823187.7413936001,9.0,5.0,53.0,41.6701348355689,-87.62362755570818,"(41.67013483556891, -87.62362755570817)",2011-08-08
Vacant/Abandoned Building,11-03555362,08/08/2011,Rear,,Open,FRONT OF BUILDING,Vacant,False,False,5915,S,MAPLEWOOD,AVE,60629.0,1160384.93177211,1865353.59350644,16.0,8.0,66.0,41.786227969980175,-87.68749098625996,"(41.786227969980175, -87.68749098625996)",2011-08-08
Vacant/Abandoned Building,11-03555551,08/08/2011,Front,,Open,?,Vacant,False,False,1026,N,WINCHESTER,AVE,60622.0,1163216.2060303001,1906853.65883423,1.0,13.0,24.0,41.90004959022478,-87.67594538955362,"(41.90004959022478, -87.67594538955362)",2011-08-08
Vacant/Abandoned Building,11-03555904,08/08/2011,Front,,Boarded,,Vacant,False,True,1740,W,POTOMAC,AVE,60622.0,1164463.99999159,1908613.32000693,1.0,14.0,24.0,41.904851897315545,-87.67131234448101,"(41.904851897315545, -87.67131234448102)",2011-08-08
Vacant/Abandoned Building,11-03556193,08/09/2011,Front,,Open,,Vacant,False,False,6136,S,JUSTINE,ST,60636.0,1167056.41048079,1864033.824429,15.0,7.0,67.0,41.782466240159074,-87.66306766270539,"(41.78246624015908, -87.66306766270539)",2011-08-09
Vacant/Abandoned Building,11-03556258,08/09/2011,Front,,Open,FRONT,Vacant,False,False,9103,S,BLACKSTONE,AVE,60619.0,1187704.24701197,1844907.12890318,8.0,4.0,48.0,41.729514212106686,-87.5879751005719,"(41.72951421210669, -87.5879751005719)",2011-08-09
Vacant/Abandoned Building,11-03556532,08/09/2011,Front,,Open,,Vacant,False,False,2803,E,82ND,ST,60617.0,1196288.6700306002,1851141.10827345,7.0,4.0,46.0,41.74641246862039,-87.55632246220354,"(41.746412468620385, -87.55632246220354)",2011-08-09
Vacant/Abandoned Building,11-03556547,08/09/2011,Front,,Open,,Vacant,False,False,7916,S,MUSKEGON,AVE,60617.0,1196546.42007878,1853028.53716963,7.0,4.0,46.0,41.75158532457764,-87.55531549142195,"(41.75158532457764, -87.55531549142196)",2011-08-09
Vacant/Abandoned Building,11-03556596,08/09/2011,Front,,Open,,Vacant,False,False,7931,S,MARQUETTE,AVE,60617.0,1195555.96003108,1852901.15000918,7.0,4.0,46.0,41.751260284629815,-87.55894918230693,"(41.751260284629815, -87.55894918230693)",2011-08-09
Vacant/Abandoned Building,11-03557139,08/09/2011,Front,,Open,DOORS,Vacant,False,True,8616,S,ABERDEEN,ST,60620.0,1170490.16171312,1847672.88762164,21.0,6.0,71.0,41.73749559159389,-87.65095437131428,"(41.737495591593884, -87.65095437131428)",2011-08-09
Vacant/Abandoned Building,11-03557153,08/09/2011,Front,,Open,FRONT,Vacant,False,True,509,E,79TH,ST,60619.0,1181039.07917283,1852740.18411841,6.0,6.0,44.0,41.75116480352693,-87.61215069814838,"(41.75116480352693, -87.61215069814838)",2011-08-09
Vacant/Abandoned Building,11-03557169,08/09/2011,Front,,Open,FRONT,Vacant,False,True,513,E,79TH,ST,60619.0,1181081.67917283,1852741.48411841,6.0,6.0,44.0,41.75116739090417,-87.6119945518116,"(41.751167390904165, -87.61199455181159)",2011-08-09
Vacant/Abandoned Building,11-03557685,08/09/2011,Rear,,Open,"REAR DOOR OPEN, REAR WINDOWS BROKEN OUT",Vacant,False,True,8921,S,PARNELL,AVE,60620.0,1174196.96409047,1845778.31289295,21.0,22.0,71.0,41.73221517187871,-87.63742982668501,"(41.73221517187871, -87.63742982668502)",2011-08-09
Vacant/Abandoned Building,11-03557723,08/09/2011,Front,,Open,VACANT BOWLING ALLEY - HALF DEMOLISHED OPEN AND UNSECURED POSING MAJOR HAZARD - BRICKS/DEBRIS EVERYWHERE,Vacant,False,False,7500,S,MICHIGAN,AVE,60619.0,1178456.74478172,1855316.06922499,6.0,6.0,69.0,41.75829233289217,-87.6215355012234,"(41.75829233289217, -87.6215355012234)",2011-08-09
Vacant/Abandoned Building,11-03557942,08/09/2011,Front,,Open,FRONT,Vacant,False,False,319,E,116TH,ST,60628.0,1180186.55699482,1827744.26079101,9.0,5.0,53.0,41.68259234862404,-87.61603786459752,"(41.68259234862404, -87.61603786459752)",2011-08-09
Vacant/Abandoned Building,11-03558005,08/09/2011,Front,,Open,,Occupied,False,True,2126,W,116TH,ST,60643.0,1164188.55139194,1827734.86497564,19.0,22.0,75.0,41.68291715266943,-87.67460062544252,"(41.68291715266943, -87.67460062544251)",2011-08-09
