,Creation Date,Status,Completion Date,Service Request Number,Type of Service Request,Street Address,ZIP Code,X Coordinate,Y Coordinate,Ward,Police District,Community Area,Latitude,Longitude,Location,date
23771,04/01/2012,Completed - Dup,04/02/2012,12-00701195,Alley Light Out,3952 S ROCKWELL ST,60632.0,1159685.27491208,1878269.98158621,12.0,9.0,58.0,41.821686597217344,-87.68970165836153,"(41.82168659721734, -87.68970165836153)",2012-04-01
23772,04/01/2012,Completed - Dup,04/02/2012,12-00701248,Alley Light Out,1935 W SCHILLER ST,60622.0,1163295.10069996,1909443.77941163,1.0,14.0,24.0,41.90715541186013,-87.67558266242092,"(41.907155411860124, -87.67558266242092)",2012-04-01
23773,04/01/2012,Completed - Dup,04/03/2012,12-00700255,Alley Light Out,6937 N ORIOLE AVE,60631.0,1124732.66909894,1945446.48430709,41.0,16.0,9.0,42.00667510124028,-87.81644384413681,"(42.00667510124028, -87.81644384413681)",2012-04-01
23774,04/01/2012,Completed - Dup,04/03/2012,12-00700556,Alley Light Out,6330 N HERMITAGE AVE,60660.0,1163620.95717333,1942000.04477974,40.0,24.0,77.0,41.99648454711261,-87.67346485481896,"(41.99648454711261, -87.67346485481895)",2012-04-01
23775,04/01/2012,Completed - Dup,04/04/2012,12-00701217,Alley Light Out,8030 S ELIZABETH ST,60620.0,1169386.2535768999,1851531.18929619,21.0,6.0,71.0,41.74810725502929,-87.6548873402053,"(41.74810725502929, -87.65488734020532)",2012-04-01
23776,04/01/2012,Completed - Dup,04/09/2012,12-00700219,Alley Light Out,2833 W 36TH ST,60632.0,1157948.71000424,1880646.76041532,12.0,9.0,58.0,41.82824428907069,-87.69600765313406,"(41.82824428907069, -87.69600765313407)",2012-04-01
23777,04/01/2012,Completed - Dup,04/09/2012,12-00701158,Alley Light Out,2833 W 36TH ST,60632.0,1157948.71000424,1880646.76041532,12.0,9.0,58.0,41.82824428907069,-87.69600765313406,"(41.82824428907069, -87.69600765313407)",2012-04-01
23778,04/01/2012,Completed - Dup,04/11/2012,12-00700347,Alley Light Out,4423 N MOODY AVE,60630.0,1134555.97511628,1928760.05158801,38.0,16.0,15.0,41.96071762290148,-87.7806978311758,"(41.96071762290148, -87.78069783117581)",2012-04-01
23779,04/01/2012,Completed - Dup,04/11/2012,12-00701066,Alley Light Out,1806 N LINCOLN PARK,60614.0,1173975.03009588,1912347.04802065,43.0,18.0,7.0,41.914890693860976,-87.63626429214762,"(41.914890693860976, -87.63626429214762)",2012-04-01
23780,04/01/2012,Completed - Dup,04/11/2012,12-00701128,Alley Light Out,1740 W CATALPA AVE,60640.0,1163744.58870912,1936574.83812551,40.0,20.0,77.0,41.98159499662561,-87.67316390753629,"(41.98159499662561, -87.67316390753629)",2012-04-01
23781,04/01/2012,Completed - Dup,04/19/2012,12-00700555,Alley Light Out,6326 N HERMITAGE AVE,60660.0,1163622.25717333,1941956.74477974,40.0,24.0,77.0,41.996365703224676,-87.67346130014201,"(41.99636570322468, -87.673461300142)",2012-04-01
23782,04/01/2012,Completed,04/04/2012,12-00701121,Alley Light Out,4201 N CENTRAL PARK AVE,60618.0,1151637.63712579,1927685.25089294,33.0,17.0,16.0,41.95744881897017,-87.71792475668047,"(41.95744881897017, -87.71792475668047)",2012-04-01
23783,04/01/2012,Completed,04/04/2012,12-00701123,Alley Light Out,5457 N BERNARD ST,60625.0,1152405.65941509,1936054.49581305,39.0,17.0,13.0,41.980399385542505,-87.71487914259413,"(41.98039938554251, -87.71487914259413)",2012-04-01
23784,04/01/2012,Completed,04/05/2012,12-00700163,Alley Light Out,3535 S PRAIRIE AVE,60653.0,1178511.74270328,1881591.85452417,2.0,2.0,35.0,41.830394318852726,-87.62053547643816,"(41.83039431885273, -87.62053547643816)",2012-04-01
23785,04/01/2012,Completed,04/11/2012,12-00700671,Alley Light Out,5251 S MAY ST,60609.0,1169543.91807081,1869969.36748024,16.0,9.0,61.0,41.798700484271336,-87.65377573975289,"(41.798700484271336, -87.65377573975287)",2012-04-01
23786,04/01/2012,Completed,04/11/2012,12-00700811,Alley Light Out,3800 S ARCHER AVE,60632.0,1160321.76941575,1879282.47750424,12.0,9.0,58.0,41.824451898305895,-87.68733872201851,"(41.8244518983059, -87.68733872201851)",2012-04-01
23787,04/01/2012,Completed,04/13/2012,12-00700258,Alley Light Out,12140 S NORMAL AVE,60628.0,1175156.90068191,1824398.93779135,34.0,5.0,53.0,41.67352569141488,-87.63454869029745,"(41.67352569141488, -87.63454869029746)",2012-04-01
23788,04/01/2012,Completed,04/17/2012,12-00700293,Alley Light Out,402 N LEAMINGTON AVE,60644.0,1141963.78001973,1902257.26972341,28.0,15.0,25.0,41.887856903981536,-87.75412076222601,"(41.88785690398154, -87.75412076222601)",2012-04-01
23789,04/01/2012,Completed,04/19/2012,12-00700160,Alley Light Out,5931 N ROCKWELL ST,60659.0,1157924.79691526,1939298.0139676998,40.0,20.0,2.0,41.989188601961864,-87.69449271461625,"(41.98918860196187, -87.69449271461625)",2012-04-01
23790,04/01/2012,Completed,04/20/2012,12-00700343,Alley Light Out,1945 S KEDZIE AVE,60623.0,1155336.42841333,1890226.07230078,24.0,10.0,29.0,41.85458384253415,-87.70533495238705,"(41.85458384253415, -87.70533495238705)",2012-04-01
23791,04/01/2012,Completed,04/27/2012,12-00701104,Alley Light Out,2557 W 117TH ST,60655.0,1161380.59211315,1826963.31059769,19.0,22.0,75.0,41.68085832165695,-87.68490083408423,"(41.68085832165695, -87.68490083408422)",2012-04-01
23792,04/01/2012,Completed,05/01/2012,12-00700210,Alley Light Out,4413 N KEYSTONE AVE,60630.0,1148605.9399998002,1928933.66032073,39.0,17.0,14.0,41.96093375063146,-87.72903796476334,"(41.96093375063146, -87.72903796476335)",2012-04-01
23793,04/01/2012,Completed,05/02/2012,12-00700434,Alley Light Out,4651 N KENMORE AVE,60640.0,1168400.69100639,1931101.63999848,46.0,19.0,3.0,41.966476633098814,-87.65619931095246,"(41.966476633098814, -87.65619931095245)",2012-04-01
23794,04/01/2012,Completed,05/07/2012,12-00701257,Alley Light Out,10834 S EBERHART AVE,60628.0,1181500.25567082,1833223.94600728,9.0,5.0,49.0,41.69759924893263,-87.61106078217419,"(41.697599248932626, -87.61106078217419)",2012-04-01
23795,04/01/2012,Completed,05/17/2012,12-00701081,Alley Light Out,2446 N LAWNDALE AVE,60647.0,1151303.86799705,1916009.02458606,35.0,25.0,22.0,41.925414908088456,-87.71945921044906,"(41.925414908088456, -87.71945921044906)",2012-04-01
23796,04/01/2012,Completed,06/11/2012,12-00701039,Alley Light Out,1131 N MOZART ST,60622.0,1157180.69470993,1907397.02809993,26.0,13.0,24.0,41.90166541322775,-87.69809922594453,"(41.90166541322774, -87.69809922594453)",2012-04-01
23908,04/02/2012,Completed - Dup,04/02/2012,12-00701374,Alley Light Out,4611 N KOSTNER AVE,60630.0,1146008.50772451,1930280.514728,45.0,17.0,16.0,41.96467949194111,-87.73855319517824,"(41.964679491941105, -87.73855319517824)",2012-04-02
23909,04/02/2012,Completed - Dup,04/02/2012,12-00701381,Alley Light Out,2833 W 36TH PL,60632.0,1158074.47932015,1880312.46047588,12.0,9.0,58.0,41.827324368483545,-87.69555532025127,"(41.827324368483545, -87.69555532025126)",2012-04-02
23910,04/02/2012,Completed - Dup,04/02/2012,12-00701382,Alley Light Out,2833 W 36TH PL,60632.0,1158074.47932015,1880312.46047588,12.0,9.0,58.0,41.827324368483545,-87.69555532025127,"(41.827324368483545, -87.69555532025126)",2012-04-02
23911,04/02/2012,Completed - Dup,04/02/2012,12-00703721,Alley Light Out,203 S CENTRAL AVE,60644.0,1139088.06061194,1898557.99436668,29.0,15.0,25.0,41.87775839462658,-87.76477149684305,"(41.877758394626575, -87.76477149684305)",2012-04-02
23912,04/02/2012,Completed - Dup,04/02/2012,12-00704012,Alley Light Out,3038 N CENTRAL PARK AVE,60618.0,1151862.18008046,1919917.15999012,35.0,25.0,21.0,41.93612816813643,-87.71730451221659,"(41.93612816813643, -87.71730451221659)",2012-04-02
23913,04/02/2012,Completed - Dup,04/02/2012,12-00704610,Alley Light Out,5109 W ROSCOE ST,60641.0,1141705.50991275,1922124.29459613,38.0,16.0,15.0,41.94237896302533,-87.75457688901743,"(41.94237896302533, -87.75457688901743)",2012-04-02
23914,04/02/2012,Completed - Dup,04/02/2012,12-00706301,Alley Light Out,5048 N MONTICELLO AVE,60625.0,1151143.4003986,1933275.05958065,39.0,17.0,14.0,41.97279735559257,-87.71959454057432,"(41.97279735559257, -87.71959454057433)",2012-04-02
23915,04/02/2012,Completed - Dup,04/02/2012,12-00706378,Alley Light Out,5346 N MELVINA AVE,60630.0,1133729.73777941,1935168.57108852,45.0,16.0,11.0,41.97831780027778,-87.78358436735678,"(41.978317800277786, -87.78358436735678)",2012-04-02
23916,04/02/2012,Completed - Dup,04/02/2012,12-00706510,Alley Light Out,5248 N PAULINA ST,60640.0,1164044.58470733,1934999.85889091,40.0,20.0,77.0,41.97726684834888,-87.67210532599466,"(41.977266848348876, -87.67210532599466)",2012-04-02
23917,04/02/2012,Completed - Dup,04/02/2012,12-00707028,Alley Light Out,4641 W FULTON ST,60644.0,1145407.85506987,1901385.81768095,28.0,11.0,25.0,41.8854010493153,-87.74149492262161,"(41.8854010493153, -87.74149492262161)",2012-04-02
23918,04/02/2012,Completed - Dup,04/02/2012,12-00707233,Alley Light Out,4913 S LEAMINGTON AVE,60638.0,1142856.14198627,1871566.7344181,23.0,8.0,56.0,41.803621190900174,-87.75160710930012,"(41.80362119090017, -87.75160710930011)",2012-04-02
23919,04/02/2012,Completed - Dup,04/02/2012,12-00707238,Alley Light Out,835 N KEYSTONE AVE,60651.0,1149236.42008181,1905273.44571559,37.0,11.0,23.0,41.89599579927904,-87.72733477118872,"(41.89599579927904, -87.72733477118872)",2012-04-02
23920,04/02/2012,Completed - Dup,04/02/2012,12-00707278,Alley Light Out,22 W ERIE ST,60654.0,1176250.08917868,1904778.96758924,42.0,18.0,8.0,41.89407249017879,-87.62813467284703,"(41.8940724901788, -87.62813467284701)",2012-04-02
23921,04/02/2012,Completed - Dup,04/03/2012,12-00707343,Alley Light Out,4644 S SPAULDING AVE,60632.0,1155159.87191248,1873650.62437341,14.0,8.0,58.0,41.80910229554684,-87.70642698054311,"(41.809102295546836, -87.70642698054311)",2012-04-02
23922,04/02/2012,Completed - Dup,04/03/2012,12-00707413,Alley Light Out,5703 W WAVELAND AVE,60634.0,1137678.59260428,1924027.09889687,38.0,16.0,15.0,41.94767410516658,-87.76933183796015,"(41.94767410516658, -87.76933183796014)",2012-04-02
23923,04/02/2012,Completed - Dup,04/03/2012,12-00707432,Alley Light Out,2619 S TRIPP AVE,60623.0,1148475.47010151,1886252.66648935,22.0,10.0,30.0,41.843815242846176,-87.73062011445147,"(41.843815242846176, -87.73062011445147)",2012-04-02
23924,04/02/2012,Completed - Dup,04/03/2012,12-00707435,Alley Light Out,10831 S VERNON AVE,60628.0,1181166.06997828,1833235.46339266,9.0,5.0,49.0,41.697638538044,-87.6122840256725,"(41.697638538044004, -87.6122840256725)",2012-04-02
23925,04/02/2012,Completed - Dup,04/03/2012,12-00707441,Alley Light Out,7152 S MAPLEWOOD AVE,60629.0,1160611.32526676,1857138.51662925,18.0,8.0,66.0,41.76367996988513,-87.68688732324537,"(41.763679969885125, -87.68688732324537)",2012-04-02
23926,04/02/2012,Completed - Dup,04/05/2012,12-00701795,Alley Light Out,421 W 97TH ST,60628.0,1175093.30047064,1840583.40327591,21.0,22.0,73.0,41.71793970233126,-87.6343007200695,"(41.71793970233126, -87.6343007200695)",2012-04-02
23927,04/02/2012,Completed - Dup,04/09/2012,12-00701384,Alley Light Out,2833 W 36TH ST,60632.0,1157948.71000424,1880646.76041532,12.0,9.0,58.0,41.82824428907069,-87.69600765313406,"(41.82824428907069, -87.69600765313407)",2012-04-02
23928,04/02/2012,Completed - Dup,04/09/2012,12-00707291,Alley Light Out,2833 W 36TH ST,60632.0,1157948.71000424,1880646.76041532,12.0,9.0,58.0,41.82824428907069,-87.69600765313406,"(41.82824428907069, -87.69600765313407)",2012-04-02
23929,04/02/2012,Completed - Dup,04/10/2012,12-00704647,Alley Light Out,5400 S OAK PARK AVE,60638.0,1131966.29616866,1868023.55752941,23.0,8.0,56.0,41.79409337961656,-87.79162834787232,"(41.79409337961656, -87.79162834787232)",2012-04-02
23930,04/02/2012,Completed - Dup,04/10/2012,12-00704679,Alley Light Out,4321 W CORTEZ ST,60651.0,1147334.11012833,1906646.26007043,37.0,11.0,23.0,41.899799606891904,-87.73428641855878,"(41.899799606891904, -87.7342864185588)",2012-04-02
23931,04/02/2012,Completed - Dup,04/10/2012,12-00704686,Alley Light Out,4333 W CORTEZ ST,60651.0,1147259.41012833,1906644.26007043,37.0,11.0,23.0,41.899795549687454,-87.73456084631611,"(41.899795549687454, -87.73456084631611)",2012-04-02
23932,04/02/2012,Completed - Dup,04/11/2012,12-00702251,Alley Light Out,536 E 89TH ST,60619.0,1181375.33800848,1846087.52357338,6.0,6.0,44.0,41.732901406892815,-87.61112308541071,"(41.73290140689281, -87.61112308541072)",2012-04-02
23933,04/02/2012,Completed - Dup,04/11/2012,12-00707201,Alley Light Out,9325 S HOYNE AVE,60643.0,1164103.79058427,1842792.82018557,19.0,22.0,72.0,41.724240500911854,-87.67448920296984,"(41.724240500911854, -87.67448920296985)",2012-04-02
23934,04/02/2012,Completed - Dup,04/12/2012,12-00707481,Alley Light Out,10041 S WALLACE ST,60628.0,1174073.10552938,1838299.53122438,9.0,22.0,73.0,41.71169510158379,-87.63810483118591,"(41.71169510158379, -87.6381048311859)",2012-04-02
23935,04/02/2012,Completed - Dup,04/16/2012,12-00707078,Alley Light Out,7330 S MICHIGAN AVE,60619.0,1178429.79437936,1856442.58850379,6.0,3.0,69.0,41.76138423907971,-87.62160011297243,"(41.76138423907971, -87.62160011297244)",2012-04-02
23936,04/02/2012,Completed - Dup,04/17/2012,12-00703397,Alley Light Out,5111 W ROSCOE ST,60641.0,1141692.10991275,1922123.99459613,38.0,16.0,15.0,41.94237838805218,-87.7546261481788,"(41.94237838805218, -87.7546261481788)",2012-04-02
23937,04/02/2012,Completed - Dup,04/19/2012,12-00702443,Alley Light Out,7531 S MAY ST,60620.0,1169957.69997993,1854812.12000273,17.0,6.0,71.0,41.757098181554944,-87.65269826396644,"(41.757098181554944, -87.65269826396643)",2012-04-02
23938,04/02/2012,Completed - Dup,04/20/2012,12-00705862,Alley Light Out,11629 S AVENUE J,60617.0,1202577.33596908,1828468.75979885,10.0,4.0,52.0,41.684039656298154,-87.53405113427654,"(41.684039656298154, -87.53405113427655)",2012-04-02
23939,04/02/2012,Completed - Dup,04/25/2012,12-00707212,Alley Light Out,355 E 89TH PL,60619.0,1180153.44151591,1845718.46819315,6.0,6.0,44.0,41.73191672254572,-87.61561069560994,"(41.73191672254572, -87.61561069560996)",2012-04-02
23940,04/02/2012,Completed - Dup,05/03/2012,12-00701721,Alley Light Out,518 N TROY ST,60612.0,1155283.80007764,1903354.41499462,27.0,13.0,23.0,41.89061043973064,-87.70517548483271,"(41.890610439730644, -87.70517548483271)",2012-04-02
23941,04/02/2012,Completed - Dup,05/03/2012,12-00703351,Alley Light Out,4709 N LEAMINGTON AVE,60630.0,1141191.4027723,1930838.87010352,45.0,16.0,15.0,41.9663020589889,-87.7562508062244,"(41.966302058988894, -87.7562508062244)",2012-04-02
23942,04/02/2012,Completed - Dup,05/03/2012,12-00707297,Alley Light Out,1250 N STATE PKWY,60610.0,1176057.90600525,1908800.99999332,42.0,18.0,8.0,41.90511347478993,-87.62871917061779,"(41.90511347478993, -87.6287191706178)",2012-04-02
23943,04/02/2012,Completed - Dup,05/15/2012,12-00702352,Alley Light Out,1060 W 107TH PL,60643.0,1171158.59998512,1833522.4899203999,34.0,22.0,75.0,41.698650247430436,-87.64891753024797,"(41.69865024743044, -87.64891753024797)",2012-04-02
23944,04/02/2012,Completed,04/02/2012,12-00707412,Alley Light Out,5430 S PAULINA ST,60609.0,1165934.29741878,1868691.35897471,16.0,9.0,61.0,41.79527101983563,-87.66704932532775,"(41.79527101983563, -87.66704932532777)",2012-04-02
23945,04/02/2012,Completed,04/02/2012,12-00707462,Alley Light Out,6656 W DEVON AVE,60631.0,1130760.98839622,1942071.48839158,41.0,16.0,10.0,41.99731180735221,-87.79434244815741,"(41.99731180735221, -87.79434244815741)",2012-04-02
23946,04/02/2012,Completed,04/04/2012,12-00704387,Alley Light Out,1436 S RIDGEWAY AVE,60623.0,1151611.59360333,1892785.43009628,24.0,10.0,29.0,41.86168096535083,-87.71893952911994,"(41.86168096535083, -87.71893952911994)",2012-04-02
23947,04/02/2012,Completed,04/04/2012,12-00704635,Alley Light Out,4159 N CENTRAL AVE,60634.0,1138265.98339582,1927099.8728977002,38.0,16.0,15.0,41.95609546880366,-87.76709807483387,"(41.95609546880366, -87.76709807483388)",2012-04-02
23948,04/02/2012,Completed,04/04/2012,12-00705954,Alley Light Out,7450 N SACRAMENTO AVE,60645.0,1155170.40849107,1949320.75730198,50.0,24.0,2.0,42.01674735614551,-87.70435296435639,"(42.01674735614551, -87.70435296435639)",2012-04-02
23949,04/02/2012,Completed,04/04/2012,12-00707131,Alley Light Out,2068 W 75TH PL,60620.0,1163992.13003412,1854649.6499965,18.0,6.0,71.0,41.756779777601686,-87.67456574657557,"(41.75677977760169, -87.67456574657557)",2012-04-02
23950,04/02/2012,Completed,04/05/2012,12-00706474,Alley Light Out,4356 S SHIELDS AVE,60609.0,1174701.78638952,1875987.90019514,3.0,9.0,37.0,41.8151024683011,-87.63468139641925,"(41.8151024683011, -87.63468139641927)",2012-04-02
23951,04/02/2012,Completed,04/06/2012,12-00701828,Alley Light Out,24 W ERIE ST,60654.0,1176019.71589155,1904773.11751299,42.0,18.0,8.0,41.89406162995591,-87.62898092735634,"(41.89406162995591, -87.62898092735634)",2012-04-02
23952,04/02/2012,Completed,04/10/2012,12-00707439,Alley Light Out,4814 W CORTEZ ST,60651.0,1143984.32198063,1906546.34511195,37.0,15.0,25.0,41.89958895562986,-87.74659287160164,"(41.89958895562986, -87.74659287160164)",2012-04-02
23953,04/02/2012,Completed,04/11/2012,12-00703359,Alley Light Out,4123 N MELVINA AVE,60634.0,1134282.20323236,1926820.95011714,38.0,16.0,15.0,41.955401373236796,-87.7817502616257,"(41.955401373236796, -87.7817502616257)",2012-04-02
23954,04/02/2012,Completed,04/11/2012,12-00706984,Alley Light Out,4508 N CENTRAL AVE,60630.0,1138192.50189767,1929472.55998755,38.0,16.0,15.0,41.962607676390746,-87.76731059842018,"(41.962607676390746, -87.76731059842017)",2012-04-02
23955,04/02/2012,Completed,04/12/2012,12-00703914,Alley Light Out,2963 S ARCH ST,60608.0,1168041.30238101,1885095.50159767,11.0,9.0,60.0,41.84024064199622,-87.65885071923975,"(41.84024064199622, -87.65885071923975)",2012-04-02
23956,04/02/2012,Completed,04/12/2012,12-00707252,Alley Light Out,3247 S HAMLIN AVE,60623.0,1151555.50993113,1882805.80187248,22.0,10.0,30.0,41.83429673614359,-87.71940729423531,"(41.83429673614359, -87.71940729423531)",2012-04-02
23957,04/02/2012,Completed,04/12/2012,12-00707444,Alley Light Out,2950 S HAYNES CT,60608.0,1168105.0489956,1885494.19157537,11.0,9.0,60.0,41.841333310854246,-87.65860530241055,"(41.84133331085425, -87.65860530241054)",2012-04-02
23958,04/02/2012,Completed,04/13/2012,12-00707319,Alley Light Out,1507 N KEYSTONE AVE,60651.0,1149106.87008278,1909715.13419552,30.0,25.0,23.0,41.90818675411128,-87.72769541519385,"(41.90818675411128, -87.72769541519385)",2012-04-02
23959,04/02/2012,Completed,04/16/2012,12-00703092,Alley Light Out,8723 S JUSTINE ST,60620.0,1167526.07630026,1846880.66961417,21.0,22.0,71.0,41.73538560955957,-87.66183662237306,"(41.735385609559565, -87.66183662237306)",2012-04-02
23960,04/02/2012,Completed,04/16/2012,12-00706258,Alley Light Out,9712 S VINCENNES AVE,60643.0,1170271.02416687,1840468.63012663,21.0,22.0,73.0,41.71773083380085,-87.65196615930272,"(41.71773083380085, -87.65196615930272)",2012-04-02
23961,04/02/2012,Completed,04/16/2012,12-00707198,Alley Light Out,1122 N WALLER AVE,60651.0,1138145.72250124,1906907.78318546,29.0,15.0,25.0,41.90068835908088,-87.76802959949741,"(41.90068835908088, -87.7680295994974)",2012-04-02
23962,04/02/2012,Completed,04/16/2012,12-00707239,Alley Light Out,8729 S JUSTINE ST,60620.0,1167527.27630026,1846840.56961417,21.0,22.0,71.0,41.73527554359764,-87.66183337226386,"(41.73527554359764, -87.66183337226384)",2012-04-02
23963,04/02/2012,Completed,04/17/2012,12-00703763,Alley Light Out,8000 S DR MARTIN LUTHER KING JR DR,60619.0,1180289.02649673,1852050.99871994,6.0,6.0,44.0,41.749290821050494,-87.61492033181689,"(41.74929082105049, -87.61492033181689)",2012-04-02
23964,04/02/2012,Completed,04/17/2012,12-00704203,Alley Light Out,7034 S PRAIRIE AVE,60637.0,1179256.98729811,1858438.56948205,6.0,3.0,69.0,41.7668426043254,-87.61850761097374,"(41.7668426043254, -87.61850761097374)",2012-04-02
23965,04/02/2012,Completed,04/17/2012,12-00706651,Alley Light Out,3653 N PITTSBURGH AVE,60634.0,1120421.7096893,1923248.41259095,36.0,16.0,17.0,41.945831372530435,-87.83278214237099,"(41.94583137253044, -87.83278214237099)",2012-04-02
23966,04/02/2012,Completed,04/17/2012,12-00707301,Alley Light Out,4911 W SCHUBERT AVE,60639.0,1143184.07571692,1917508.45450394,31.0,25.0,19.0,41.929685131720106,-87.74925800686502,"(41.92968513172011, -87.74925800686502)",2012-04-02
23967,04/02/2012,Completed,04/18/2012,12-00706992,Alley Light Out,4409 W WILCOX ST,60624.0,1147020.42740818,1898972.64020224,28.0,11.0,26.0,41.878748341098856,-87.7356349160776,"(41.87874834109885, -87.73563491607759)",2012-04-02
23968,04/02/2012,Completed,04/19/2012,12-00705861,Alley Light Out,11646 S LOOMIS ST,60643.0,1169091.1515206,1827519.62063177,34.0,5.0,53.0,41.68222221889762,-87.65666019252446,"(41.68222221889762, -87.65666019252446)",2012-04-02
23969,04/02/2012,Completed,04/19/2012,12-00706180,Alley Light Out,1028 W 104TH ST,60643.0,1171300.74340738,1835854.89961987,34.0,22.0,73.0,41.705047639779075,-87.64832914253441,"(41.70504763977908, -87.64832914253441)",2012-04-02
23970,04/02/2012,Completed,04/20/2012,12-00702361,Alley Light Out,4834 W CULLOM AVE,60641.0,1143369.32719412,1928151.50987555,45.0,16.0,15.0,41.95888718749545,-87.74831031697313,"(41.95888718749545, -87.74831031697312)",2012-04-02
23971,04/02/2012,Completed,04/23/2012,12-00707234,Alley Light Out,4913 S LEAMINGTON AVE,60638.0,1142856.14198627,1871566.7344181,23.0,8.0,56.0,41.803621190900174,-87.75160710930012,"(41.80362119090017, -87.75160710930011)",2012-04-02
23972,04/02/2012,Completed,04/24/2012,12-00701335,Alley Light Out,13530 S AVENUE L,60633.0,1202095.98657361,1815930.81426624,10.0,4.0,55.0,41.649646498718646,-87.53623766465935,"(41.649646498718646, -87.53623766465934)",2012-04-02
23973,04/02/2012,Completed,04/24/2012,12-00702876,Alley Light Out,3301 W 63RD PL,60629.0,1155479.38838294,1862321.76406879,15.0,8.0,66.0,41.778007890304416,-87.70555847766359,"(41.778007890304416, -87.70555847766359)",2012-04-02
23974,04/02/2012,Completed,05/01/2012,12-00704495,Alley Light Out,6300 W DICKENS AVE,60639.0,1134073.56100802,1913284.32532995,29.0,25.0,19.0,41.91825904618165,-87.7828368380394,"(41.918259046181646, -87.7828368380394)",2012-04-02
23975,04/02/2012,Completed,05/09/2012,12-00706767,Alley Light Out,6130 N NAPLES AVE,60631.0,1131915.14748895,1940521.14011152,41.0,16.0,10.0,41.99303750284903,-87.7901328399052,"(41.99303750284902, -87.79013283990521)",2012-04-02
23976,04/02/2012,Completed,05/14/2012,12-00701539,Alley Light Out,5704 S ADA ST,60636.0,1168300.88929212,1866934.97598027,16.0,7.0,67.0,41.79040063751564,-87.65842155209275,"(41.79040063751564, -87.65842155209275)",2012-04-02
23977,04/02/2012,Completed,05/21/2012,12-00707328,Alley Light Out,4356 N KENMORE AVE,60613.0,1168384.39009525,1929080.60698064,46.0,19.0,3.0,41.96093120377423,-87.65631796110729,"(41.96093120377423, -87.6563179611073)",2012-04-02
23978,04/02/2012,Completed,06/04/2012,12-00702510,Alley Light Out,2030 W 111TH ST,60643.0,1164726.23158933,1831019.74931096,19.0,22.0,75.0,41.691920152831095,-87.67254013393885,"(41.69192015283109, -87.67254013393884)",2012-04-02
24075,04/03/2012,Completed - Dup,04/03/2012,12-00711329,Alley Light Out,4201 W JACKSON BLVD,60624.0,1148430.58180797,1898354.94358965,28.0,11.0,26.0,41.87702624566726,-87.73047298896705,"(41.87702624566726, -87.73047298896707)",2012-04-03
24076,04/03/2012,Completed - Dup,04/03/2012,12-00712413,Alley Light Out,5703 W WAVELAND AVE,60634.0,1137678.59260428,1924027.09889687,38.0,16.0,15.0,41.94767410516658,-87.76933183796015,"(41.94767410516658, -87.76933183796014)",2012-04-03
24077,04/03/2012,Completed - Dup,04/04/2012,12-00710101,Alley Light Out,10530 S EGGLESTON AVE,60628.0,1175148.67409974,1835078.26478293,34.0,22.0,49.0,41.702831584156755,-87.63426160495025,"(41.70283158415675, -87.63426160495025)",2012-04-03
24078,04/03/2012,Completed - Dup,04/04/2012,12-00712804,Alley Light Out,1726 E 84TH PL,60617.0,1189221.70137349,1849293.80770505,8.0,4.0,45.0,41.741515499890355,-87.58227610592975,"(41.74151549989035, -87.58227610592975)",2012-04-03
24079,04/03/2012,Completed - Dup,04/04/2012,12-00713531,Alley Light Out,922 N KEYSTONE AVE,60651.0,1149219.75949776,1905853.4972884997,37.0,11.0,23.0,41.89758784404877,-87.72738091592836,"(41.89758784404877, -87.72738091592836)",2012-04-03
24080,04/03/2012,Completed - Dup,04/04/2012,12-00713536,Alley Light Out,4826 N CENTRAL PARK AVE,60625.0,1151514.51229956,1931830.55677884,39.0,17.0,14.0,41.96882624396477,-87.71826801303172,"(41.96882624396477, -87.7182680130317)",2012-04-03
24081,04/03/2012,Completed - Dup,04/06/2012,12-00710133,Alley Light Out,2214 N BISSELL ST,60614.0,1169594.14920141,1914908.93630194,43.0,18.0,7.0,41.92201722962349,-87.65228423802681,"(41.92201722962349, -87.65228423802681)",2012-04-03
24082,04/03/2012,Completed - Dup,04/09/2012,12-00713507,Alley Light Out,4400 S WOOD ST,60609.0,1165084.89642003,1875514.60866706,12.0,9.0,61.0,41.814012843878906,-87.66997098608734,"(41.814012843878906, -87.66997098608734)",2012-04-03
24083,04/03/2012,Completed - Dup,04/09/2012,12-00713513,Alley Light Out,2833 W 36TH ST,60632.0,1157948.71000424,1880646.76041532,12.0,9.0,58.0,41.82824428907069,-87.69600765313406,"(41.82824428907069, -87.69600765313407)",2012-04-03
24084,04/03/2012,Completed - Dup,04/10/2012,12-00710055,Alley Light Out,4333 W CORTEZ ST,60651.0,1147259.41012833,1906644.26007043,37.0,11.0,23.0,41.899795549687454,-87.73456084631611,"(41.899795549687454, -87.73456084631611)",2012-04-03
24085,04/03/2012,Completed - Dup,04/10/2012,12-00713354,Alley Light Out,5400 S OAK PARK AVE,60638.0,1131966.29616866,1868023.55752941,23.0,8.0,56.0,41.79409337961656,-87.79162834787232,"(41.79409337961656, -87.79162834787232)",2012-04-03
24086,04/03/2012,Completed - Dup,04/11/2012,12-00712259,Alley Light Out,5810 N TALMAN AVE,60659.0,1157619.60650549,1938484.06328759,40.0,20.0,2.0,41.98696132719094,-87.69563754331928,"(41.98696132719094, -87.69563754331928)",2012-04-03
24087,04/03/2012,Completed - Dup,04/11/2012,12-00713379,Alley Light Out,1131 S AUSTIN BLVD,60644.0,1136552.4685793999,1894522.03000237,29.0,15.0,25.0,41.86672886442381,-87.77417823639935,"(41.86672886442381, -87.77417823639934)",2012-04-03
24088,04/03/2012,Completed - Dup,04/12/2012,12-00711359,Alley Light Out,10041 S WALLACE ST,60628.0,1174073.10552938,1838299.53122438,9.0,22.0,73.0,41.71169510158379,-87.63810483118591,"(41.71169510158379, -87.6381048311859)",2012-04-03
24089,04/03/2012,Completed - Dup,04/13/2012,12-00713330,Alley Light Out,1507 N KEYSTONE AVE,60651.0,1149106.87008278,1909715.13419552,30.0,25.0,23.0,41.90818675411128,-87.72769541519385,"(41.90818675411128, -87.72769541519385)",2012-04-03
24090,04/03/2012,Completed - Dup,04/25/2012,12-00710935,Alley Light Out,8200 S WINCHESTER AVE,60620.0,1164783.30361221,1850283.84253128,18.0,6.0,71.0,41.74478270947159,-87.67178924620535,"(41.744782709471586, -87.67178924620535)",2012-04-03
24091,04/03/2012,Completed - Dup,04/25/2012,12-00713456,Alley Light Out,355 E 89TH PL,60619.0,1180153.44151591,1845718.46819315,6.0,6.0,44.0,41.73191672254572,-87.61561069560994,"(41.73191672254572, -87.61561069560996)",2012-04-03
24092,04/03/2012,Completed - Dup,05/04/2012,12-00708048,Alley Light Out,3057 N GRESHAM AVE,60618.0,1152854.86183254,1920172.31221582,35.0,14.0,21.0,41.93680869400831,-87.71364951395617,"(41.936808694008306, -87.71364951395616)",2012-04-03
24093,04/03/2012,Completed,04/03/2012,12-00708382,Alley Light Out,5215 N LA CROSSE AVE,60630.0,1143063.04212396,1934278.94309475,45.0,16.0,12.0,41.97570709408284,-87.74928279502242,"(41.97570709408284, -87.74928279502244)",2012-04-03
24094,04/03/2012,Completed,04/03/2012,12-00709087,Alley Light Out,3112 S SHIELDS AVE,60616.0,1174462.00880777,1884318.5146704,11.0,9.0,34.0,41.837967749674156,-87.63531265549518,"(41.83796774967416, -87.63531265549518)",2012-04-03
24095,04/03/2012,Completed,04/03/2012,12-00713548,Alley Light Out,4358 S KILPATRICK AVE,60632.0,1145753.23602068,1875329.06761227,23.0,8.0,56.0,41.813891311182935,-87.74088674214556,"(41.813891311182935, -87.74088674214556)",2012-04-03
24096,04/03/2012,Completed,04/04/2012,12-00709056,Alley Light Out,2632 N TALMAN AVE,60647.0,1158247.81799335,1917454.35839158,35.0,14.0,22.0,41.92924175906099,-87.69390412317298,"(41.92924175906099, -87.69390412317298)",2012-04-03
24097,04/03/2012,Completed,04/04/2012,12-00712777,Alley Light Out,8829 S RIDGELAND AVE,60617.0,1189408.29482687,1846788.51651872,8.0,4.0,48.0,41.73463626634669,-87.58167261869413,"(41.73463626634669, -87.58167261869413)",2012-04-03
24098,04/03/2012,Completed,04/04/2012,12-00712791,Alley Light Out,9004 S RIDGELAND AVE,60617.0,1189438.64302817,1845619.8822883999,8.0,4.0,48.0,41.73142869021304,-87.58159883133635,"(41.731428690213036, -87.58159883133635)",2012-04-03
24099,04/03/2012,Completed,04/05/2012,12-00707577,Alley Light Out,7257 W THORNDALE AVE,60631.0,1126838.77739942,1938588.48988554,41.0,16.0,10.0,41.987820962933405,-87.80884952561114,"(41.987820962933405, -87.80884952561112)",2012-04-03
24100,04/03/2012,Completed,04/05/2012,12-00708891,Alley Light Out,7941 S PHILLIPS AVE,60617.0,1193906.94002952,1852654.06000836,7.0,4.0,46.0,41.75062281864298,-87.56499999337076,"(41.75062281864298, -87.56499999337076)",2012-04-03
24101,04/03/2012,Completed,04/05/2012,12-00712294,Alley Light Out,4536 S UNION AVE,60609.0,1172390.12296769,1874801.31786861,11.0,9.0,61.0,41.81189763107972,-87.64319584394838,"(41.81189763107972, -87.64319584394838)",2012-04-03
24102,04/03/2012,Completed,04/05/2012,12-00713586,Alley Light Out,839 E 40TH ST,60653.0,1182751.77511855,1878393.20420368,4.0,2.0,36.0,41.8215194054957,-87.60507835270872,"(41.8215194054957, -87.60507835270872)",2012-04-03
24103,04/03/2012,Completed,04/10/2012,12-00708207,Alley Light Out,2047 N TRIPP AVE,60639.0,1147720.05801284,1913264.81532607,30.0,25.0,20.0,41.917954186924064,-87.73269858497723,"(41.917954186924064, -87.73269858497723)",2012-04-03
24104,04/03/2012,Completed,04/10/2012,12-00711305,Alley Light Out,7355 N OTTAWA AVE,60631.0,1124406.82553032,1948209.96353323,41.0,16.0,9.0,42.01426373433107,-87.81758144506556,"(42.01426373433107, -87.81758144506556)",2012-04-03
24105,04/03/2012,Completed,04/11/2012,12-00708825,Alley Light Out,2755 W BELMONT AVE,60618.0,1157462.4927291,1921149.96792428,1.0,14.0,21.0,41.939398805578925,-87.69668911752156,"(41.93939880557892, -87.69668911752157)",2012-04-03
24106,04/03/2012,Completed,04/11/2012,12-00712831,Alley Light Out,8030 S VERNON AVE,60619.0,1180637.51531128,1851859.6223195998,6.0,6.0,44.0,41.74875767107293,-87.6136492074753,"(41.74875767107293, -87.6136492074753)",2012-04-03
24107,04/03/2012,Completed,04/11/2012,12-00713343,Alley Light Out,3115 N RICHMOND ST,60618.0,1156112.02041053,1920491.01047486,33.0,14.0,21.0,41.937617994025885,-87.70167034453638,"(41.93761799402589, -87.70167034453637)",2012-04-03
24108,04/03/2012,Completed,04/12/2012,12-00707527,Alley Light Out,5900 S AUSTIN AVE,60638.0,1137399.88179932,1864818.85211222,23.0,8.0,64.0,41.785203416556136,-87.77177997407118,"(41.785203416556136, -87.77177997407118)",2012-04-03
24109,04/03/2012,Completed,04/12/2012,12-00707695,Alley Light Out,2612 S KOLIN AVE,60623.0,1147813.34218228,1886201.03660864,22.0,10.0,30.0,41.843686288896045,-87.73305134245632,"(41.84368628889605, -87.73305134245633)",2012-04-03
24110,04/03/2012,Completed,04/12/2012,12-00707767,Alley Light Out,2615 S KOLIN AVE,60623.0,1147813.84218228,1886183.53660864,22.0,10.0,30.0,41.84363825698941,-87.73304995641449,"(41.84363825698941, -87.73304995641448)",2012-04-03
24111,04/03/2012,Completed,04/12/2012,12-00709872,Alley Light Out,5836 W MELROSE ST,60634.0,1136933.26138182,1921012.36408346,38.0,16.0,15.0,41.939414786496975,-87.77214408873432,"(41.93941478649698, -87.77214408873432)",2012-04-03
24112,04/03/2012,Completed,04/13/2012,12-00712885,Alley Light Out,700 W 115TH ST,60628.0,1173709.82978978,1828609.53368097,34.0,22.0,49.0,41.68511232313321,-87.63972102619422,"(41.68511232313321, -87.63972102619424)",2012-04-03
24113,04/03/2012,Completed,04/16/2012,12-00708333,Alley Light Out,5715 W ERIE ST,60644.0,1138078.88003217,1903719.04002993,29.0,15.0,25.0,41.891939259738116,-87.76835224855263,"(41.89193925973812, -87.76835224855263)",2012-04-03
24114,04/03/2012,Completed,04/16/2012,12-00712197,Alley Light Out,3800 W 79TH PL,60652.0,1152435.86393045,1851606.18866635,18.0,8.0,70.0,41.74866303732637,-87.71699773616291,"(41.748663037326374, -87.71699773616291)",2012-04-03
24115,04/03/2012,Completed,04/16/2012,12-00713292,Alley Light Out,9536 S LOWE AVE,60628.0,1173650.07368944,1841631.38040854,21.0,22.0,73.0,41.720847534053156,-87.63955575415764,"(41.72084753405316, -87.63955575415764)",2012-04-03
24116,04/03/2012,Completed,04/16/2012,12-00713481,Alley Light Out,9326 S NORMAL AVE,60620.0,1174604.84742311,1843054.93209502,21.0,22.0,73.0,41.7247327883256,-87.63601640562214,"(41.724732788325596, -87.63601640562214)",2012-04-03
24117,04/03/2012,Completed,04/16/2012,12-00713509,Alley Light Out,1714 N MCVICKER AVE,60639.0,1135812.97628066,1910768.76661821,29.0,25.0,25.0,41.911325236127034,-87.776506002577,"(41.91132523612703, -87.776506002577)",2012-04-03
24118,04/03/2012,Completed,04/17/2012,12-00709768,Alley Light Out,4702 W MAYPOLE AVE,60644.0,1144996.14858028,1901047.80906881,28.0,11.0,25.0,41.88448129566717,-87.74301534026077,"(41.88448129566717, -87.74301534026078)",2012-04-03
24119,04/03/2012,Completed,04/19/2012,12-00707512,Alley Light Out,11713 S ASHLAND AVE,60643.0,1167782.78043009,1827043.73002951,34.0,5.0,53.0,41.680944392846655,-87.66146319119642,"(41.68094439284666, -87.66146319119642)",2012-04-03
24120,04/03/2012,Completed,04/19/2012,12-00709601,Alley Light Out,7844 S WABASH AVE,60619.0,1178071.01208279,1853016.50082838,6.0,6.0,69.0,41.751990803612145,-87.62301874869145,"(41.75199080361215, -87.62301874869146)",2012-04-03
24121,04/03/2012,Completed,04/20/2012,12-00709350,Alley Light Out,1459 E 69TH PL,60637.0,1187286.38610427,1859204.46877962,5.0,3.0,43.0,41.76875741501563,-87.58905276641428,"(41.76875741501563, -87.58905276641428)",2012-04-03
24122,04/03/2012,Completed,04/23/2012,12-00708608,Alley Light Out,3738 S ALBANY AVE,60632.0,1156316.16507467,1879549.92863295,12.0,9.0,58.0,41.82526752422599,-87.70202691489644,"(41.825267524225985, -87.70202691489644)",2012-04-03
24123,04/03/2012,Completed,04/23/2012,12-00708613,Alley Light Out,3744 S ALBANY AVE,60632.0,1156317.06507467,1879521.02863295,12.0,9.0,58.0,41.82518820085967,-87.70202439210533,"(41.82518820085967, -87.70202439210533)",2012-04-03
24124,04/03/2012,Completed,04/25/2012,12-00711304,Alley Light Out,4012 S CALIFORNIA AVE,60632.0,1158356.07801825,1877887.79986557,14.0,9.0,58.0,41.820665063150294,-87.69458830556414,"(41.8206650631503, -87.69458830556414)",2012-04-03
24125,04/03/2012,Completed,04/27/2012,12-00713612,Alley Light Out,4600 S KNOX AVE,60632.0,1146128.26999221,1873727.31996717,23.0,8.0,56.0,41.809488770497815,-87.73955166195368,"(41.80948877049781, -87.73955166195367)",2012-04-03
24126,04/03/2012,Completed,04/30/2012,12-00707721,Alley Light Out,3822 N ASHLAND AVE,60613.0,1164972.38712458,1925451.36651587,47.0,19.0,6.0,41.95104569474544,-87.66896564865213,"(41.95104569474544, -87.66896564865213)",2012-04-03
24127,04/03/2012,Completed,05/02/2012,12-00709156,Alley Light Out,3233 W CERMAK RD,60623.0,1155034.25660508,1889191.80872646,24.0,10.0,30.0,41.85175176433413,-87.70647176842769,"(41.85175176433413, -87.70647176842769)",2012-04-03
24128,04/03/2012,Completed,05/02/2012,12-00712312,Alley Light Out,1831 W CULLERTON ST,60608.0,1164474.23391886,1890439.40688046,25.0,12.0,31.0,41.85498096393355,-87.67178933726855,"(41.85498096393355, -87.67178933726854)",2012-04-03
24129,04/03/2012,Completed,05/03/2012,12-00712572,Alley Light Out,1417 W TAYLOR ST,60607.0,1167007.34999518,1895687.62018517,2.0,12.0,28.0,41.869328581306014,-87.66234115718832,"(41.869328581306014, -87.66234115718832)",2012-04-03
24130,04/03/2012,Completed,05/04/2012,12-00710071,Alley Light Out,2848 N SPAULDING AVE,60618.0,1153889.03351358,1918757.13400433,35.0,14.0,21.0,41.93290476030898,-87.70988659763218,"(41.93290476030898, -87.70988659763219)",2012-04-03
24131,04/03/2012,Completed,05/07/2012,12-00709317,Alley Light Out,9604 S WINCHESTER AVE,60643.0,1165151.26027457,1840967.17690457,19.0,22.0,72.0,41.71920858427029,-87.67070380933094,"(41.71920858427029, -87.67070380933094)",2012-04-03
24132,04/03/2012,Completed,05/08/2012,12-00707567,Alley Light Out,650 W ARLINGTON PL,60614.0,1171836.99110908,1916643.16238569,43.0,19.0,7.0,41.926726850578135,-87.64399223863985,"(41.92672685057813, -87.64399223863984)",2012-04-03
24133,04/03/2012,Completed,05/09/2012,12-00707732,Alley Light Out,1822 W HENDERSON ST,60657.0,1163514.16739216,1922272.75992592,32.0,19.0,5.0,41.9423543261216,-87.67441580483391,"(41.942354326121595, -87.6744158048339)",2012-04-03
24134,04/03/2012,Completed,05/10/2012,12-00713391,Alley Light Out,3019 W 104TH ST,60655.0,1157913.98660239,1835513.77548966,19.0,22.0,74.0,41.70439328594801,-87.69735939412035,"(41.70439328594801, -87.69735939412034)",2012-04-03
24135,04/03/2012,Completed,05/15/2012,12-00707683,Alley Light Out,12446 S EGGLESTON AVE,60628.0,1175553.95012948,1822378.09658678,34.0,5.0,53.0,41.66797133321413,-87.6331555547615,"(41.66797133321413, -87.6331555547615)",2012-04-03
24136,04/03/2012,Completed,05/21/2012,12-00707752,Alley Light Out,4346 N KENMORE AVE,60613.0,1168386.54342248,1929010.76790646,46.0,19.0,3.0,41.960739516215035,-87.65631207308523,"(41.96073951621503, -87.65631207308523)",2012-04-03
24137,04/03/2012,Completed,05/23/2012,12-00707705,Alley Light Out,1801 W WARNER AVE,60613.0,1163501.25998684,1927594.04997182,47.0,19.0,5.0,41.956956487618854,-87.67431285872793,"(41.95695648761885, -87.67431285872793)",2012-04-03
24138,04/03/2012,Completed,06/06/2012,12-00707839,Alley Light Out,713 W 57TH ST,60621.0,1172467.18869003,1867077.01551251,20.0,7.0,68.0,41.79069964319577,-87.6431406719546,"(41.79069964319577, -87.6431406719546)",2012-04-03
24139,04/03/2012,Completed,06/11/2012,12-00707704,Alley Light Out,2327 W DIVERSEY AVE,60647.0,1160356.89000105,1918545.69892007,1.0,14.0,22.0,41.932193047342274,-87.68612364038141,"(41.93219304734227, -87.68612364038142)",2012-04-03
24429,04/04/2012,Completed - Dup,04/04/2012,12-00713617,Alley Light Out,338 E 103RD ST,60628.0,1180428.2065692,1836748.66782509,9.0,5.0,49.0,41.70729616401782,-87.61487834994024,"(41.70729616401782, -87.61487834994024)",2012-04-04
24430,04/04/2012,Completed - Dup,04/04/2012,12-00716078,Alley Light Out,10530 S EGGLESTON AVE,60628.0,1175148.67409974,1835078.26478293,34.0,22.0,49.0,41.702831584156755,-87.63426160495025,"(41.70283158415675, -87.63426160495025)",2012-04-04
24431,04/04/2012,Completed - Dup,04/04/2012,12-00717259,Alley Light Out,7951 S COLFAX AVE,60617.0,1194896.77589845,1852749.4501182998,7.0,4.0,46.0,41.75086026352261,-87.56136970538596,"(41.750860263522604, -87.56136970538596)",2012-04-04
24432,04/04/2012,Completed - Dup,04/04/2012,12-00717624,Alley Light Out,3644 N HAMILTON AVE,60618.0,1161376.90712602,1924177.35556962,47.0,19.0,5.0,41.94762545870623,-87.68221801865586,"(41.94762545870623, -87.68221801865586)",2012-04-04
24433,04/04/2012,Completed - Dup,04/04/2012,12-00717698,Alley Light Out,1412 W CHASE AVE,60626.0,1165498.4107247,1948363.69476934,49.0,24.0,1.0,42.01390661938975,-87.6663761818639,"(42.01390661938975, -87.6663761818639)",2012-04-04
24434,04/04/2012,Completed - Dup,04/05/2012,12-00719359,Alley Light Out,332 W 107TH PL,60628.0,1176040.48989945,1833640.78428484,34.0,5.0,49.0,41.69886701710766,-87.63103893027859,"(41.69886701710766, -87.63103893027858)",2012-04-04
24435,04/04/2012,Completed - Dup,04/05/2012,12-00719627,Alley Light Out,10831 S VERNON AVE,60628.0,1181166.06997828,1833235.46339266,9.0,5.0,49.0,41.697638538044,-87.6122840256725,"(41.697638538044004, -87.6122840256725)",2012-04-04
24436,04/04/2012,Completed - Dup,04/05/2012,12-00719635,Alley Light Out,1404 W 112TH PL,60643.0,1168968.81922455,1830111.24343045,34.0,22.0,75.0,41.689336701524304,-87.65703352588099,"(41.689336701524304, -87.65703352588099)",2012-04-04
24437,04/04/2012,Completed - Dup,04/09/2012,12-00713927,Alley Light Out,2833 W 36TH ST,60632.0,1157948.71000424,1880646.76041532,12.0,9.0,58.0,41.82824428907069,-87.69600765313406,"(41.82824428907069, -87.69600765313407)",2012-04-04
24438,04/04/2012,Completed - Dup,04/09/2012,12-00719596,Alley Light Out,2833 W 36TH ST,60632.0,1157948.71000424,1880646.76041532,12.0,9.0,58.0,41.82824428907069,-87.69600765313406,"(41.82824428907069, -87.69600765313407)",2012-04-04
24439,04/04/2012,Completed - Dup,04/10/2012,12-00714665,Alley Light Out,4333 W CORTEZ ST,60651.0,1147259.41012833,1906644.26007043,37.0,11.0,23.0,41.899795549687454,-87.73456084631611,"(41.899795549687454, -87.73456084631611)",2012-04-04
24440,04/04/2012,Completed - Dup,04/10/2012,12-00714673,Alley Light Out,4321 W CORTEZ ST,60651.0,1147334.11012833,1906646.26007043,37.0,11.0,23.0,41.899799606891904,-87.73428641855878,"(41.899799606891904, -87.7342864185588)",2012-04-04
24441,04/04/2012,Completed - Dup,04/10/2012,12-00715046,Alley Light Out,1835 W HOOD AVE,60660.0,1162970.61701306,1940781.91989654,40.0,24.0,2.0,41.99315570319528,-87.67589157116991,"(41.99315570319528, -87.6758915711699)",2012-04-04
24442,04/04/2012,Completed - Dup,04/10/2012,12-00715681,Alley Light Out,4814 W CORTEZ ST,60651.0,1143984.32198063,1906546.34511195,37.0,15.0,25.0,41.89958895562986,-87.74659287160164,"(41.89958895562986, -87.74659287160164)",2012-04-04
24443,04/04/2012,Completed - Dup,04/10/2012,12-00718911,Alley Light Out,5434 S NEW ENGLAND AVE,60638.0,1131306.91938064,1867762.62089132,23.0,8.0,56.0,41.79338869739844,-87.79405231235937,"(41.79338869739844, -87.79405231235937)",2012-04-04
24444,04/04/2012,Completed - Dup,04/11/2012,12-00715620,Alley Light Out,7334 S DREXEL AVE,60619.0,1183339.55628411,1856571.76352023,6.0,3.0,69.0,41.76162582541011,-87.60360158359913,"(41.761625825410114, -87.60360158359912)",2012-04-04
24445,04/04/2012,Completed - Dup,04/11/2012,12-00715958,Alley Light Out,6132 N NAPLES AVE,60631.0,1131905.74748895,1940528.24011152,41.0,16.0,10.0,41.993057149486454,-87.79016725155834,"(41.993057149486454, -87.79016725155834)",2012-04-04
24446,04/04/2012,Completed - Dup,04/11/2012,12-00719450,Alley Light Out,1435 N KILDARE AVE,60651.0,1147451.64681869,1909165.32312471,37.0,25.0,23.0,41.90670992544983,-87.73379003527646,"(41.90670992544983, -87.73379003527646)",2012-04-04
24447,04/04/2012,Completed - Dup,04/11/2012,12-00719451,Alley Light Out,1435 N KILDARE AVE,60651.0,1147451.64681869,1909165.32312471,37.0,25.0,23.0,41.90670992544983,-87.73379003527646,"(41.90670992544983, -87.73379003527646)",2012-04-04
24448,04/04/2012,Completed - Dup,04/13/2012,12-00719521,Alley Light Out,1507 N KEYSTONE AVE,60651.0,1149106.87008278,1909715.13419552,30.0,25.0,23.0,41.90818675411128,-87.72769541519385,"(41.90818675411128, -87.72769541519385)",2012-04-04
24449,04/04/2012,Completed - Dup,04/18/2012,12-00717413,Alley Light Out,5931 W LAWRENCE AVE,60630.0,1135812.66009558,1931301.32803421,45.0,16.0,15.0,41.96766879497983,-87.77601677053231,"(41.96766879497983, -87.7760167705323)",2012-04-04
24450,04/04/2012,Completed - Dup,04/19/2012,12-00719512,Alley Light Out,10057 S GREEN ST,60643.0,1172421.15687197,1838146.69529604,34.0,22.0,73.0,41.711312139698975,-87.6441591616323,"(41.711312139698975, -87.64415916163232)",2012-04-04
24451,04/04/2012,Completed - Dup,04/23/2012,12-00714540,Alley Light Out,7355 S ARTESIAN AVE,60629.0,1161316.27559798,1855809.58318905,18.0,8.0,66.0,41.76001861522383,-87.68434026140442,"(41.76001861522383, -87.68434026140442)",2012-04-04
24452,04/04/2012,Completed - Dup,04/25/2012,12-00719603,Alley Light Out,355 E 89TH PL,60619.0,1180153.44151591,1845718.46819315,6.0,6.0,44.0,41.73191672254572,-87.61561069560994,"(41.73191672254572, -87.61561069560996)",2012-04-04
24453,04/04/2012,Completed - Dup,04/27/2012,12-00713698,Alley Light Out,7251 W THORNDALE AVE,60631.0,1126882.57739942,1938583.38988554,41.0,16.0,10.0,41.98780623187184,-87.80868853765976,"(41.987806231871836, -87.80868853765976)",2012-04-04
24454,04/04/2012,Completed - Dup,04/30/2012,12-00715615,Alley Light Out,2157 N MEADE AVE,60639.0,1135389.25229485,1913631.10007938,29.0,25.0,19.0,41.91918736007555,-87.77799456329917,"(41.919187360075554, -87.77799456329919)",2012-04-04
24455,04/04/2012,Completed - Dup,05/09/2012,12-00714615,Alley Light Out,6130 N NAPLES AVE,60631.0,1131915.14748895,1940521.14011152,41.0,16.0,10.0,41.99303750284903,-87.7901328399052,"(41.99303750284902, -87.79013283990521)",2012-04-04
24456,04/04/2012,Completed - Dup,05/10/2012,12-00719519,Alley Light Out,10630 S ALBANY AVE,60655.0,1157537.59651438,1833974.12063396,19.0,22.0,74.0,41.70017581163968,-87.69877923024995,"(41.700175811639674, -87.69877923024995)",2012-04-04
24457,04/04/2012,Completed - Dup,08/21/2012,12-00713996,Alley Light Out,5420 N SAYRE AVE,60656.0,,,41.0,16.0,10.0,,,,2012-04-04
24458,04/04/2012,Completed,04/04/2012,12-00713863,Alley Light Out,3123 W PALMER BLVD,60647.0,1155057.1401933997,1914308.47579456,35.0,14.0,22.0,41.920673904281024,-87.70571355691202,"(41.920673904281024, -87.70571355691202)",2012-04-04
24459,04/04/2012,Completed,04/04/2012,12-00713871,Alley Light Out,3101 W PALMER BLVD,60647.0,1155164.3401934,1914310.37579456,35.0,14.0,22.0,41.92067696445209,-87.70531962917049,"(41.920676964452085, -87.7053196291705)",2012-04-04
24460,04/04/2012,Completed,04/04/2012,12-00713885,Alley Light Out,3111 W PALMER BLVD,60647.0,1155115.6401933997,1914309.47579456,35.0,14.0,22.0,41.92067547330012,-87.70549858800955,"(41.92067547330012, -87.70549858800955)",2012-04-04
24461,04/04/2012,Completed,04/04/2012,12-00713893,Alley Light Out,2122 N ALBANY AVE,60647.0,1155178.45321233,1913905.00122614,35.0,14.0,22.0,41.91956430000316,-87.70527868296806,"(41.91956430000316, -87.70527868296807)",2012-04-04
24462,04/04/2012,Completed,04/04/2012,12-00713900,Alley Light Out,2035 N KEDZIE AVE,60647.0,1154712.2057768998,1913473.60301162,35.0,14.0,22.0,41.918389864747965,-87.70700332641636,"(41.91838986474797, -87.70700332641636)",2012-04-04
24463,04/04/2012,Completed,04/04/2012,12-00713911,Alley Light Out,2021 N KEDZIE AVE,60647.0,1154716.5057768999,1913347.80301162,35.0,14.0,22.0,41.91804457289845,-87.70699090347998,"(41.918044572898445, -87.70699090347998)",2012-04-04
24464,04/04/2012,Completed,04/04/2012,12-00713922,Alley Light Out,3126 W ARMITAGE AVE,60647.0,1155062.47987465,1913119.56327222,35.0,14.0,22.0,41.91741132337757,-87.70572590655979,"(41.91741132337757, -87.70572590655979)",2012-04-04
24465,04/04/2012,Completed,04/04/2012,12-00713935,Alley Light Out,2604 N EMMETT ST,60647.0,1154561.80131523,1917805.58231893,35.0,14.0,22.0,41.93028017794897,-87.70743975342934,"(41.930280177948966, -87.70743975342934)",2012-04-04
24466,04/04/2012,Completed,04/04/2012,12-00713945,Alley Light Out,2643 N MILWAUKEE AVE,60647.0,1154282.30806796,1917599.17762631,35.0,14.0,22.0,41.92971938139075,-87.70847235607967,"(41.92971938139075, -87.70847235607967)",2012-04-04
24467,04/04/2012,Completed,04/04/2012,12-00713955,Alley Light Out,2610 N EMMETT ST,60647.0,1154537.60131523,1917824.78231893,35.0,14.0,22.0,41.93033334897087,-87.7075281680018,"(41.93033334897087, -87.70752816800179)",2012-04-04
24468,04/04/2012,Completed,04/04/2012,12-00713957,Alley Light Out,2655 N MILWAUKEE AVE,60647.0,1154229.70806796,1917641.67762631,35.0,14.0,22.0,41.92983705647846,-87.7086645097488,"(41.92983705647846, -87.7086645097488)",2012-04-04
24469,04/04/2012,Completed,04/04/2012,12-00714819,Alley Light Out,2626 N EMMETT ST,60647.0,1154472.90131523,1917876.18231893,35.0,14.0,22.0,41.93047569018466,-87.70776454801636,"(41.930475690184664, -87.70776454801636)",2012-04-04
24470,04/04/2012,Completed,04/04/2012,12-00715216,Alley Light Out,2620 N EMMETT ST,60647.0,1154497.20131523,1917856.98231893,35.0,14.0,22.0,41.93042251734103,-87.70767576557193,"(41.93042251734103, -87.70767576557193)",2012-04-04
24471,04/04/2012,Completed,04/04/2012,12-00715240,Alley Light Out,2415 S STEWART AVE,60616.0,1174070.38027788,1888210.84282111,25.0,9.0,34.0,41.848657334689605,-87.6366338493253,"(41.8486573346896, -87.63663384932532)",2012-04-04
24472,04/04/2012,Completed,04/04/2012,12-00715248,Alley Light Out,2618 N EMMETT ST,60647.0,1154505.20131523,1917850.48231893,35.0,14.0,22.0,41.93040452063941,-87.70764654161654,"(41.93040452063941, -87.70764654161653)",2012-04-04
24473,04/04/2012,Completed,04/04/2012,12-00715278,Alley Light Out,2451 S ASHLAND AVE,60608.0,1166089.13010754,1887729.32860987,25.0,12.0,31.0,41.84750996212875,-87.66593927949057,"(41.84750996212874, -87.66593927949056)",2012-04-04
24474,04/04/2012,Completed,04/04/2012,12-00715282,Alley Light Out,2633 N MILWAUKEE AVE,60647.0,1154326.20806796,1917563.67762631,35.0,14.0,22.0,41.929621088567046,-87.70831198581237,"(41.929621088567046, -87.70831198581237)",2012-04-04
24475,04/04/2012,Completed,04/04/2012,12-00715389,Alley Light Out,3109 W PALMER BLVD,60647.0,1155125.3401934,1914309.67579456,35.0,14.0,22.0,41.9206758272381,-87.70546294267301,"(41.9206758272381, -87.70546294267301)",2012-04-04
24476,04/04/2012,Completed,04/04/2012,12-00715444,Alley Light Out,2121 N KEDZIE AVE,60647.0,1154694.31879813,1914033.67461336,35.0,14.0,22.0,41.91992710606853,-87.70705401735836,"(41.91992710606852, -87.70705401735836)",2012-04-04
24477,04/04/2012,Completed,04/04/2012,12-00715842,Alley Light Out,7831 S TRUMBULL AVE,60652.0,1154741.02239948,1852467.55850165,18.0,8.0,70.0,41.750981156084364,-87.70852778945485,"(41.75098115608437, -87.70852778945485)",2012-04-04
24478,04/04/2012,Completed,04/04/2012,12-00719673,Alley Light Out,4629 S LAFLIN ST,60609.0,1167113.49842977,1874039.76327402,3.0,9.0,61.0,41.8099224927104,-87.66257211596373,"(41.8099224927104, -87.66257211596374)",2012-04-04
24479,04/04/2012,Completed,04/04/2012,12-00719676,Alley Light Out,402 E 103RD ST,60628.0,1180752.91278401,1836758.80042195,9.0,5.0,49.0,41.70731652892647,-87.61368897255525,"(41.70731652892647, -87.61368897255525)",2012-04-04
24480,04/04/2012,Completed,04/05/2012,12-00714971,Alley Light Out,3000 N CICERO AVE,60641.0,1143855.34292701,1919515.8382924,31.0,25.0,19.0,41.9351810123218,-87.7467407859977,"(41.9351810123218, -87.74674078599769)",2012-04-04
24481,04/04/2012,Completed,04/06/2012,12-00719562,Alley Light Out,1711 W 100TH PL,60643.0,1166678.72430707,1838051.83241682,19.0,22.0,72.0,41.71117602109921,-87.66519203547043,"(41.71117602109921, -87.66519203547044)",2012-04-04
24482,04/04/2012,Completed,04/10/2012,12-00714829,Alley Light Out,421 W 37TH PL,60609.0,1173936.40003394,1880064.59998461,11.0,9.0,60.0,41.82630634722483,-87.6373678080664,"(41.82630634722483, -87.6373678080664)",2012-04-04
24483,04/04/2012,Completed,04/10/2012,12-00715696,Alley Light Out,6021 N WOLCOTT AVE,60660.0,1162653.73988457,1939985.39229496,40.0,24.0,2.0,41.990976675796425,-87.67707961427527,"(41.99097667579642, -87.67707961427526)",2012-04-04
24484,04/04/2012,Completed,04/10/2012,12-00719528,Alley Light Out,5411 W BELMONT AVE,60641.0,1139678.52326657,1920745.39492889,30.0,25.0,19.0,41.93863243716269,-87.76206086302061,"(41.93863243716269, -87.76206086302061)",2012-04-04
24485,04/04/2012,Completed,04/10/2012,12-00719531,Alley Light Out,3149 N LONG AVE,60641.0,1139813.21529806,1920508.79992505,30.0,25.0,19.0,41.937980732472184,-87.7615716302084,"(41.93798073247219, -87.7615716302084)",2012-04-04
24486,04/04/2012,Completed,04/10/2012,12-00719535,Alley Light Out,5351 W BELMONT AVE,60641.0,1140129.42326657,1920755.69492889,30.0,25.0,19.0,41.938652444085065,-87.76040342168017,"(41.938652444085065, -87.76040342168015)",2012-04-04
24487,04/04/2012,Completed,04/11/2012,12-00713889,Alley Light Out,6033 S CHAMPLAIN AVE,60637.0,1181602.42997382,1865148.86998735,20.0,3.0,42.0,41.78520250557333,-87.60970375231115,"(41.78520250557333, -87.60970375231116)",2012-04-04
24488,04/04/2012,Completed,04/11/2012,12-00716056,Alley Light Out,5815 S MORGAN ST,60621.0,1170640.06081331,1866185.8521708,16.0,7.0,68.0,41.788294245871505,-87.64986626711634,"(41.78829424587151, -87.64986626711634)",2012-04-04
24489,04/04/2012,Completed,04/11/2012,12-00716089,Alley Light Out,535 E 88TH PL,60619.0,1181359.2936201,1846419.68962098,6.0,6.0,44.0,41.733813279062865,-87.61117165272245,"(41.733813279062865, -87.61117165272245)",2012-04-04
24490,04/04/2012,Completed,04/11/2012,12-00719658,Alley Light Out,2811 W 55TH ST,60632.0,1158526.6547803,1868056.54260649,16.0,8.0,63.0,41.793683337164424,-87.69423073748452,"(41.79368333716442, -87.69423073748452)",2012-04-04
24491,04/04/2012,Completed,04/12/2012,12-00716555,Alley Light Out,4010 W CERMAK RD,60623.0,1149985.9348776,1889079.39371613,24.0,10.0,29.0,41.85154291805157,-87.72500347265058,"(41.851542918051564, -87.7250034726506)",2012-04-04
24492,04/04/2012,Completed,04/12/2012,12-00717650,Alley Light Out,3246 S SPRINGFIELD AVE,60623.0,1150889.33419736,1882793.98482806,22.0,10.0,30.0,41.83427734779968,-87.72185199410113,"(41.83427734779968, -87.72185199410113)",2012-04-04
24493,04/04/2012,Completed,04/13/2012,12-00714661,Alley Light Out,4259 W CORTEZ ST,60651.0,1147790.39301086,1906659.12137715,37.0,11.0,23.0,41.89982614455072,-87.73261014049883,"(41.899826144550715, -87.73261014049883)",2012-04-04
24494,04/04/2012,Completed,04/16/2012,12-00719343,Alley Light Out,9437 S ADA ST,60620.0,1168986.02001435,1842173.20168888,21.0,22.0,73.0,41.7224362458257,-87.65662354625641,"(41.722436245825705, -87.6566235462564)",2012-04-04
24495,04/04/2012,Completed,04/16/2012,12-00719617,Alley Light Out,417 W 96TH ST,60628.0,1175097.30339162,1841246.47008989,21.0,22.0,73.0,41.719759160282976,-87.63426633942991,"(41.71975916028298, -87.6342663394299)",2012-04-04
24496,04/04/2012,Completed,04/16/2012,12-00719625,Alley Light Out,9625 S WALLACE ST,60628.0,1173997.7694145,1841051.74898272,21.0,22.0,73.0,41.7192492480126,-87.63829936544079,"(41.7192492480126, -87.63829936544079)",2012-04-04
24497,04/04/2012,Completed,04/17/2012,12-00717941,Alley Light Out,5151 S NEWCASTLE AVE,60638.0,1131589.805467,1869647.03640531,23.0,8.0,56.0,41.79855500577222,-87.7929715326997,"(41.79855500577222, -87.7929715326997)",2012-04-04
24498,04/04/2012,Completed,04/17/2012,12-00719350,Alley Light Out,5100 S NATOMA AVE,60638.0,1132908.19009937,1870036.95779184,23.0,8.0,56.0,41.799602176029026,-87.78812755967505,"(41.799602176029026, -87.78812755967505)",2012-04-04
24499,04/04/2012,Completed,04/19/2012,12-00715323,Alley Light Out,12200 S ADA ST,60643.0,1169540.19826875,1823856.24098966,34.0,5.0,53.0,41.67215959081537,-87.65512197054225,"(41.67215959081537, -87.65512197054227)",2012-04-04
24500,04/04/2012,Completed,04/19/2012,12-00719445,Alley Light Out,7449 S ROCKWELL ST,60629.0,1160344.52632973,1855100.6076047001,18.0,8.0,66.0,41.758093142887404,-87.68792124665548,"(41.758093142887404, -87.68792124665549)",2012-04-04
24501,04/04/2012,Completed,04/19/2012,12-00719511,Alley Light Out,10057 S GREEN ST,60643.0,1172421.15687197,1838146.69529604,34.0,22.0,73.0,41.711312139698975,-87.6441591616323,"(41.711312139698975, -87.64415916163232)",2012-04-04
24502,04/04/2012,Completed,04/19/2012,12-00719616,Alley Light Out,1406 W 112TH PL,60643.0,1168948.21922455,1830110.84343045,34.0,22.0,75.0,41.689336047641966,-87.65710895384822,"(41.689336047641966, -87.65710895384824)",2012-04-04
24503,04/04/2012,Completed,04/19/2012,12-00719653,Alley Light Out,1237 W 110TH PL,60643.0,1170046.75308702,1831505.1257708,34.0,22.0,75.0,41.69313845035895,-87.65304691847203,"(41.69313845035895, -87.65304691847201)",2012-04-04
24504,04/04/2012,Completed,04/19/2012,12-00719681,Alley Light Out,10027 S MORGAN ST,60643.0,1171418.6800788,1838326.0326086003,34.0,22.0,73.0,41.71182622749321,-87.6478252360098,"(41.711826227493205, -87.64782523600978)",2012-04-04
24505,04/04/2012,Completed,04/20/2012,12-00717481,Alley Light Out,1246 W RACE AVE,60642.0,1167770.99379213,1903883.56013242,27.0,13.0,24.0,41.8918024443766,-87.65930131543602,"(41.8918024443766, -87.65930131543602)",2012-04-04
24506,04/04/2012,Completed,04/20/2012,12-00718866,Alley Light Out,1510 W CORTEZ ST,60642.0,1166116.17051277,1907095.28202387,27.0,13.0,24.0,41.9006511487744,-87.66528687222862,"(41.9006511487744, -87.66528687222862)",2012-04-04
24507,04/04/2012,Completed,04/20/2012,12-00719711,Alley Light Out,11631 S AVENUE J,60617.0,1202577.53596908,1828455.35979885,10.0,4.0,52.0,41.68400288037035,-87.53405085724913,"(41.68400288037035, -87.53405085724913)",2012-04-04
24508,04/04/2012,Completed,04/23/2012,12-00713679,Alley Light Out,8556 S ASHLAND AVE,60620.0,1167164.25683011,1847977.49609833,18.0,6.0,71.0,41.7384032009586,-87.6631308962493,"(41.7384032009586, -87.6631308962493)",2012-04-04
24509,04/04/2012,Completed,04/23/2012,12-00715770,Alley Light Out,2839 W 82ND ST,60652.0,1158769.34720782,1850121.65438052,18.0,8.0,70.0,41.744462401449844,-87.69382978746265,"(41.744462401449844, -87.69382978746266)",2012-04-04
24510,04/04/2012,Completed,04/23/2012,12-00717001,Alley Light Out,3914 W 70TH PL,60629.0,1151488.33468685,1857565.19522424,13.0,8.0,65.0,41.765034122550546,-87.72031427236915,"(41.76503412255055, -87.72031427236915)",2012-04-04
24511,04/04/2012,Completed,04/23/2012,12-00719656,Alley Light Out,11253 S HERMOSA AVE,60643.0,1165880.27291175,1829946.8067313998,19.0,22.0,75.0,41.68895144272408,-87.6683453406758,"(41.68895144272408, -87.6683453406758)",2012-04-04
24512,04/04/2012,Completed,04/27/2012,12-00719203,Alley Light Out,6433 S DAMEN AVE,60636.0,1164133.62919755,1861989.39696773,15.0,7.0,67.0,41.77691808181592,-87.67384093080194,"(41.776918081815914, -87.67384093080193)",2012-04-04
24513,04/04/2012,Completed,04/30/2012,12-00717684,Alley Light Out,1408 W CHASE AVE,60626.0,1165519.6107247,1948364.39476934,49.0,24.0,1.0,42.01390808691608,-87.66629815523098,"(42.013908086916075, -87.66629815523099)",2012-04-04
24514,04/04/2012,Completed,04/30/2012,12-00717708,Alley Light Out,7360 N GREENVIEW AVE,60626.0,1165022.53508542,1948888.09837829,49.0,24.0,1.0,42.015355752179296,-87.66811219742512,"(42.015355752179296, -87.66811219742512)",2012-04-04
24515,04/04/2012,Completed,05/04/2012,12-00719655,Alley Light Out,3350 N NAGLE AVE,60634.0,1132795.74331392,1921248.52251375,36.0,16.0,17.0,41.94013615098145,-87.78734538404076,"(41.94013615098145, -87.78734538404076)",2012-04-04
24516,04/04/2012,Completed,05/07/2012,12-00715316,Alley Light Out,1627 E 74TH PL,60649.0,1188381.2237894,1855908.87207856,8.0,3.0,43.0,41.75968794304672,-87.58514476775173,"(41.75968794304672, -87.58514476775173)",2012-04-04
24517,04/04/2012,Completed,05/07/2012,12-00718990,Alley Light Out,6820 W DICKENS AVE,60707.0,1130518.96003268,1913212.09061953,36.0,25.0,25.0,41.91812269485946,-87.79589860494595,"(41.91812269485946, -87.79589860494593)",2012-04-04
24782,04/05/2012,Completed - Dup,04/05/2012,12-00719738,Alley Light Out,3346 N NAGLE AVE,60634.0,1132784.34331392,1921559.82251375,36.0,16.0,17.0,41.9409905922848,-87.7873799966857,"(41.9409905922848, -87.78737999668569)",2012-04-05
24783,04/05/2012,Completed - Dup,04/05/2012,12-00722516,Alley Light Out,6757 S JEFFERY BLVD,60649.0,1190708.74772659,1860563.15996615,5.0,3.0,43.0,41.772403817603,-87.57646446462981,"(41.772403817603, -87.5764644646298)",2012-04-05
24784,04/05/2012,Completed - Dup,04/05/2012,12-00723374,Alley Light Out,10529 S PRAIRIE AVE,60628.0,1179777.07040245,1835205.2156008,9.0,5.0,49.0,41.703075605836545,-87.61730979331955,"(41.703075605836545, -87.61730979331954)",2012-04-05
24785,04/05/2012,Completed - Dup,04/05/2012,12-00724523,Alley Light Out,3144 W WARREN BLVD,60612.0,1155414.58472448,1900181.62720982,28.0,13.0,27.0,41.881901372758094,-87.70478052590498,"(41.88190137275809, -87.70478052590498)",2012-04-05
24786,04/05/2012,Completed - Dup,04/05/2012,12-00725322,Alley Light Out,3959 S TALMAN AVE,60632.0,1159378.00998473,1878239.95990051,12.0,9.0,58.0,41.82161052472864,-87.69082969787061,"(41.821610524728634, -87.69082969787063)",2012-04-05
24787,04/05/2012,Completed - Dup,04/05/2012,12-00725357,Alley Light Out,11357 S PARNELL AVE,60628.0,1174666.90710978,1829577.94839556,34.0,22.0,49.0,41.687748604476546,-87.63618872735644,"(41.68774860447655, -87.63618872735644)",2012-04-05
24788,04/05/2012,Completed - Dup,04/06/2012,12-00725415,Alley Light Out,8112 S ST LAWRENCE AVE,60619.0,1181645.29047153,1851345.1742133,6.0,6.0,44.0,41.74732277856064,-87.6099722329433,"(41.74732277856064, -87.60997223294332)",2012-04-05
24789,04/05/2012,Completed - Dup,04/09/2012,12-00719813,Alley Light Out,2833 W 36TH ST,60632.0,1157948.71000424,1880646.76041532,12.0,9.0,58.0,41.82824428907069,-87.69600765313406,"(41.82824428907069, -87.69600765313407)",2012-04-05
24790,04/05/2012,Completed - Dup,04/09/2012,12-00725447,Alley Light Out,2833 W 36TH ST,60632.0,1157948.71000424,1880646.76041532,12.0,9.0,58.0,41.82824428907069,-87.69600765313406,"(41.82824428907069, -87.69600765313407)",2012-04-05
24791,04/05/2012,Completed - Dup,04/11/2012,12-00719846,Alley Light Out,2748 W WARREN BLVD,60612.0,1158053.48009569,1900238.81360414,2.0,13.0,27.0,41.88200485253478,-87.69508895431898,"(41.882004852534784, -87.69508895431898)",2012-04-05
24792,04/05/2012,Completed - Dup,04/11/2012,12-00721240,Alley Light Out,536 E 89TH ST,60619.0,1181375.33800848,1846087.52357338,6.0,6.0,44.0,41.732901406892815,-87.61112308541071,"(41.73290140689281, -87.61112308541072)",2012-04-05
24793,04/05/2012,Completed - Dup,04/11/2012,12-00721830,Alley Light Out,7233 S PRAIRIE AVE,60619.0,1179291.38372639,1857116.85577703,6.0,3.0,69.0,41.76321489610129,-87.61842180083637,"(41.76321489610129, -87.61842180083637)",2012-04-05
24794,04/05/2012,Completed - Dup,04/11/2012,12-00725348,Alley Light Out,5629 S NORMANDY AVE,60638.0,1132680.22542983,1866483.06170599,23.0,8.0,56.0,41.789853600744244,-87.78904610531225,"(41.78985360074424, -87.78904610531225)",2012-04-05
24795,04/05/2012,Completed - Dup,04/16/2012,12-00722332,Alley Light Out,4312 W ADAMS ST,60624.0,1147678.14728207,1898662.64747428,28.0,11.0,26.0,41.877885090569045,-87.73322783311481,"(41.87788509056905, -87.73322783311482)",2012-04-05
24796,04/05/2012,Completed - Dup,04/16/2012,12-00723544,Alley Light Out,8116 S ST LAWRENCE AVE,60619.0,1181646.09047153,1851318.2742132999,6.0,6.0,44.0,41.747248943537045,-87.60997013018849,"(41.747248943537045, -87.60997013018849)",2012-04-05
24797,04/05/2012,Completed - Dup,04/17/2012,12-00724904,Alley Light Out,12643 S ESCANABA AVE,60633.0,1197380.78782314,1821592.93561521,10.0,4.0,51.0,41.665302367585575,-87.55330149221413,"(41.66530236758558, -87.55330149221413)",2012-04-05
24798,04/05/2012,Completed - Dup,04/19/2012,12-00719782,Alley Light Out,11713 S ASHLAND AVE,60643.0,1167782.78043009,1827043.73002951,34.0,5.0,53.0,41.680944392846655,-87.66146319119642,"(41.68094439284666, -87.66146319119642)",2012-04-05
24799,04/05/2012,Completed - Dup,04/19/2012,12-00721618,Alley Light Out,10057 S GREEN ST,60643.0,1172421.15687197,1838146.69529604,34.0,22.0,73.0,41.711312139698975,-87.6441591616323,"(41.711312139698975, -87.64415916163232)",2012-04-05
24800,04/05/2012,Completed - Dup,04/25/2012,12-00725353,Alley Light Out,355 E 89TH PL,60619.0,1180153.44151591,1845718.46819315,6.0,6.0,44.0,41.73191672254572,-87.61561069560994,"(41.73191672254572, -87.61561069560996)",2012-04-05
24801,04/05/2012,Completed - Dup,04/27/2012,12-00721189,Alley Light Out,4600 S KNOX AVE,60632.0,1146128.26999221,1873727.31996717,23.0,8.0,56.0,41.809488770497815,-87.73955166195368,"(41.80948877049781, -87.73955166195367)",2012-04-05
24802,04/05/2012,Completed - Dup,05/15/2012,12-00720738,Alley Light Out,1060 W 107TH PL,60643.0,1171158.59998512,1833522.4899203999,34.0,22.0,75.0,41.698650247430436,-87.64891753024797,"(41.69865024743044, -87.64891753024797)",2012-04-05
24803,04/05/2012,Completed,04/05/2012,12-00720092,Alley Light Out,3221 S NORMAL AVE,60616.0,1173484.87441783,1883569.08701688,11.0,9.0,60.0,41.83593299109452,-87.63892042124162,"(41.835932991094516, -87.63892042124162)",2012-04-05
24804,04/05/2012,Completed,04/05/2012,12-00720527,Alley Light Out,3517 W MELROSE ST,60618.0,1152405.49999235,1921389.46003354,35.0,17.0,21.0,41.940157543735964,-87.71526873750284,"(41.940157543735964, -87.71526873750284)",2012-04-05
24805,04/05/2012,Completed,04/05/2012,12-00720534,Alley Light Out,3456 W BELMONT AVE,60618.0,1152699.97989922,1921062.29427694,35.0,17.0,21.0,41.939253944487646,-87.71419510635117,"(41.93925394448765, -87.71419510635117)",2012-04-05
24806,04/05/2012,Completed,04/05/2012,12-00720538,Alley Light Out,3442 W BELMONT AVE,60618.0,1152766.07989922,1921063.79427694,35.0,17.0,21.0,41.9392567503235,-87.71395212954903,"(41.9392567503235, -87.71395212954903)",2012-04-05
24807,04/05/2012,Completed,04/05/2012,12-00720560,Alley Light Out,3424 W BELMONT AVE,60618.0,1152889.17989922,1921066.89427694,35.0,17.0,21.0,41.93926281541829,-87.71349961842344,"(41.93926281541829, -87.71349961842344)",2012-04-05
24808,04/05/2012,Completed,04/05/2012,12-00720564,Alley Light Out,3412 W BELMONT AVE,60618.0,1153026.30621084,1921070.95102311,35.0,17.0,21.0,41.93927122560185,-87.71299553095925,"(41.939271225601864, -87.71299553095925)",2012-04-05
24809,04/05/2012,Completed,04/05/2012,12-00720571,Alley Light Out,3402 W BELMONT AVE,60618.0,1153140.50621084,1921074.25102311,35.0,17.0,21.0,41.93927801259367,-87.7125757244878,"(41.93927801259367, -87.71257572448779)",2012-04-05
24810,04/05/2012,Completed,04/05/2012,12-00720574,Alley Light Out,2420 N LAWNDALE AVE,60647.0,1151308.36799705,1915835.72458606,35.0,25.0,22.0,41.92493926951508,-87.71944723407385,"(41.92493926951508, -87.71944723407384)",2012-04-05
24811,04/05/2012,Completed,04/05/2012,12-00720585,Alley Light Out,2415 S HAMLIN AVE,60623.0,1151422.13891332,1887692.44491672,22.0,10.0,30.0,41.847708919618476,-87.719768580794,"(41.84770891961848, -87.71976858079398)",2012-04-05
24812,04/05/2012,Completed,04/05/2012,12-00720592,Alley Light Out,3005 W LOGAN BLVD,60647.0,1155874.96901599,1917138.05013232,35.0,14.0,22.0,41.928422012954826,-87.70263220522406,"(41.928422012954826, -87.70263220522405)",2012-04-05
24813,04/05/2012,Completed,04/05/2012,12-00720594,Alley Light Out,3523 W MELROSE ST,60618.0,1152341.44780776,1921387.86989204,35.0,17.0,21.0,41.940154447281635,-87.71550419365589,"(41.94015444728163, -87.71550419365589)",2012-04-05
24814,04/05/2012,Completed,04/05/2012,12-00721355,Alley Light Out,4348 S SHIELDS AVE,60609.0,1174700.48638952,1876031.60019514,3.0,9.0,37.0,41.8152224141482,-87.63468486171999,"(41.815222414148195, -87.63468486171999)",2012-04-05
24815,04/05/2012,Completed,04/05/2012,12-00725136,Alley Light Out,3342 S PARNELL AVE,60616.0,1173175.42273108,1882741.18230175,11.0,9.0,60.0,41.833668008410676,-87.64008041668112,"(41.83366800841068, -87.64008041668113)",2012-04-05
24816,04/05/2012,Completed,04/05/2012,12-00725199,Alley Light Out,1647 N HARDING AVE,60647.0,1149796.40671674,1910660.2202996002,30.0,25.0,23.0,41.91076677414202,-87.7251377712455,"(41.91076677414202, -87.7251377712455)",2012-04-05
24817,04/05/2012,Completed,04/05/2012,12-00725202,Alley Light Out,2545 N SPRINGFIELD AVE,60647.0,1149947.7173,1916831.74945,30.0,25.0,22.0,41.92769907127256,-87.72442092675688,"(41.927699071272556, -87.72442092675688)",2012-04-05
24818,04/05/2012,Completed,04/05/2012,12-00725204,Alley Light Out,2817 N RIDGEWAY AVE,60618.0,1150903.36323173,1918471.86440154,30.0,25.0,21.0,41.932181009346564,-87.72086622392034,"(41.93218100934656, -87.72086622392035)",2012-04-05
24819,04/05/2012,Completed,04/05/2012,12-00725205,Alley Light Out,2845 N RIDGEWAY AVE,60618.0,1150898.66323173,1918660.06440154,30.0,25.0,21.0,41.93269753801722,-87.72087855538494,"(41.93269753801723, -87.72087855538493)",2012-04-05
24820,04/05/2012,Completed,04/05/2012,12-00725206,Alley Light Out,3401 N SPRINGFIELD AVE,60618.0,1149792.99921238,1922328.05939852,30.0,17.0,21.0,41.942784423006145,-87.72484611030005,"(41.942784423006145, -87.72484611030004)",2012-04-05
24821,04/05/2012,Completed,04/06/2012,12-00719917,Alley Light Out,65 E 89TH PL,60619.0,1178516.03820078,1845673.01400965,6.0,6.0,44.0,41.73182930193923,-87.62161050571238,"(41.73182930193923, -87.62161050571237)",2012-04-05
24822,04/05/2012,Completed,04/09/2012,12-00719891,Alley Light Out,5144 S OAK PARK AVE,60638.0,1131921.01999994,1869690.5300068,23.0,8.0,56.0,41.79866864015681,-87.79175586633558,"(41.79866864015681, -87.79175586633558)",2012-04-05
24823,04/05/2012,Completed,04/10/2012,12-00720696,Alley Light Out,532 W 32ND ST,60616.0,1173149.71468993,1883700.89771719,11.0,9.0,60.0,41.83630211954878,-87.64014632735235,"(41.83630211954878, -87.64014632735235)",2012-04-05
24824,04/05/2012,Completed,04/11/2012,12-00722605,Alley Light Out,7121 N OZANAM AVE,60631.0,1123412.46052551,1946539.87791222,41.0,16.0,9.0,42.00969724629605,-87.8212771467894,"(42.00969724629605, -87.82127714678941)",2012-04-05
24825,04/05/2012,Completed,04/11/2012,12-00722647,Alley Light Out,1022 W WOLFRAM ST,60657.0,1168976.955114,1919101.85410583,44.0,19.0,6.0,41.93353623383665,-87.65442998884029,"(41.93353623383665, -87.6544299888403)",2012-04-05
24826,04/05/2012,Completed,04/11/2012,12-00725029,Alley Light Out,5515 S MOZART ST,60629.0,1158314.82981031,1867949.47577581,16.0,8.0,63.0,41.793393849844044,-87.6950104048924,"(41.79339384984404, -87.69501040489241)",2012-04-05
24827,04/05/2012,Completed,04/12/2012,12-00721663,Alley Light Out,6058 S NAGLE AVE,60638.0,1134442.86026799,1863662.48899004,23.0,8.0,64.0,41.78208262686347,-87.78264912549201,"(41.78208262686347, -87.78264912549201)",2012-04-05
24828,04/05/2012,Completed,04/12/2012,12-00721751,Alley Light Out,6212 S NEENAH AVE,60638.0,1133811.57821742,1862619.97148141,23.0,8.0,64.0,41.77923283426413,-87.78498800109054,"(41.779232834264135, -87.78498800109054)",2012-04-05
24829,04/05/2012,Completed,04/12/2012,12-00722225,Alley Light Out,5615 W 64TH PL,60638.0,1140093.91946995,1861235.96308788,13.0,8.0,64.0,41.775322627392455,-87.76198952175758,"(41.77532262739245, -87.76198952175758)",2012-04-05
24830,04/05/2012,Completed,04/12/2012,12-00722228,Alley Light Out,6247 W 63RD PL,60638.0,1135858.07101546,1861764.03837088,23.0,8.0,64.0,41.776847939357616,-87.77750545945688,"(41.77684793935762, -87.77750545945688)",2012-04-05
24831,04/05/2012,Completed,04/12/2012,12-00722240,Alley Light Out,6011 S MAJOR AVE,60638.0,1139423.387969,1864140.8707166,13.0,8.0,64.0,41.78330641096001,-87.76437720034298,"(41.78330641096001, -87.76437720034299)",2012-04-05
24832,04/05/2012,Completed,04/16/2012,12-00721876,Alley Light Out,8044 S COLFAX AVE,60617.0,1194914.35853126,1851947.29107114,7.0,4.0,46.0,41.7486586430624,-87.56133164975425,"(41.7486586430624, -87.56133164975425)",2012-04-05
24833,04/05/2012,Completed,04/17/2012,12-00723649,Alley Light Out,4722 W ALTGELD ST,60639.0,1144492.59108795,1916267.03319957,31.0,25.0,19.0,41.926253989660566,-87.74448084746314,"(41.92625398966056, -87.74448084746312)",2012-04-05
24834,04/05/2012,Completed,04/17/2012,12-00724645,Alley Light Out,4600 W WEST END AVE,60644.0,1145771.0858302,1900582.22833148,28.0,11.0,26.0,41.88318902455415,-87.74018145427277,"(41.88318902455415, -87.74018145427276)",2012-04-05
24835,04/05/2012,Completed,04/18/2012,12-00720391,Alley Light Out,115 E 111TH ST,60628.0,1178948.37827853,1831386.57750363,9.0,5.0,49.0,41.692615594143575,-87.62045998602451,"(41.69261559414357, -87.62045998602451)",2012-04-05
24836,04/05/2012,Completed,04/18/2012,12-00721367,Alley Light Out,5662 N NEVA AVE,60631.0,1127810.4289962,1937286.43561237,41.0,16.0,10.0,41.98423161417153,-87.80530517462977,"(41.98423161417152, -87.80530517462977)",2012-04-05
24837,04/05/2012,Completed,04/18/2012,12-00724479,Alley Light Out,4400 N KEYSTONE AVE,60630.0,1148605.9399998002,1928933.66032073,39.0,17.0,14.0,41.96093375063146,-87.72903796476334,"(41.96093375063146, -87.72903796476335)",2012-04-05
24838,04/05/2012,Completed,04/19/2012,12-00724605,Alley Light Out,5315 S PEORIA ST,60609.0,1171207.31227064,1869496.41002933,20.0,9.0,61.0,41.79736639048652,-87.64768956564609,"(41.797366390486516, -87.64768956564609)",2012-04-05
24839,04/05/2012,Completed,04/19/2012,12-00725369,Alley Light Out,5650 N SPAULDING AVE,60659.0,1153356.22720412,1937449.76748461,39.0,17.0,13.0,41.98420920105389,-87.71134601679682,"(41.984209201053886, -87.71134601679682)",2012-04-05
24840,04/05/2012,Completed,04/19/2012,12-00725416,Alley Light Out,265 W 104TH PL,60628.0,1176329.13387736,1835640.86086818,34.0,5.0,49.0,41.704349051971285,-87.62992224263283,"(41.70434905197128, -87.62992224263283)",2012-04-05
24841,04/05/2012,Completed,04/19/2012,12-00725522,Alley Light Out,6326 N ARTESIAN AVE,60659.0,1158836.96580011,1941922.00692902,50.0,24.0,2.0,41.996370220810725,-87.69106523481682,"(41.99637022081073, -87.69106523481682)",2012-04-05
24842,04/05/2012,Completed,04/23/2012,12-00720562,Alley Light Out,4952 S LA CROSSE AVE,60638.0,1144861.78971519,1871353.68837191,23.0,8.0,56.0,41.802999073462075,-87.74425664083977,"(41.802999073462075, -87.74425664083977)",2012-04-05
24843,04/05/2012,Completed,04/23/2012,12-00721269,Alley Light Out,4700 S LAVERGNE AVE,60638.0,1143816.51419923,1873007.2278195,23.0,8.0,56.0,41.80755624193335,-87.74804891330854,"(41.80755624193334, -87.74804891330855)",2012-04-05
24844,04/05/2012,Completed,04/23/2012,12-00721946,Alley Light Out,4947 S LAMON AVE,60638.0,1144527.8596333999,1871379.13037992,23.0,8.0,56.0,41.80307516406052,-87.74548069754148,"(41.80307516406052, -87.74548069754148)",2012-04-05
24845,04/05/2012,Completed,04/23/2012,12-00725484,Alley Light Out,8212 S MOZART ST,60652.0,1158806.54720782,1850042.05438052,18.0,8.0,70.0,41.74424320762022,-87.69369564909344,"(41.744243207620215, -87.69369564909344)",2012-04-05
24846,04/05/2012,Completed,04/24/2012,12-00720614,Alley Light Out,13044 S MUSKEGON AVE,60633.0,1197099.06098037,1819065.14418571,10.0,4.0,55.0,41.65837280648889,-87.55441608619896,"(41.658372806488885, -87.55441608619897)",2012-04-05
24847,04/05/2012,Completed,04/30/2012,12-00722509,Alley Light Out,6757 S JEFFERY BLVD,60649.0,1190708.74772659,1860563.15996615,5.0,3.0,43.0,41.772403817603,-87.57646446462981,"(41.772403817603, -87.5764644646298)",2012-04-05
24848,04/05/2012,Completed,04/30/2012,12-00725368,Alley Light Out,2627 W 25TH ST,60608.0,1159247.51833005,1887311.77947996,12.0,10.0,30.0,41.84650731943473,-87.69105957583075,"(41.84650731943473, -87.69105957583075)",2012-04-05
24849,04/05/2012,Completed,05/03/2012,12-00722321,Alley Light Out,3150 W FRANKLIN BLVD,60612.0,1155625.40979139,1903170.65443004,27.0,13.0,23.0,41.89009931394853,-87.7039258740665,"(41.890099313948525, -87.7039258740665)",2012-04-05
24850,04/05/2012,Completed,05/03/2012,12-00724118,Alley Light Out,2401 N ALBANY AVE,60647.0,1155331.15657138,1915798.38139031,35.0,14.0,22.0,41.924756816739475,-87.70466662720419,"(41.92475681673948, -87.70466662720419)",2012-04-05
24851,04/05/2012,Completed,05/09/2012,12-00724620,Alley Light Out,6740 S LAFLIN ST,60636.0,1167496.20412353,1860038.22973096,17.0,7.0,67.0,41.771492405209635,-87.66156968386333,"(41.77149240520963, -87.66156968386333)",2012-04-05
24852,04/05/2012,Completed,05/10/2012,12-00725301,Alley Light Out,10765 S PULASKI RD,60655.0,1151593.26198476,1832844.77007713,19.0,22.0,74.0,41.697194777860666,-87.72057472346395,"(41.697194777860666, -87.72057472346395)",2012-04-05
24853,04/05/2012,Completed,05/16/2012,12-00725444,Alley Light Out,2045 W FARRAGUT AVE,60625.0,1161751.78228804,1934857.70440342,40.0,20.0,4.0,41.97692502608549,-87.68054098465784,"(41.97692502608549, -87.68054098465784)",2012-04-05
24854,04/05/2012,Completed,05/21/2012,12-00725505,Alley Light Out,1900 W ADDISON ST,60613.0,1163035.33108476,1923924.15002199,47.0,19.0,5.0,41.946895916497205,-87.676129204143,"(41.9468959164972, -87.67612920414298)",2012-04-05
24855,04/05/2012,Completed,05/22/2012,12-00720835,Alley Light Out,7631 S GREEN ST,60620.0,1171958.98532824,1854250.62363062,17.0,6.0,71.0,41.75551368079053,-87.64538033924562,"(41.75551368079053, -87.64538033924563)",2012-04-05
25059,04/06/2012,Completed - Dup,04/06/2012,12-00725774,Alley Light Out,10201 S HOYNE AVE,60643.0,1163934.75528445,1836975.64057535,19.0,22.0,72.0,41.70828076061771,-87.67527123996828,"(41.70828076061771, -87.67527123996828)",2012-04-06
25060,04/06/2012,Completed - Dup,04/06/2012,12-00728967,Alley Light Out,10529 S PRAIRIE AVE,60628.0,1179777.07040245,1835205.2156008,9.0,5.0,49.0,41.703075605836545,-87.61730979331955,"(41.703075605836545, -87.61730979331954)",2012-04-06
25061,04/06/2012,Completed - Dup,04/07/2012,12-00730182,Alley Light Out,6824 W DICKENS AVE,60707.0,1130474.06003268,1913211.19061953,36.0,25.0,25.0,41.9181209971509,-87.79606359432448,"(41.9181209971509, -87.79606359432447)",2012-04-06
25062,04/06/2012,Completed - Dup,04/07/2012,12-00730247,Alley Light Out,3049 W SUNNYSIDE AVE,60625.0,1155145.70093099,1929746.79542087,33.0,17.0,14.0,41.96303596980464,-87.704972359439,"(41.963035969804636, -87.70497235943898)",2012-04-06
25063,04/06/2012,Completed - Dup,04/07/2012,12-00730309,Alley Light Out,1826 W HENDERSON ST,60657.0,1163491.66739216,1922272.25992592,32.0,19.0,5.0,41.94235342866503,-87.67449851645388,"(41.94235342866503, -87.67449851645388)",2012-04-06
25064,04/06/2012,Completed - Dup,04/09/2012,12-00725607,Alley Light Out,2833 W 36TH ST,60632.0,1157948.71000424,1880646.76041532,12.0,9.0,58.0,41.82824428907069,-87.69600765313406,"(41.82824428907069, -87.69600765313407)",2012-04-06
25065,04/06/2012,Completed - Dup,04/10/2012,12-00726052,Alley Light Out,4321 W CORTEZ ST,60651.0,1147334.11012833,1906646.26007043,37.0,11.0,23.0,41.899799606891904,-87.73428641855878,"(41.899799606891904, -87.7342864185588)",2012-04-06
25066,04/06/2012,Completed - Dup,04/10/2012,12-00727536,Alley Light Out,8711 S BENNETT AVE,60617.0,1190364.51800079,1847592.42548319,8.0,4.0,48.0,41.73681929989374,-87.57814364987699,"(41.73681929989374, -87.578143649877)",2012-04-06
25067,04/06/2012,Completed - Dup,04/11/2012,12-00725559,Alley Light Out,2426 W ROOSEVELT RD,60608.0,1160386.18769486,1894644.64042147,28.0,11.0,28.0,41.86660599365361,-87.68667802450287,"(41.86660599365361, -87.68667802450287)",2012-04-06
25068,04/06/2012,Completed - Dup,04/11/2012,12-00728155,Alley Light Out,5935 N ROCKWELL ST,60659.0,1157923.89691526,1939325.5139676998,40.0,20.0,2.0,41.98926408155466,-87.69449527043619,"(41.98926408155466, -87.69449527043619)",2012-04-06
25069,04/06/2012,Completed - Dup,04/11/2012,12-00728292,Alley Light Out,2746 W WARREN BLVD,60612.0,1158066.58009569,1900239.11360414,2.0,13.0,27.0,41.88200540841032,-87.69504084294266,"(41.882005408410315, -87.69504084294266)",2012-04-06
25070,04/06/2012,Completed - Dup,04/11/2012,12-00729417,Alley Light Out,527 N SPRINGFIELD AVE,60624.0,1150295.23600197,1903236.87849295,27.0,11.0,23.0,41.89038665959124,-87.72349909378046,"(41.89038665959124, -87.72349909378046)",2012-04-06
25071,04/06/2012,Completed - Dup,04/12/2012,12-00726898,Alley Light Out,5615 W 64TH PL,60638.0,1140093.91946995,1861235.96308788,13.0,8.0,64.0,41.775322627392455,-87.76198952175758,"(41.77532262739245, -87.76198952175758)",2012-04-06
25072,04/06/2012,Completed - Dup,04/12/2012,12-00726908,Alley Light Out,6247 W 63RD PL,60638.0,1135858.07101546,1861764.03837088,23.0,8.0,64.0,41.776847939357616,-87.77750545945688,"(41.77684793935762, -87.77750545945688)",2012-04-06
25073,04/06/2012,Completed - Dup,04/12/2012,12-00726912,Alley Light Out,6011 S MAJOR AVE,60638.0,1139423.387969,1864140.8707166,13.0,8.0,64.0,41.78330641096001,-87.76437720034298,"(41.78330641096001, -87.76437720034299)",2012-04-06
25074,04/06/2012,Completed - Dup,04/13/2012,12-00730117,Alley Light Out,1507 N KEYSTONE AVE,60651.0,1149106.87008278,1909715.13419552,30.0,25.0,23.0,41.90818675411128,-87.72769541519385,"(41.90818675411128, -87.72769541519385)",2012-04-06
25075,04/06/2012,Completed - Dup,04/16/2012,12-00727403,Alley Light Out,8947 S RACINE AVE,60620.0,1169892.97303063,1845423.56009075,21.0,22.0,73.0,41.73133609050726,-87.6532074278154,"(41.731336090507256, -87.65320742781539)",2012-04-06
25076,04/06/2012,Completed - Dup,04/17/2012,12-00725609,Alley Light Out,1504 N WOOD ST,60622.0,1164120.74250979,1910113.91010556,1.0,14.0,24.0,41.90897688411291,-87.67253076594002,"(41.90897688411291, -87.67253076594001)",2012-04-06
25077,04/06/2012,Completed - Dup,04/23/2012,12-00726843,Alley Light Out,3914 W 70TH PL,60629.0,1151488.33468685,1857565.19522424,13.0,8.0,65.0,41.765034122550546,-87.72031427236915,"(41.76503412255055, -87.72031427236915)",2012-04-06
25078,04/06/2012,Completed - Dup,04/27/2012,12-00730254,Alley Light Out,10831 S VERNON AVE,60628.0,1181166.06997828,1833235.46339266,9.0,5.0,49.0,41.697638538044,-87.6122840256725,"(41.697638538044004, -87.6122840256725)",2012-04-06
25079,04/06/2012,Completed,04/06/2012,12-00728280,Alley Light Out,540 N HOMAN AVE,60624.0,1153615.89882288,1903446.55680745,27.0,11.0,23.0,41.89089662852445,-87.7112984020873,"(41.89089662852445, -87.71129840208728)",2012-04-06
25080,04/06/2012,Completed,04/06/2012,12-00728293,Alley Light Out,544 N HOMAN AVE,60624.0,1153615.29882288,1903469.95680745,27.0,11.0,23.0,41.890960852367115,-87.71129998261175,"(41.890960852367115, -87.71129998261175)",2012-04-06
25081,04/06/2012,Completed,04/07/2012,12-00725744,Alley Light Out,3334 W CHICAGO AVE,60651.0,1153888.44998971,1905132.39001605,27.0,11.0,23.0,41.89551729209275,-87.71025249263296,"(41.89551729209275, -87.71025249263296)",2012-04-06
25082,04/06/2012,Completed,04/07/2012,12-00726854,Alley Light Out,3857 W MONROE ST,60624.0,1150692.43330168,1899383.82606824,28.0,11.0,26.0,41.87980571597354,-87.7221411687882,"(41.87980571597354, -87.72214116878821)",2012-04-06
25083,04/06/2012,Completed,04/07/2012,12-00726867,Alley Light Out,3901 W MONROE ST,60624.0,1150398.83330168,1899376.92606824,28.0,11.0,26.0,41.87979251409985,-87.723219416482,"(41.87979251409984, -87.72321941648198)",2012-04-06
25084,04/06/2012,Completed,04/13/2012,12-00726936,Alley Light Out,11044 S EWING AVE,60617.0,1202205.20768456,1832338.70952579,10.0,4.0,52.0,41.694668614701854,-87.53528210186407,"(41.69466861470185, -87.53528210186406)",2012-04-06
25085,04/06/2012,Completed,04/13/2012,12-00727459,Alley Light Out,3904 W 70TH PL,60629.0,1151555.83468685,1857566.89522424,13.0,8.0,65.0,41.765037467263106,-87.7200668175483,"(41.76503746726311, -87.72006681754829)",2012-04-06
25086,04/06/2012,Completed,04/13/2012,12-00727604,Alley Light Out,6809 S PULASKI RD,60629.0,1150875.18103332,1859112.2642998002,13.0,8.0,65.0,41.76929150286126,-87.72252142046997,"(41.76929150286126, -87.72252142046997)",2012-04-06
25087,04/06/2012,Completed,04/13/2012,12-00730105,Alley Light Out,10734 S AVENUE B,60617.0,1204785.81487746,1834395.08917929,10.0,4.0,52.0,41.70024548524014,-87.52576341654856,"(41.700245485240124, -87.52576341654857)",2012-04-06
25088,04/06/2012,Completed,04/16/2012,12-00729805,Alley Light Out,1135 N CENTRAL AVE,60651.0,1138799.53687254,1907125.48992061,37.0,15.0,25.0,41.90127392518552,-87.76562277101479,"(41.90127392518552, -87.76562277101478)",2012-04-06
25089,04/06/2012,Completed,04/17/2012,12-00725594,Alley Light Out,4747 W GRACE ST,60641.0,1144060.03070254,1924840.99218951,38.0,17.0,15.0,41.94978987574214,-87.74585441633917,"(41.94978987574214, -87.74585441633917)",2012-04-06
25090,04/06/2012,Completed,04/17/2012,12-00728040,Alley Light Out,13029 S AVENUE O,60633.0,1201068.81962377,1819183.65200505,10.0,4.0,55.0,41.6585986450893,-87.53988616383327,"(41.6585986450893, -87.53988616383326)",2012-04-06
25091,04/06/2012,Completed,04/17/2012,12-00730024,Alley Light Out,1240 W 33RD ST,60608.0,1168590.73641506,1882932.47982727,11.0,9.0,60.0,41.834293247877774,-87.65689703426673,"(41.834293247877774, -87.65689703426673)",2012-04-06
25092,04/06/2012,Completed,04/17/2012,12-00730307,Alley Light Out,738 W 26TH ST,60616.0,1171839.44976716,1886986.88438904,11.0,9.0,60.0,41.845348065298474,-87.64485749219295,"(41.84534806529848, -87.64485749219295)",2012-04-06
25093,04/06/2012,Completed,04/17/2012,12-00730318,Alley Light Out,5423 N MONITOR AVE,60630.0,1136206.30927853,1935491.58899451,45.0,16.0,11.0,41.97916021377558,-87.77446882379895,"(41.97916021377558, -87.77446882379895)",2012-04-06
25094,04/06/2012,Completed,04/18/2012,12-00725558,Alley Light Out,2420 W ROOSEVELT RD,60608.0,1160426.38769486,1894645.44042147,28.0,11.0,28.0,41.86660735787743,-87.68653042370009,"(41.86660735787743, -87.68653042370008)",2012-04-06
25095,04/06/2012,Completed,04/18/2012,12-00730126,Alley Light Out,7421 N OLEANDER AVE,60631.0,1125069.95400426,1948670.61936769,41.0,16.0,9.0,42.015516825181386,-87.81513108640488,"(42.01551682518138, -87.81513108640488)",2012-04-06
25096,04/06/2012,Completed,04/20/2012,12-00725699,Alley Light Out,9306 S HAMILTON AVE,60643.0,1163659.38649741,1842909.67369447,19.0,22.0,72.0,41.724570487561095,-87.67611378205788,"(41.724570487561095, -87.67611378205787)",2012-04-06
25097,04/06/2012,Completed,04/20/2012,12-00725701,Alley Light Out,9400 S HAMILTON AVE,60643.0,1163677.85457225,1842284.95549048,19.0,22.0,72.0,41.722855774006646,-87.67606360509146,"(41.72285577400665, -87.67606360509146)",2012-04-06
25098,04/06/2012,Completed,04/20/2012,12-00725713,Alley Light Out,9316 S DAMEN AVE,60643.0,1164541.39796556,1842864.5321673,19.0,22.0,72.0,41.72442808796857,-87.67288423771053,"(41.72442808796857, -87.67288423771053)",2012-04-06
25099,04/06/2012,Completed,04/20/2012,12-00725748,Alley Light Out,9602 S LEAVITT ST,60643.0,1163387.62727138,1840933.17031841,19.0,22.0,72.0,41.719152332633705,-87.67716442127586,"(41.719152332633705, -87.67716442127586)",2012-04-06
25100,04/06/2012,Completed,04/20/2012,12-00725752,Alley Light Out,9633 S WESTERN AVE,60643.0,1162071.79850191,1840690.7199871002,19.0,22.0,72.0,41.718514428256256,-87.68199062955172,"(41.718514428256256, -87.68199062955172)",2012-04-06
25101,04/06/2012,Completed,04/20/2012,12-00725755,Alley Light Out,9657 S WESTERN AVE,60643.0,1162076.46028102,1840527.7600315,19.0,22.0,72.0,41.71806714235186,-87.68197807065266,"(41.71806714235186, -87.68197807065266)",2012-04-06
25102,04/06/2012,Completed,04/20/2012,12-00725769,Alley Light Out,9923 S WESTERN AVE,60643.0,1162130.64368143,1838771.06880272,19.0,22.0,72.0,41.71324536340628,-87.68182830280544,"(41.71324536340628, -87.68182830280543)",2012-04-06
25103,04/06/2012,Completed,04/20/2012,12-00725771,Alley Light Out,9957 S WESTERN AVE,60643.0,1162137.66788432,1838546.7514778,19.0,22.0,72.0,41.71262965309001,-87.68180879391448,"(41.712629653090005, -87.68180879391448)",2012-04-06
25104,04/06/2012,Completed,04/20/2012,12-00725790,Alley Light Out,10350 S OAKLEY AVE,60643.0,1162865.31946937,1836283.91512204,19.0,22.0,72.0,41.70640490905381,-87.67920684592745,"(41.706404909053816, -87.67920684592745)",2012-04-06
25105,04/06/2012,Completed,04/20/2012,12-00725795,Alley Light Out,10611 S WESTERN AVE,60643.0,1162271.12937391,1834201.64549701,19.0,22.0,72.0,41.70070316723167,-87.68144047805605,"(41.700703167231666, -87.68144047805605)",2012-04-06
25106,04/06/2012,Completed,04/20/2012,12-00725802,Alley Light Out,10600 S HOYNE AVE,60643.0,1164245.43619995,1834326.31907473,19.0,22.0,72.0,41.701004056568756,-87.67420775846027,"(41.701004056568756, -87.67420775846026)",2012-04-06
25107,04/06/2012,Completed,04/23/2012,12-00725575,Alley Light Out,3340 W 47TH ST,60632.0,1154723.45012155,1873270.87641238,14.0,8.0,58.0,41.808068940114104,-87.70803784043966,"(41.80806894011411, -87.70803784043967)",2012-04-06
25108,04/06/2012,Completed,04/23/2012,12-00730195,Alley Light Out,4931 S LAPORTE AVE,60638.0,1144192.0603073,1871478.33736639,23.0,8.0,56.0,41.80335369943799,-87.74670976639936,"(41.80335369943799, -87.74670976639936)",2012-04-06
25109,04/06/2012,Completed,04/23/2012,12-00730293,Alley Light Out,4924 S LAMON AVE,60638.0,1144523.9596334,1871534.03037992,23.0,8.0,56.0,41.803500307318224,-87.7454911155612,"(41.80350030731823, -87.7454911155612)",2012-04-06
25110,04/06/2012,Completed,04/25/2012,12-00728058,Alley Light Out,11144 S GREEN BAY AVE,60617.0,1200562.36060159,1831668.50950436,10.0,4.0,52.0,41.692871135944586,-87.54131945537588,"(41.692871135944586, -87.54131945537587)",2012-04-06
25111,04/06/2012,Completed,04/25/2012,12-00729984,Alley Light Out,3045 W SUNNYSIDE AVE,60625.0,1155165.00093099,1929747.09542087,33.0,17.0,14.0,41.9630364046229,-87.70490139191607,"(41.9630364046229, -87.70490139191607)",2012-04-06
25112,04/06/2012,Completed,04/30/2012,12-00728438,Alley Light Out,7916 S VINCENNES AVE,60620.0,1174986.07552741,1852383.43362777,17.0,6.0,44.0,41.75032292296806,-87.63434244349901,"(41.75032292296806, -87.63434244349902)",2012-04-06
25113,04/06/2012,Completed,05/08/2012,12-00727973,Alley Light Out,2019 N MOZART ST,60647.0,1156995.85642298,1913354.36842559,35.0,14.0,22.0,41.91801660261853,-87.69861623526775,"(41.91801660261853, -87.69861623526775)",2012-04-06
25114,04/06/2012,Completed,05/10/2012,12-00729722,Alley Light Out,3712 N BELL AVE,60618.0,1160704.68630561,1924610.14066668,47.0,19.0,5.0,41.94882703198758,-87.68467689762875,"(41.94882703198758, -87.68467689762875)",2012-04-06
25115,04/06/2012,Completed,05/14/2012,12-00729822,Alley Light Out,17 E 121ST PL,60628.0,1178538.47669562,1824407.12988399,9.0,5.0,53.0,41.67347225348328,-87.62217162640535,"(41.67347225348328, -87.62217162640536)",2012-04-06
25116,04/06/2012,Completed,05/18/2012,12-00725715,Alley Light Out,9406 S DAMEN AVE,60643.0,1164559.29839637,1842269.00990532,19.0,22.0,72.0,41.722793503829905,-87.67283540541031,"(41.72279350382991, -87.67283540541031)",2012-04-06
25117,04/06/2012,Completed,05/18/2012,12-00725784,Alley Light Out,2021 W 101ST PL,60643.0,1164685.77309409,1837258.51352594,19.0,22.0,72.0,41.709041228296655,-87.67251300275244,"(41.70904122829666, -87.67251300275244)",2012-04-06
25118,04/06/2012,Completed,05/18/2012,12-00726753,Alley Light Out,6637 S HERMITAGE AVE,60636.0,1165814.04739116,1860678.81712482,15.0,7.0,67.0,41.77328615096437,-87.66771773850321,"(41.773286150964374, -87.66771773850321)",2012-04-06
25119,04/06/2012,Completed,05/22/2012,12-00729739,Alley Light Out,7131 S MORGAN ST,60621.0,1170876.41383097,1857538.00280923,17.0,7.0,68.0,41.76455835499244,-87.64925188434,"(41.76455835499244, -87.64925188434)",2012-04-06
25120,04/06/2012,Completed,05/23/2012,12-00725706,Alley Light Out,9312 S DAMEN AVE,60643.0,1164540.59796556,1842891.2321673,19.0,22.0,72.0,41.7245013738232,-87.67288641776031,"(41.724501373823195, -87.67288641776032)",2012-04-06
25301,04/07/2012,Completed - Dup,04/11/2012,12-00730766,Alley Light Out,5013 W NORTH AVE,60639.0,1142581.18392211,1910168.28892215,37.0,25.0,25.0,41.90955419421612,-87.7516564503331,"(41.90955419421612, -87.75165645033309)",2012-04-07
25302,04/07/2012,Completed - Dup,04/11/2012,12-00731065,Alley Light Out,6674 N NORTHWEST HWY,60631.0,1125056.41100446,1943828.84128203,41.0,16.0,9.0,42.00223076734562,-87.81528873264898,"(42.002230767345615, -87.81528873264898)",2012-04-07
25303,04/07/2012,Completed - Dup,04/12/2012,12-00730654,Alley Light Out,5837 W MELROSE ST,60634.0,1136927.56138182,1921012.16408346,38.0,16.0,15.0,41.93941434006848,-87.77216504299723,"(41.93941434006848, -87.77216504299722)",2012-04-07
25304,04/07/2012,Completed - Dup,04/13/2012,12-00730856,Alley Light Out,8115 S RHODES AVE,60619.0,1181313.90982291,1851315.27732997,6.0,6.0,44.0,41.747248376446926,-87.61118741389011,"(41.74724837644693, -87.61118741389011)",2012-04-07
25305,04/07/2012,Completed - Dup,04/18/2012,12-00731434,Alley Light Out,2711 E 76TH ST,60649.0,1195816.25960729,1855130.06979956,7.0,4.0,43.0,41.75737017332681,-87.55792171701128,"(41.757370173326805, -87.55792171701128)",2012-04-07
25306,04/07/2012,Completed,04/08/2012,12-00730854,Alley Light Out,4210 W 21ST PL,60623.0,1148649.32738643,1889423.94872535,24.0,10.0,29.0,41.852514299472475,-87.72990030876976,"(41.852514299472475, -87.72990030876977)",2012-04-07
25307,04/07/2012,Completed,04/09/2012,12-00731367,Alley Light Out,5030 S LA CROSSE AVE,60638.0,1144875.18971519,1870836.78837191,23.0,8.0,56.0,41.801580366281534,-87.74422048913597,"(41.80158036628153, -87.74422048913597)",2012-04-07
25308,04/07/2012,Completed,04/10/2012,12-00730650,Alley Light Out,3128 N MAJOR AVE,60634.0,1137825.76630622,1920223.88022021,30.0,25.0,19.0,41.93723502463581,-87.76888290987655,"(41.937235024635804, -87.76888290987657)",2012-04-07
25309,04/07/2012,Completed,04/12/2012,12-00731479,Alley Light Out,5943 S KOLMAR AVE,60629.0,1147051.93946758,1864811.69507327,13.0,8.0,65.0,41.78500534028192,-87.73639083599029,"(41.78500534028192, -87.73639083599029)",2012-04-07
25310,04/07/2012,Completed,04/16/2012,12-00730703,Alley Light Out,8739 S EMERALD AVE,60620.0,1172837.79170149,1846877.50072947,21.0,22.0,71.0,41.73526154095818,-87.6423767122785,"(41.73526154095818, -87.6423767122785)",2012-04-07
25311,04/07/2012,Completed,04/16/2012,12-00731389,Alley Light Out,8726 S LAFLIN ST,60620.0,1167858.07588371,1846869.97480887,21.0,22.0,71.0,41.73534914682958,-87.66062061146731,"(41.73534914682958, -87.66062061146731)",2012-04-07
25312,04/07/2012,Completed,04/17/2012,12-00730383,Alley Light Out,1141 W 34TH PL,60608.0,1169274.85167194,1881942.59498386,11.0,9.0,60.0,41.831562098928245,-87.65441555679607,"(41.83156209892824, -87.65441555679608)",2012-04-07
25313,04/07/2012,Completed,04/23/2012,12-00731501,Alley Light Out,3308 W 47TH ST,60632.0,1155045.05012193,1873279.07859973,14.0,8.0,58.0,41.80808502114136,-87.70685806239824,"(41.80808502114136, -87.70685806239823)",2012-04-07
25314,04/07/2012,Completed,05/01/2012,12-00731451,Alley Light Out,5013 W 47TH ST,60638.0,1143676.61419923,1873004.2278195,23.0,8.0,56.0,41.80755062271255,-87.74856211072174,"(41.80755062271255, -87.74856211072175)",2012-04-07
25315,04/07/2012,Completed,05/04/2012,12-00731244,Alley Light Out,4758 N LINDER AVE,60630.0,1138810.87106954,1931067.08882971,45.0,16.0,15.0,41.96697197542171,-87.7649981722123,"(41.96697197542171, -87.7649981722123)",2012-04-07
25458,04/08/2012,Completed - Dup,04/09/2012,12-00732402,Alley Light Out,4920 S MAPLEWOOD AVE,60632.0,1160202.08999157,1871852.79997698,14.0,9.0,63.0,41.80406641845593,-87.68798248965372,"(41.80406641845593, -87.68798248965372)",2012-04-08
25459,04/08/2012,Completed - Dup,04/11/2012,12-00732415,Alley Light Out,1419 W HOOD AVE,60660.0,1165734.59203417,1940951.47700105,48.0,24.0,77.0,41.993562294159496,-87.66571981072654,"(41.993562294159496, -87.66571981072654)",2012-04-08
25460,04/08/2012,Completed - Dup,04/12/2012,12-00731585,Alley Light Out,3258 W EVERGREEN AVE,60651.0,1154390.77457075,1908793.79052405,26.0,14.0,23.0,41.90555448832434,-87.70830959092291,"(41.90555448832434, -87.7083095909229)",2012-04-08
25461,04/08/2012,Completed - Dup,04/12/2012,12-00731823,Alley Light Out,3247 S HAMLIN AVE,60623.0,1151555.50993113,1882805.80187248,22.0,10.0,30.0,41.83429673614359,-87.71940729423531,"(41.83429673614359, -87.71940729423531)",2012-04-08
25462,04/08/2012,Completed - Dup,04/13/2012,12-00732316,Alley Light Out,1507 N KEYSTONE AVE,60651.0,1149106.87008278,1909715.13419552,30.0,25.0,23.0,41.90818675411128,-87.72769541519385,"(41.90818675411128, -87.72769541519385)",2012-04-08
25463,04/08/2012,Completed - Dup,04/30/2012,12-00731916,Alley Light Out,2627 W 25TH ST,60608.0,1159247.51833005,1887311.77947996,12.0,10.0,30.0,41.84650731943473,-87.69105957583075,"(41.84650731943473, -87.69105957583075)",2012-04-08
25464,04/08/2012,Completed - Dup,05/01/2012,12-00732310,Alley Light Out,3750 N NOTTINGHAM AVE,60634.0,1128081.81921808,1923766.66007165,36.0,16.0,17.0,41.947127299300774,-87.80461385723301,"(41.947127299300774, -87.80461385723301)",2012-04-08
25465,04/08/2012,Completed - Dup,05/02/2012,12-00731560,Alley Light Out,2046 W FOSTER AVE,60625.0,1161755.05809194,1934526.59917426,40.0,20.0,4.0,41.97601639121533,-87.68053821701116,"(41.97601639121533, -87.68053821701116)",2012-04-08
25466,04/08/2012,Completed - Dup,05/14/2012,12-00731605,Alley Light Out,7146 S CARPENTER ST,60621.0,1170549.32737822,1857428.61718756,17.0,7.0,68.0,41.7642653190842,-87.65045392459541,"(41.7642653190842, -87.6504539245954)",2012-04-08
25467,04/08/2012,Completed,04/08/2012,12-00732077,Alley Light Out,3142 S UNION AVE,60616.0,1172143.64650489,1884057.50327557,11.0,9.0,60.0,41.837302896452954,-87.64382743606183,"(41.83730289645295, -87.64382743606181)",2012-04-08
25468,04/08/2012,Completed,04/10/2012,12-00732442,Alley Light Out,8746 S CREGIER AVE,60617.0,1189711.39681516,1847240.45992242,8.0,4.0,48.0,41.73586917387895,-87.5805477213921,"(41.73586917387895, -87.5805477213921)",2012-04-08
25469,04/08/2012,Completed,04/11/2012,12-00731614,Alley Light Out,2790 W WELLINGTON AVE,60618.0,1157234.00600495,1919816.41900586,1.0,14.0,21.0,41.935744108675344,-87.69756522066601,"(41.935744108675344, -87.69756522066601)",2012-04-08
25470,04/08/2012,Completed,04/11/2012,12-00731836,Alley Light Out,3929 N WESTERN AVE,60618.0,1159669.75046758,1926143.23998162,47.0,19.0,5.0,41.953055374918314,-87.68843873709541,"(41.95305537491831, -87.6884387370954)",2012-04-08
25471,04/08/2012,Completed,04/12/2012,12-00731583,Alley Light Out,3258 W EVERGREEN AVE,60651.0,1154390.77457075,1908793.79052405,26.0,14.0,23.0,41.90555448832434,-87.70830959092291,"(41.90555448832434, -87.7083095909229)",2012-04-08
25472,04/08/2012,Completed,04/12/2012,12-00731586,Alley Light Out,3252 W EVERGREEN AVE,60651.0,1154431.17457075,1908794.69052405,26.0,14.0,23.0,41.905556150143646,-87.70816116320091,"(41.90555615014364, -87.7081611632009)",2012-04-08
25473,04/08/2012,Completed,04/12/2012,12-00731587,Alley Light Out,3244 W EVERGREEN AVE,60651.0,1154484.91413276,1908795.96009288,26.0,14.0,23.0,41.90555855905004,-87.70796372460094,"(41.905558559050036, -87.70796372460096)",2012-04-08
25474,04/08/2012,Completed,04/12/2012,12-00731942,Alley Light Out,2600 W CHICAGO AVE,60622.0,1158919.26081702,1905236.85639733,26.0,13.0,24.0,41.89570221550979,-87.69177259274204,"(41.8957022155098, -87.69177259274205)",2012-04-08
25475,04/08/2012,Completed,04/12/2012,12-00732467,Alley Light Out,2032 W THOMAS ST,60622.0,1162654.22669702,1907326.16480189,32.0,13.0,24.0,41.90135798087436,-87.67799629300009,"(41.90135798087436, -87.6779962930001)",2012-04-08
25476,04/08/2012,Completed,04/13/2012,12-00731609,Alley Light Out,4325 W 83RD ST,60652.0,1148913.22009022,1849165.32721116,18.0,8.0,70.0,41.74203339733385,-87.72996887082644,"(41.742033397333856, -87.72996887082643)",2012-04-08
25477,04/08/2012,Completed,04/17/2012,12-00732342,Alley Light Out,2954 S QUINN ST,60608.0,1170488.81168313,1885056.77478204,11.0,9.0,60.0,41.84008127937013,-87.64987052238592,"(41.840081279370125, -87.64987052238592)",2012-04-08
25478,04/08/2012,Completed,04/19/2012,12-00731611,Alley Light Out,7245 S ROCKWELL ST,60629.0,1160295.15149775,1856511.4820198002,18.0,8.0,66.0,41.76196580889054,-87.68806341576416,"(41.76196580889053, -87.68806341576416)",2012-04-08
25534,04/09/2012,Completed - Dup,04/09/2012,12-00732562,Alley Light Out,2833 W 36TH ST,60632.0,1157948.71000424,1880646.76041532,12.0,9.0,58.0,41.82824428907069,-87.69600765313406,"(41.82824428907069, -87.69600765313407)",2012-04-09
25535,04/09/2012,Completed - Dup,04/09/2012,12-00734942,Alley Light Out,3149 N LONG AVE,60641.0,1139813.21529806,1920508.79992505,30.0,25.0,19.0,41.937980732472184,-87.7615716302084,"(41.93798073247219, -87.7615716302084)",2012-04-09
25536,04/09/2012,Completed - Dup,04/09/2012,12-00734970,Alley Light Out,5149 S NEWCASTLE AVE,60638.0,1131589.45987359,1869660.00430429,23.0,8.0,56.0,41.798590598016894,-87.79297250114263,"(41.798590598016894, -87.79297250114264)",2012-04-09
25537,04/09/2012,Completed - Dup,04/09/2012,12-00735191,Alley Light Out,3742 S ALBANY AVE,60632.0,1156316.76507467,1879530.72863295,12.0,9.0,58.0,41.825214824923584,-87.70202523123794,"(41.825214824923584, -87.70202523123794)",2012-04-09
25538,04/09/2012,Completed - Dup,04/09/2012,12-00736113,Alley Light Out,1461 E 69TH PL,60637.0,1187301.28610427,1859204.86877962,5.0,3.0,43.0,41.768758158820184,-87.58899813849781,"(41.76875815882018, -87.58899813849781)",2012-04-09
