,Creation Date,Status,Completion Date,Service Request Number,Type of Service Request,Street Address,ZIP Code,X Coordinate,Y Coordinate,Ward,Police District,Community Area,Latitude,Longitude,Location,date
117628,08/01/2014,Completed - Dup,08/01/2014,14-01246641,Street Light Out,5419 N NEWCASTLE AVE,60656.0,1129908.69000922,1935628.53428482,41.0,16.0,10.0,41.97964641667983,-87.79762604206142,"(41.97964641667983,-87.79762604206142)",2014-08-01
117629,08/01/2014,Completed - Dup,08/01/2014,14-01246670,Street Light Out,9047 S EMERALD AVE,60620.0,1172901.57999606,1844691.7700279998,21.0,22.0,71.0,41.72926219175611,-87.64220731737544,"(41.72926219175612,-87.64220731737542)",2014-08-01
117630,08/01/2014,Completed - Dup,08/01/2014,14-01247169,Street Light Out,7400 S VERNON AVE,60619.0,1180526.36313257,1856048.63550566,6.0,3.0,69.0,41.76025533167218,-87.61392815023115,"(41.76025533167218,-87.61392815023115)",2014-08-01
117631,08/01/2014,Completed - Dup,08/01/2014,14-01247691,Street Light Out,3228 W WALNUT ST,60624.0,1154690.83102766,1901444.45019015,28.0,11.0,27.0,41.88538120055838,-87.70740432859364,"(41.88538120055838,-87.70740432859364)",2014-08-01
117632,08/01/2014,Completed - Dup,08/01/2014,14-01247917,Street Light Out,1717 N VINE ST,60614.0,1171759.72892458,1911645.83347472,43.0,18.0,7.0,41.913015644547656,-87.64442365507514,"(41.913015644547656,-87.64442365507516)",2014-08-01
117633,08/01/2014,Completed - Dup,08/01/2014,14-01248314,Street Light Out,9600 S LA SALLE ST,60628.0,1176969.27539297,1841297.56938919,21.0,5.0,49.0,41.71985746686066,-87.62740833573994,"(41.71985746686066,-87.62740833573994)",2014-08-01
117634,08/01/2014,Completed - Dup,08/01/2014,14-01248805,Street Light Out,2106 W CERMAK RD,60608.0,1162669.97119901,1889388.36487032,25.0,12.0,31.0,41.85213475511639,-87.67844119632917,"(41.85213475511639,-87.67844119632917)",2014-08-01
117635,08/01/2014,Completed - Dup,08/01/2014,14-01249038,Street Light Out,2700 W CATALPA AVE,60625.0,1157354.85969761,1936422.32038943,40.0,20.0,4.0,41.981309214575425,-87.69666765673095,"(41.98130921457542,-87.69666765673095)",2014-08-01
117636,08/01/2014,Completed - Dup,08/01/2014,14-01250326,Street Light Out,12841 S ESCANABA AVE,60633.0,1197419.66560023,1820417.39752807,10.0,4.0,55.0,41.6620755906302,-87.5531981576203,"(41.662075590630195,-87.5531981576203)",2014-08-01
117637,08/01/2014,Completed - Dup,08/01/2014,14-01250428,Street Light Out,6430 S STONY ISLAND AVE,60637.0,1187982.10001998,1862661.41996782,5.0,3.0,42.0,41.778227028239954,-87.58639260802141,"(41.778227028239954,-87.5863926080214)",2014-08-01
117638,08/01/2014,Completed - Dup,08/01/2014,14-01250898,Street Light Out,3303 W WALNUT ST,60624.0,1154282.27741554,1901433.49143139,28.0,11.0,27.0,41.8853592961824,-87.70890491262476,"(41.8853592961824,-87.70890491262477)",2014-08-01
117639,08/01/2014,Completed - Dup,08/01/2014,14-01250929,Street Light Out,1613 N VINE ST,60614.0,1171781.13991936,1910995.05318748,43.0,18.0,7.0,41.91122939787176,-87.64436420153419,"(41.911229397871764,-87.6443642015342)",2014-08-01
117640,08/01/2014,Completed,08/01/2014,14-01247129,Street Light Out,7228 S DOBSON AVE,60619.0,1184472.91149924,1857302.76147188,5.0,3.0,69.0,41.76360529619983,-87.59942491585764,"(41.76360529619983,-87.59942491585764)",2014-08-01
117641,08/01/2014,Completed,08/01/2014,14-01248756,Street Light Out,3615 N SPRINGFIELD AVE,60618.0,1149751.35668322,1923747.73392747,30.0,17.0,16.0,41.94668093431201,-87.72496213252536,"(41.946680934312006,-87.72496213252536)",2014-08-01
117642,08/01/2014,Completed,08/01/2014,14-01248757,Street Light Out,3251 W 62ND ST,60629.0,1155777.94731066,1863333.68732619,15.0,8.0,66.0,41.78077877178139,-87.70443680941376,"(41.78077877178139,-87.70443680941376)",2014-08-01
117643,08/01/2014,Completed,08/01/2014,14-01249173,Street Light Out,5300 W AGATITE AVE,60630.0,1140216.90717789,1929076.38047767,45.0,16.0,15.0,41.96148358748376,-87.75987727993031,"(41.961483587483755,-87.75987727993032)",2014-08-01
117644,08/01/2014,Completed,08/01/2014,14-01249519,Street Light Out,2637 E 73RD ST,60649.0,1195010.63376837,1857526.8764952,7.0,3.0,43.0,41.76396707449828,-87.5607952729706,"(41.763967074498275,-87.56079527297061)",2014-08-01
117645,08/01/2014,Completed,08/01/2014,14-01250506,Street Light Out,9143 S URBAN AVE,60619.0,1178206.34451797,1844282.41018182,6.0,6.0,49.0,41.72802033105543,-87.6227870846045,"(41.72802033105543,-87.62278708460448)",2014-08-01
117646,08/01/2014,Completed,08/01/2014,14-01253845,Street Light Out,1300 W 98TH ST,60643.0,1169383.94132743,1839801.4699706002,21.0,22.0,73.0,41.71591926454926,-87.65523443661802,"(41.71591926454926,-87.65523443661803)",2014-08-01
117647,08/01/2014,Completed,08/01/2014,14-01253920,Street Light Out,3145 N NEWCASTLE AVE,60634.0,1130205.96880655,1920144.95089825,36.0,25.0,18.0,41.93715268965555,-87.79688921566307,"(41.93715268965555,-87.79688921566307)",2014-08-01
117648,08/01/2014,Completed,08/01/2014,14-01254016,Street Light Out,1019 E 62ND ST,60637.0,1184040.90937716,1864104.79508235,20.0,3.0,42.0,41.78228080923207,-87.60079592452067,"(41.78228080923207,-87.60079592452067)",2014-08-01
117705,08/01/2014,Completed - Dup,08/02/2014,14-01246879,Street Light Out,2000 E 75TH ST,60649.0,1190840.1078806003,1855634.64613103,5.0,3.0,43.0,41.7588764055108,-87.57614198401998,"(41.758876405510804,-87.57614198401998)",2014-08-01
117706,08/01/2014,Completed - Dup,08/02/2014,14-01248212,Street Light Out,2900 W WARREN BLVD,60612.0,1157051.5018661998,1900218.24529477,2.0,12.0,27.0,41.881968800390695,-87.69876877746691,"(41.881968800390695,-87.69876877746691)",2014-08-01
117707,08/01/2014,Completed - Dup,08/02/2014,14-01249223,Street Light Out,10359 S CLAREMONT AVE,60643.0,1162548.0991089,1835877.72240205,19.0,22.0,72.0,41.705296853351285,-87.68037977863203,"(41.705296853351285,-87.68037977863203)",2014-08-01
117708,08/01/2014,Completed - Dup,08/02/2014,14-01253941,Street Light Out,4800 N ELSTON AVE,60630.0,1145561.61716839,1931526.74242503,39.0,17.0,14.0,41.96810773762195,-87.74016458807667,"(41.96810773762195,-87.74016458807667)",2014-08-01
117709,08/01/2014,Completed,08/02/2014,14-01248770,Street Light Out,1409 W CERMAK RD,60608.0,1167315.39907756,1889526.29449121,25.0,12.0,31.0,41.85241476123919,-87.66138726635856,"(41.85241476123919,-87.66138726635857)",2014-08-01
117710,08/02/2014,Completed - Dup,08/02/2014,14-01254186,Street Light Out,2200 E 75TH ST,60649.0,1192175.77862798,1855667.38738051,7.0,3.0,43.0,41.75893388488915,-87.57124585414603,"(41.75893388488915,-87.57124585414601)",2014-08-02
117711,08/02/2014,Completed - Dup,08/02/2014,14-01254681,Street Light Out,2321 W 113TH PL,60643.0,1162913.02710838,1829258.25979643,19.0,22.0,75.0,41.68712429057597,-87.67922752671295,"(41.68712429057598,-87.67922752671296)",2014-08-02
117712,08/02/2014,Completed - Dup,08/02/2014,14-01254747,Street Light Out,9300 S PRAIRIE AVE,60619.0,1179557.23202639,1843369.95128118,6.0,6.0,49.0,41.72548572297311,-87.6178663496125,"(41.72548572297311,-87.6178663496125)",2014-08-02
117713,08/02/2014,Completed - Dup,08/02/2014,14-01256643,Street Light Out,7000 S JEFFERY BLVD,60649.0,1190754.57202163,1858951.82003308,5.0,3.0,43.0,41.76798106757778,-87.57634847607447,"(41.76798106757778,-87.57634847607447)",2014-08-02
117714,08/02/2014,Completed - Dup,08/02/2014,14-01256720,Street Light Out,2800 W 21ST ST,60623.0,1158016.31258427,1889937.09058918,12.0,10.0,30.0,41.85373664013748,-87.69550649829796,"(41.85373664013748,-87.69550649829795)",2014-08-02
117719,08/01/2014,Completed - Dup,08/03/2014,14-01253889,Street Light Out,9400 S LOWE AVE,60620.0,1173624.73770108,1842537.03980698,21.0,22.0,73.0,41.72333335050921,-87.63962182321725,"(41.7233333505092,-87.63962182321725)",2014-08-01
117720,08/02/2014,Completed - Dup,08/03/2014,14-01256548,Street Light Out,9400 S LOWE AVE,60620.0,1173624.73770108,1842537.03980698,21.0,22.0,73.0,41.72333335050921,-87.63962182321725,"(41.7233333505092,-87.63962182321725)",2014-08-02
117721,08/02/2014,Completed - Dup,08/03/2014,14-01256793,Street Light Out,9400 S LOWE AVE,60620.0,1173624.73770108,1842537.03980698,21.0,22.0,73.0,41.72333335050921,-87.63962182321725,"(41.7233333505092,-87.63962182321725)",2014-08-02
117722,08/03/2014,Completed - Dup,08/03/2014,14-01257400,Street Light Out,3732 E 104TH ST,60617.0,1202824.14076569,1836615.1296299999,10.0,4.0,52.0,41.70638771022666,-87.53287054635969,"(41.70638771022666,-87.53287054635969)",2014-08-03
117883,08/01/2014,Completed - Dup,08/04/2014,14-01246706,Street Light Out,4800 N ELSTON AVE,60630.0,1145561.61716839,1931526.74242503,39.0,17.0,14.0,41.96810773762195,-87.74016458807667,"(41.96810773762195,-87.74016458807667)",2014-08-01
117884,08/01/2014,Completed - Dup,08/04/2014,14-01246712,Street Light Out,3930 N ASHLAND AVE,60613.0,1164953.33011687,1926170.25941738,47.0,19.0,6.0,41.953018775648324,-87.66901521717263,"(41.95301877564833,-87.66901521717263)",2014-08-01
117885,08/01/2014,Completed - Dup,08/04/2014,14-01246737,Street Light Out,3915 N ASHLAND AVE,60613.0,1164956.03011687,1926069.45941738,47.0,19.0,6.0,41.9527421183714,-87.66900816415674,"(41.9527421183714,-87.66900816415675)",2014-08-01
117886,08/01/2014,Completed - Dup,08/04/2014,14-01247167,Street Light Out,3800 N ASHLAND AVE,60613.0,1164976.28712458,1925303.56651587,47.0,19.0,6.0,41.950640041633996,-87.66895552413168,"(41.95064004163399,-87.66895552413168)",2014-08-01
117887,08/01/2014,Completed - Dup,08/04/2014,14-01247823,Street Light Out,5252 W HENDERSON ST,60641.0,1140757.97222349,1921769.12871229,38.0,16.0,15.0,41.941421855701,-87.75806832705193,"(41.941421855701,-87.75806832705192)",2014-08-01
117888,08/01/2014,Completed - Dup,08/04/2014,14-01248442,Street Light Out,9217 S KINGSTON AVE,60617.0,1194773.62607026,1844344.25048375,7.0,4.0,48.0,41.7277987200245,-87.56209700275656,"(41.7277987200245,-87.56209700275657)",2014-08-01
117889,08/01/2014,Completed - Dup,08/04/2014,14-01249506,Street Light Out,7300 S SOUTH SHORE DR,60649.0,1195061.23376837,1857561.5764952,7.0,3.0,43.0,41.76406104657187,-87.56060867360962,"(41.76406104657187,-87.56060867360962)",2014-08-01
117890,08/01/2014,Completed - Dup,08/04/2014,14-01252657,Street Light Out,6600 N SACRAMENTO AVE,60645.0,1155139.21536994,1943625.20087561,50.0,24.0,2.0,42.001119159230754,-87.7046216641218,"(42.00111915923075,-87.7046216641218)",2014-08-01
117891,08/01/2014,Completed - Dup,08/04/2014,14-01253392,Street Light Out,9500 S COLFAX AVE,60617.0,1195165.64577684,1842471.20619081,7.0,4.0,51.0,41.72264927044245,-87.5607225769975,"(41.722649270442446,-87.5607225769975)",2014-08-01
117892,08/01/2014,Completed - Dup,08/04/2014,14-01253519,Street Light Out,3651 W 64TH PL,60629.0,1153113.99977579,1861591.96557817,13.0,8.0,65.0,41.77605226842678,-87.71424942362839,"(41.77605226842678,-87.71424942362839)",2014-08-01
117893,08/01/2014,Completed - Dup,08/04/2014,14-01253588,Street Light Out,9118 S WILLIAMS AVE,60619.0,1179387.82642541,1844452.32448186,6.0,6.0,49.0,41.72845975263151,-87.61845395802808,"(41.72845975263151,-87.61845395802808)",2014-08-01
117894,08/01/2014,Completed - Dup,08/04/2014,14-01253656,Street Light Out,9141 S WILLIAMS AVE,60619.0,1179383.62642541,1844332.52448186,6.0,6.0,49.0,41.728131102226975,-87.61847298799762,"(41.72813110222698,-87.61847298799763)",2014-08-01
117895,08/01/2014,Completed - Dup,08/04/2014,14-01253696,Street Light Out,9141 S FOREST AVE,60619.0,1179862.58992394,1844273.66271338,6.0,6.0,49.0,41.727958649485814,-87.61672026106937,"(41.72795864948581,-87.61672026106937)",2014-08-01
117896,08/01/2014,Completed - Dup,08/04/2014,14-01253709,Street Light Out,4200 S PRAIRIE AVE,60653.0,1178737.54879155,1877219.18677189,3.0,2.0,38.0,41.81839022750364,-87.61984022865316,"(41.81839022750364,-87.61984022865315)",2014-08-01
117897,08/01/2014,Completed - Dup,08/04/2014,14-01253762,Street Light Out,3904 N ASHLAND AVE,60613.0,1164958.13011687,1925995.65941738,47.0,19.0,6.0,41.95253956309293,-87.66900254743166,"(41.952539563092934,-87.66900254743165)",2014-08-01
117898,08/01/2014,Completed - Dup,08/04/2014,14-01253795,Street Light Out,4231 S CALUMET AVE,60653.0,1179135.96662575,1877024.62157616,3.0,2.0,38.0,41.81784723719624,-87.6183846491925,"(41.81784723719624,-87.6183846491925)",2014-08-01
117899,08/01/2014,Completed - Dup,08/04/2014,14-01253798,Street Light Out,4231 S CALUMET AVE,60653.0,1179135.96662575,1877024.62157616,3.0,2.0,38.0,41.81784723719624,-87.6183846491925,"(41.81784723719624,-87.6183846491925)",2014-08-01
117900,08/01/2014,Completed - Dup,08/04/2014,14-01253825,Street Light Out,3847 N ASHLAND AVE,60613.0,1164967.98712458,1925619.36651587,47.0,19.0,6.0,41.95150678820819,-87.66897703564682,"(41.95150678820819,-87.66897703564683)",2014-08-01
117901,08/01/2014,Completed - Dup,08/04/2014,14-01254014,Street Light Out,5230 W WELLINGTON AVE,60641.0,1140983.83689419,1919445.91400602,31.0,25.0,19.0,41.935042562274035,-87.75729554952261,"(41.93504256227403,-87.75729554952261)",2014-08-01
117902,08/01/2014,Completed - Dup,08/04/2014,14-01254042,Street Light Out,2230 N NAGLE AVE,60707.0,1133050.79938487,1914124.62890274,36.0,25.0,19.0,41.920582895463966,-87.78657492000701,"(41.92058289546397,-87.78657492000701)",2014-08-01
117903,08/01/2014,Completed - Dup,08/04/2014,14-01254110,Street Light Out,3845 N ASHLAND AVE,60613.0,1164968.38712458,1925605.96651587,47.0,19.0,6.0,41.95147000947339,-87.66897594709671,"(41.95147000947339,-87.66897594709671)",2014-08-01
117904,08/01/2014,Completed,08/04/2014,14-01246640,Street Light Out,5419 N NEWCASTLE AVE,60656.0,1129908.69000922,1935628.53428482,41.0,16.0,10.0,41.97964641667983,-87.79762604206142,"(41.97964641667983,-87.79762604206142)",2014-08-01
117905,08/01/2014,Completed,08/04/2014,14-01246710,Street Light Out,498 S SPRINGFIELD AVE,60624.0,1150471.02002672,1897414.28093336,24.0,11.0,26.0,41.87440538901929,-87.7230056009681,"(41.87440538901929,-87.7230056009681)",2014-08-01
117906,08/01/2014,Completed,08/04/2014,14-01246719,Street Light Out,5400 W HUTCHINSON ST,60641.0,1139587.05043153,1927731.92980226,38.0,16.0,15.0,41.95780583598003,-87.76222595713293,"(41.95780583598003,-87.76222595713294)",2014-08-01
117907,08/01/2014,Completed,08/04/2014,14-01246747,Street Light Out,4700 S LAVERGNE AVE,60638.0,1143816.51419923,1873007.2278195,23.0,8.0,56.0,41.80755624193335,-87.74804891330854,"(41.80755624193334,-87.74804891330855)",2014-08-01
117908,08/01/2014,Completed,08/04/2014,14-01246795,Street Light Out,4000 N CENTRAL AVE,60634.0,1138299.74747507,1926039.3148264,38.0,16.0,15.0,41.95318458365534,-87.7669997134927,"(41.95318458365534,-87.76699971349271)",2014-08-01
117909,08/01/2014,Completed,08/04/2014,14-01246798,Street Light Out,2400 E 75TH ST,60649.0,1193505.07422481,1855698.86579289,7.0,3.0,43.0,41.758987846182855,-87.56637312405917,"(41.758987846182855,-87.56637312405915)",2014-08-01
117910,08/01/2014,Completed,08/04/2014,14-01246867,Street Light Out,10948 S EMERALD AVE,60628.0,1173261.75381563,1832256.09312979,34.0,22.0,49.0,41.69512894024646,-87.64125406726221,"(41.69512894024646,-87.64125406726221)",2014-08-01
117911,08/01/2014,Completed,08/04/2014,14-01248042,Street Light Out,9544 S DOBSON AVE,60628.0,1184885.27003254,1841897.87996716,8.0,5.0,50.0,41.721323012639424,-87.59839576396195,"(41.72132301263942,-87.59839576396195)",2014-08-01
117912,08/01/2014,Completed,08/04/2014,14-01248072,Street Light Out,4459 S KARLOV AVE,60632.0,1149762.04882028,1874756.15388928,14.0,8.0,57.0,41.8122423713882,-87.72619674198265,"(41.8122423713882,-87.72619674198266)",2014-08-01
117913,08/01/2014,Completed,08/04/2014,14-01248234,Street Light Out,799 E 51ST ST,60615.0,1182448.95712683,1871368.88266898,4.0,2.0,40.0,41.8022511630301,-87.60640720542227,"(41.8022511630301,-87.60640720542226)",2014-08-01
117914,08/01/2014,Completed,08/04/2014,14-01248389,Street Light Out,8749 W HIGGINS RD,60631.0,1116935.13703053,1938474.99518275,41.0,16.0,76.0,41.98767016874125,-87.84527910581555,"(41.987670168741246,-87.84527910581554)",2014-08-01
117915,08/01/2014,Completed,08/04/2014,14-01248947,Street Light Out,3738 N LAWNDALE AVE,60618.0,1151057.87988324,1924655.28416744,39.0,17.0,16.0,41.949145773503034,-87.72013584488644,"(41.94914577350303,-87.72013584488644)",2014-08-01
117916,08/01/2014,Completed,08/04/2014,14-01249071,Street Light Out,3801 W 85TH ST,60652.0,1152498.86,1847944.1,18.0,8.0,70.0,41.738612397427495,-87.71686302807295,"(41.73861239742749,-87.71686302807296)",2014-08-01
117917,08/01/2014,Completed,08/04/2014,14-01249397,Street Light Out,10800 S WALLACE ST,60628.0,1174223.84630651,1833264.99789764,34.0,22.0,49.0,41.69787626006714,-87.63770171653175,"(41.69787626006714,-87.63770171653175)",2014-08-01
117918,08/01/2014,Completed,08/04/2014,14-01249755,Street Light Out,1400 S HAMLIN AVE,60623.0,1151274.69010212,1892942.06700673,24.0,10.0,29.0,41.86211740467346,-87.72017214584234,"(41.86211740467346,-87.72017214584234)",2014-08-01
117919,08/01/2014,Completed,08/04/2014,14-01250070,Street Light Out,11700 S CALUMET AVE,60628.0,1180557.43993354,1827311.44198168,9.0,5.0,53.0,41.68139614969553,-87.61469343398365,"(41.681396149695544,-87.61469343398366)",2014-08-01
117920,08/01/2014,Completed,08/04/2014,14-01250549,Street Light Out,5731 W HIRSCH ST,60651.0,1137755.26759642,1908735.19017902,29.0,25.0,25.0,41.905710037357856,-87.76941966333997,"(41.90571003735786,-87.76941966333997)",2014-08-01
117921,08/01/2014,Completed,08/04/2014,14-01250765,Street Light Out,2300 W VAN BUREN ST,60612.0,1161136.2954228001,1898117.45390776,2.0,12.0,28.0,41.876120179900944,-87.68382782860535,"(41.876120179900944,-87.68382782860535)",2014-08-01
117922,08/01/2014,Completed,08/04/2014,14-01251310,Street Light Out,1734 N MEADE AVE,60639.0,1135478.44648584,1910895.38498014,29.0,25.0,25.0,41.91167864526162,-87.77773196281555,"(41.91167864526162,-87.77773196281554)",2014-08-01
117923,08/01/2014,Completed,08/04/2014,14-01252378,Street Light Out,1544 S KEELER AVE,60623.0,1148638.08801695,1892084.2216233,24.0,10.0,29.0,41.85981463705009,-87.72987293778179,"(41.85981463705009,-87.7298729377818)",2014-08-01
117924,08/01/2014,Completed,08/04/2014,14-01252384,Street Light Out,1000 W ADAMS ST,60607.0,1169809.25331939,1899284.68462855,2.0,12.0,28.0,41.87913863269501,-87.65194985416987,"(41.87913863269501,-87.65194985416986)",2014-08-01
117925,08/01/2014,Completed,08/04/2014,14-01252464,Street Light Out,431 E 60TH ST,60637.0,1180291.85012672,1865328.11662169,20.0,3.0,42.0,41.78572454223371,-87.61450337817391,"(41.78572454223371,-87.6145033781739)",2014-08-01
117926,08/01/2014,Completed,08/04/2014,14-01252570,Street Light Out,9000 S UNION AVE,60620.0,1173216.3733661,1845256.41457723,21.0,22.0,71.0,41.730804712005686,-87.64103751491791,"(41.73080471200568,-87.64103751491791)",2014-08-01
117927,08/01/2014,Completed,08/04/2014,14-01252574,Street Light Out,8900 S UNION AVE,60620.0,1173197.80307504,1845897.79502217,21.0,22.0,71.0,41.73256515720312,-87.64108664709498,"(41.73256515720312,-87.64108664709497)",2014-08-01
117928,08/01/2014,Completed,08/04/2014,14-01252839,Street Light Out,5400 N LAKEWOOD AVE,60640.0,1166662.51771901,1935992.22309077,48.0,20.0,77.0,41.97993407013809,-87.66244944187311,"(41.979934070138086,-87.66244944187311)",2014-08-01
117929,08/01/2014,Completed,08/04/2014,14-01252938,Street Light Out,6265 N KEATING AVE,60646.0,1143594.30636958,1941512.41000494,39.0,17.0,12.0,41.9955462875069,-87.74714706046987,"(41.9955462875069,-87.74714706046987)",2014-08-01
117930,08/01/2014,Completed,08/04/2014,14-01253692,Street Light Out,1032 W 59TH ST,60621.0,1170322.00741233,1865689.12026718,16.0,7.0,68.0,41.78693808848024,-87.65104689934068,"(41.78693808848024,-87.65104689934068)",2014-08-01
117931,08/01/2014,Completed,08/04/2014,14-01253710,Street Light Out,4300 S PRAIRIE AVE,60653.0,1178756.27938274,1876562.13659334,3.0,2.0,38.0,41.816586800728814,-87.61979153400014,"(41.81658680072881,-87.61979153400014)",2014-08-01
117932,08/01/2014,Completed,08/04/2014,14-01253715,Street Light Out,4000 S PRAIRIE AVE,60653.0,1178698.78178655,1878547.17027738,3.0,2.0,38.0,41.822035205593146,-87.61994199159437,"(41.822035205593146,-87.61994199159437)",2014-08-01
117933,08/01/2014,Completed,08/04/2014,14-01253724,Street Light Out,3900 S PRAIRIE AVE,60653.0,1178680.87012441,1879188.42638122,3.0,2.0,38.0,41.823795271808315,-87.61998816921655,"(41.82379527180831,-87.61998816921657)",2014-08-01
117934,08/01/2014,Completed,08/04/2014,14-01253752,Street Light Out,150 N HALSTED ST,60661.0,1171021.77078962,1901255.63876727,27.0,12.0,28.0,41.884520562731645,-87.64743989273992,"(41.88452056273164,-87.64743989273992)",2014-08-01
117935,08/01/2014,Completed,08/04/2014,14-01253760,Street Light Out,6200 S EBERHART AVE,60637.0,1180645.82723351,1864010.99857217,20.0,3.0,42.0,41.78210211732522,-87.61324598572386,"(41.78210211732522,-87.61324598572386)",2014-08-01
117936,08/01/2014,Completed,08/04/2014,14-01253783,Street Light Out,1750 W PIERCE AVE,60622.0,1164777.48107344,1910431.78992535,1.0,14.0,24.0,41.90983525895777,-87.670109190334,"(41.909835258957784,-87.670109190334)",2014-08-01
117937,08/01/2014,Completed,08/04/2014,14-01253805,Street Light Out,5700 S ADA ST,60636.0,1168300.18929212,1866961.77598027,16.0,7.0,67.0,41.79047419495853,-87.65842334737678,"(41.79047419495852,-87.65842334737678)",2014-08-01
117938,08/01/2014,Completed,08/04/2014,14-01253812,Street Light Out,6470 N NEWARK AVE,60631.0,1129409.23999493,1942711.94002464,41.0,16.0,10.0,41.999092504637076,-87.7993004144364,"(41.999092504637076,-87.79930041443639)",2014-08-01
117939,08/01/2014,Completed,08/04/2014,14-01253820,Street Light Out,6931 W IMLAY ST,60631.0,1129127.92049867,1942385.19678767,41.0,16.0,10.0,41.998200701715454,-87.80034281223368,"(41.99820070171545,-87.80034281223367)",2014-08-01
117940,08/01/2014,Completed,08/04/2014,14-01253851,Street Light Out,800 W 76TH ST,60620.0,1172283.8178306,1854462.66571814,17.0,6.0,71.0,41.756088416985705,-87.64418368702374,"(41.756088416985705,-87.64418368702374)",2014-08-01
117941,08/01/2014,Completed,08/04/2014,14-01253854,Street Light Out,3700 S STATE ST,60609.0,1176902.00238222,1880473.13009212,3.0,2.0,35.0,41.82736094841445,-87.62647537810173,"(41.82736094841445,-87.62647537810174)",2014-08-01
117942,08/01/2014,Completed,08/04/2014,14-01253875,Street Light Out,2954 N NATCHEZ AVE,60634.0,1132570.82657184,1918936.64227405,36.0,25.0,19.0,41.93379601585044,-87.7882260698905,"(41.93379601585044,-87.7882260698905)",2014-08-01
117943,08/01/2014,Completed,08/04/2014,14-01253918,Street Light Out,10400 S AVENUE H,60617.0,1202824.14076569,1836615.1296299999,10.0,4.0,52.0,41.70638771022666,-87.53287054635969,"(41.70638771022666,-87.53287054635969)",2014-08-01
117944,08/01/2014,Completed,08/04/2014,14-01253946,Street Light Out,7600 S HALSTED ST,60620.0,1172283.8178306,1854462.66571814,17.0,6.0,71.0,41.756088416985705,-87.64418368702374,"(41.756088416985705,-87.64418368702374)",2014-08-01
117945,08/01/2014,Completed,08/04/2014,14-01253960,Street Light Out,8133 S RICHMOND ST,60652.0,1158126.15797292,1850546.7305071,18.0,8.0,70.0,41.745641971478456,-87.69617499754291,"(41.745641971478456,-87.6961749975429)",2014-08-01
117946,08/01/2014,Completed,08/04/2014,14-01254081,Street Light Out,4302 S PRAIRIE AVE,60653.0,1178756.67938274,1876548.83659334,3.0,2.0,38.0,41.81655029530964,-87.61979047184192,"(41.81655029530964,-87.61979047184192)",2014-08-01
117947,08/01/2014,Completed,08/04/2014,14-01254091,Street Light Out,12000 S AVENUE O,60617.0,1200968.73656663,1825970.83658051,10.0,4.0,55.0,41.677225913119905,-87.5400237616391,"(41.677225913119905,-87.54002376163909)",2014-08-01
117948,08/01/2014,Completed,08/04/2014,14-01254115,Street Light Out,2100 S MARSHALL BLVD,60623.0,1157023.68831292,1889917.5263271,24.0,10.0,30.0,41.85370312889165,-87.69915034052192,"(41.85370312889165,-87.69915034052192)",2014-08-01
117949,08/02/2014,Completed - Dup,08/04/2014,14-01254139,Street Light Out,3900 N ASHLAND AVE,60613.0,1164958.83011687,1925968.75941738,47.0,19.0,6.0,41.952465733358736,-87.66900074073484,"(41.952465733358736,-87.66900074073484)",2014-08-02
117950,08/02/2014,Completed - Dup,08/04/2014,14-01254234,Street Light Out,3917 N ASHLAND AVE,60613.0,1164955.73011687,1926082.95941738,47.0,19.0,6.0,41.95277916937562,-87.66900888228419,"(41.95277916937562,-87.66900888228419)",2014-08-02
117951,08/02/2014,Completed - Dup,08/04/2014,14-01256444,Street Light Out,9141 S WILLIAMS AVE,60619.0,1179383.62642541,1844332.52448186,6.0,6.0,49.0,41.728131102226975,-87.61847298799762,"(41.72813110222698,-87.61847298799763)",2014-08-02
117952,08/02/2014,Completed - Dup,08/04/2014,14-01256462,Street Light Out,9110 S WILLIAMS AVE,60619.0,1179389.32642541,1844494.02448186,6.0,6.0,49.0,41.72857414843524,-87.61844719458912,"(41.728574148435236,-87.61844719458912)",2014-08-02
117953,08/02/2014,Completed - Dup,08/04/2014,14-01256533,Street Light Out,4200 S CALUMET AVE,60653.0,1179129.76662575,1877229.92157616,3.0,2.0,38.0,41.81841073867836,-87.61840112648581,"(41.81841073867836,-87.61840112648581)",2014-08-02
117954,08/02/2014,Completed - Dup,08/04/2014,14-01256575,Street Light Out,3904 N ASHLAND AVE,60613.0,1164958.13011687,1925995.65941738,47.0,19.0,6.0,41.95253956309293,-87.66900254743166,"(41.952539563092934,-87.66900254743165)",2014-08-02
117955,08/02/2014,Completed - Dup,08/04/2014,14-01256602,Street Light Out,2200 N NORDICA AVE,60707.0,1128729.87640101,1913844.21716694,36.0,25.0,25.0,41.919887909622496,-87.80245756767538,"(41.919887909622496,-87.80245756767538)",2014-08-02
117956,08/02/2014,Completed - Dup,08/04/2014,14-01256603,Street Light Out,7100 W BELDEN AVE,60707.0,1128716.97737279,1914287.79076716,36.0,25.0,25.0,41.92110535166462,-87.80249487331305,"(41.921105351664615,-87.80249487331304)",2014-08-02
117957,08/02/2014,Completed - Dup,08/04/2014,14-01256604,Street Light Out,7100 W PALMER ST,60707.0,1128729.87640101,1913844.21716694,36.0,25.0,25.0,41.919887909622496,-87.80245756767538,"(41.919887909622496,-87.80245756767538)",2014-08-02
117958,08/02/2014,Completed - Dup,08/04/2014,14-01256620,Street Light Out,7100 W PALMER ST,60707.0,1128729.87640101,1913844.21716694,36.0,25.0,25.0,41.919887909622496,-87.80245756767538,"(41.919887909622496,-87.80245756767538)",2014-08-02
117959,08/02/2014,Completed - Dup,08/04/2014,14-01256628,Street Light Out,9035 S UNION AVE,60620.0,1173225.57186662,1844893.50412725,21.0,22.0,71.0,41.729808633025016,-87.64101451100166,"(41.729808633025016,-87.64101451100166)",2014-08-02
117960,08/02/2014,Completed - Dup,08/04/2014,14-01256634,Street Light Out,3800 N ASHLAND AVE,60613.0,1164976.28712458,1925303.56651587,47.0,19.0,6.0,41.950640041633996,-87.66895552413168,"(41.95064004163399,-87.66895552413168)",2014-08-02
117961,08/02/2014,Completed - Dup,08/04/2014,14-01256723,Street Light Out,9594 S COLFAX AVE,60617.0,1195158.45262627,1841823.89001458,7.0,4.0,51.0,41.7208731526187,-87.56077020184448,"(41.7208731526187,-87.56077020184449)",2014-08-02
117962,08/02/2014,Completed - Dup,08/04/2014,14-01256725,Street Light Out,1300 N KEDZIE AVE,60651.0,1154790.91742865,1908472.74986804,26.0,14.0,23.0,41.904665514101204,-87.70684833627192,"(41.9046655141012,-87.7068483362719)",2014-08-02
117963,08/02/2014,Completed - Dup,08/04/2014,14-01256738,Street Light Out,4800 N ELSTON AVE,60630.0,1145561.61716839,1931526.74242503,39.0,17.0,14.0,41.96810773762195,-87.74016458807667,"(41.96810773762195,-87.74016458807667)",2014-08-02
117964,08/02/2014,Completed - Dup,08/04/2014,14-01256760,Street Light Out,3800 N ASHLAND AVE,60613.0,1164976.28712458,1925303.56651587,47.0,19.0,6.0,41.950640041633996,-87.66895552413168,"(41.95064004163399,-87.66895552413168)",2014-08-02
117965,08/02/2014,Completed - Dup,08/04/2014,14-01256892,Street Light Out,3900 N ASHLAND AVE,60613.0,1164958.83011687,1925968.75941738,47.0,19.0,6.0,41.952465733358736,-87.66900074073484,"(41.952465733358736,-87.66900074073484)",2014-08-02
117966,08/02/2014,Completed - Dup,08/04/2014,14-01256919,Street Light Out,9500 S COLFAX AVE,60617.0,1195165.64577684,1842471.20619081,7.0,4.0,51.0,41.72264927044245,-87.5607225769975,"(41.722649270442446,-87.5607225769975)",2014-08-02
117967,08/02/2014,Completed - Dup,08/04/2014,14-01256935,Street Light Out,1358 N KEDZIE AVE,60651.0,1154777.11413276,1908924.66009288,26.0,14.0,23.0,41.905905872772706,-87.70688691726934,"(41.9059058727727,-87.70688691726934)",2014-08-02
117968,08/02/2014,Completed,08/04/2014,14-01254230,Street Light Out,1599 W BIRCHWOOD AVE,60626.0,1164271.75063359,1949891.76900301,49.0,24.0,1.0,42.01812581818237,-87.67084623080736,"(42.01812581818237,-87.67084623080736)",2014-08-02
117969,08/02/2014,Completed,08/04/2014,14-01254486,Street Light Out,1353 S BLUE ISLAND AVE,60608.0,1168827.6246341001,1893849.99980363,2.0,12.0,28.0,41.864246765493284,-87.65571173458393,"(41.864246765493284,-87.65571173458392)",2014-08-02
117970,08/02/2014,Completed,08/04/2014,14-01254687,Street Light Out,812 N CALIFORNIA AVE,60622.0,1157575.04926974,1905288.81317771,26.0,12.0,24.0,41.89587226567224,-87.69670817465173,"(41.89587226567224,-87.69670817465173)",2014-08-02
117971,08/02/2014,Completed,08/04/2014,14-01254717,Street Light Out,3656 W 65TH ST,60629.0,1153090.90330203,1861260.40340947,13.0,8.0,65.0,41.77514286652585,-87.71434284317722,"(41.775142866525854,-87.71434284317722)",2014-08-02
117972,08/02/2014,Completed,08/04/2014,14-01254739,Street Light Out,3301 W 65TH ST,60629.0,1155505.14917149,1861329.68862044,15.0,8.0,66.0,41.775284970041106,-87.70549058990423,"(41.77528497004111,-87.70549058990424)",2014-08-02
117973,08/02/2014,Completed,08/04/2014,14-01255184,Street Light Out,207 E 46TH ST,60653.0,1178403.57201142,1874569.45761051,3.0,2.0,38.0,41.81112674964749,-87.62114591558803,"(41.81112674964749,-87.62114591558803)",2014-08-02
117974,08/02/2014,Completed,08/04/2014,14-01255863,Street Light Out,5500 W ADAMS ST,60644.0,1139907.95613265,1898791.65006906,29.0,15.0,25.0,41.878384632458456,-87.76175528980366,"(41.878384632458456,-87.76175528980366)",2014-08-02
117975,08/02/2014,Completed,08/04/2014,14-01256329,Street Light Out,8525 S KENNETH AVE,60652.0,1148243.88092335,1847643.62121859,18.0,8.0,70.0,41.73787041168069,-87.73246028498525,"(41.73787041168069,-87.73246028498527)",2014-08-02
117976,08/02/2014,Completed,08/04/2014,14-01256588,Street Light Out,1000 W MAXWELL ST,60608.0,1170117.06697081,1894022.11608842,25.0,12.0,28.0,41.86469103992194,-87.65097323311045,"(41.86469103992194,-87.65097323311043)",2014-08-02
117977,08/02/2014,Completed,08/04/2014,14-01256695,Street Light Out,832 W 98TH PL,60643.0,1172382.0098909999,1839526.34487007,21.0,22.0,73.0,41.71509896062052,-87.64426209153272,"(41.71509896062052,-87.64426209153274)",2014-08-02
117978,08/02/2014,Completed,08/04/2014,14-01256701,Street Light Out,200 S PEORIA ST,60607.0,1170444.18242471,1899304.46058048,2.0,12.0,28.0,41.87917904311214,-87.64961794208617,"(41.87917904311213,-87.64961794208617)",2014-08-02
117979,08/02/2014,Completed,08/04/2014,14-01256731,Street Light Out,8700 S STATE ST,60619.0,1177806.56787586,1847296.13788419,21.0,6.0,44.0,41.73629942640984,-87.62416057023711,"(41.73629942640984,-87.6241605702371)",2014-08-02
117980,08/02/2014,Completed,08/04/2014,14-01256747,Street Light Out,1400 W HOLLYWOOD AVE,60660.0,1165950.50099167,1938013.45732448,48.0,20.0,77.0,41.985495669380576,-87.66500995209582,"(41.985495669380576,-87.66500995209582)",2014-08-02
117981,08/02/2014,Completed,08/04/2014,14-01256779,Street Light Out,859 W NEWPORT AVE,60657.0,1169895.23970887,1923106.71527091,44.0,19.0,6.0,41.9445057400429,-87.65093820904079,"(41.9445057400429,-87.65093820904079)",2014-08-02
117982,08/02/2014,Completed,08/04/2014,14-01256784,Street Light Out,4000 N ASHLAND AVE,60613.0,1164940.58697033,1926633.55608067,47.0,19.0,6.0,41.95429035393109,-87.66904886048326,"(41.95429035393109,-87.66904886048326)",2014-08-02
117983,08/02/2014,Completed,08/04/2014,14-01256878,Street Light Out,7546 S KENWOOD AVE,60619.0,1186518.85260634,1855229.46531135,5.0,4.0,43.0,41.757867832935794,-87.59199169741369,"(41.757867832935794,-87.59199169741369)",2014-08-02
117984,08/02/2014,Completed,08/04/2014,14-01256974,Street Light Out,4800 W DAKIN ST,60641.0,1143662.45688979,1925816.30993131,45.0,16.0,15.0,41.95247370213829,-87.74729135157749,"(41.952473702138285,-87.74729135157749)",2014-08-02
117985,08/03/2014,Completed - Dup,08/04/2014,14-01257004,Street Light Out,7860 S TALMAN AVE,60652.0,1160082.69007573,1852178.37773442,18.0,8.0,70.0,41.75007948561166,-87.6889610688988,"(41.75007948561166,-87.68896106889882)",2014-08-03
117986,08/03/2014,Completed - Dup,08/04/2014,14-01257047,Street Light Out,3847 N ASHLAND AVE,60613.0,1164967.98712458,1925619.36651587,47.0,19.0,6.0,41.95150678820819,-87.66897703564682,"(41.95150678820819,-87.66897703564683)",2014-08-03
117987,08/03/2014,Completed - Dup,08/04/2014,14-01258323,Street Light Out,12700 S HALSTED ST,60628.0,1173309.47791238,1820637.6863854,34.0,5.0,53.0,41.663245103131615,-87.64142094231725,"(41.663245103131615,-87.64142094231725)",2014-08-03
117988,08/03/2014,Completed - Dup,08/04/2014,14-01258690,Street Light Out,11333 S NORMAL AVE,60628.0,1174990.66041312,1829746.53980308,34.0,22.0,49.0,41.688204049368785,-87.63499849981375,"(41.68820404936879,-87.63499849981375)",2014-08-03
117989,08/03/2014,Completed - Dup,08/04/2014,14-01258942,Street Light Out,7300 S SOUTH SHORE DR,60649.0,1195061.23376837,1857561.5764952,7.0,3.0,43.0,41.76406104657187,-87.56060867360962,"(41.76406104657187,-87.56060867360962)",2014-08-03
117990,08/03/2014,Completed - Dup,08/04/2014,14-01259088,Street Light Out,4200 S PRAIRIE AVE,60653.0,1178737.54879155,1877219.18677189,3.0,2.0,38.0,41.81839022750364,-87.61984022865316,"(41.81839022750364,-87.61984022865315)",2014-08-03
117991,08/03/2014,Completed - Dup,08/04/2014,14-01259102,Street Light Out,5226 W WELLINGTON AVE,60641.0,1141010.63689419,1919446.61400602,31.0,25.0,19.0,41.935043988972005,-87.75719704004422,"(41.935043988972005,-87.7571970400442)",2014-08-03
117992,08/03/2014,Completed - Dup,08/04/2014,14-01259113,Street Light Out,4805 S LAVERGNE AVE,60638.0,1143835.5807883001,1872309.36268856,23.0,8.0,56.0,41.80564083372144,-87.74799641337775,"(41.80564083372144,-87.74799641337775)",2014-08-03
117993,08/03/2014,Completed - Dup,08/04/2014,14-01259122,Street Light Out,3800 N ASHLAND AVE,60613.0,1164976.28712458,1925303.56651587,47.0,19.0,6.0,41.950640041633996,-87.66895552413168,"(41.95064004163399,-87.66895552413168)",2014-08-03
117994,08/03/2014,Completed - Dup,08/04/2014,14-01259157,Street Light Out,3800 N ASHLAND AVE,60613.0,1164976.28712458,1925303.56651587,47.0,19.0,6.0,41.950640041633996,-87.66895552413168,"(41.95064004163399,-87.66895552413168)",2014-08-03
117995,08/03/2014,Completed - Dup,08/04/2014,14-01259158,Street Light Out,3900 N ASHLAND AVE,60613.0,1164958.83011687,1925968.75941738,47.0,19.0,6.0,41.952465733358736,-87.66900074073484,"(41.952465733358736,-87.66900074073484)",2014-08-03
117996,08/03/2014,Completed - Dup,08/04/2014,14-01259167,Street Light Out,3800 N ASHLAND AVE,60613.0,1164976.28712458,1925303.56651587,47.0,19.0,6.0,41.950640041633996,-87.66895552413168,"(41.95064004163399,-87.66895552413168)",2014-08-03
117997,08/03/2014,Completed - Dup,08/04/2014,14-01259181,Street Light Out,9059 S UNION AVE,60620.0,1173229.37186662,1844755.50412725,21.0,22.0,71.0,41.72942985821656,-87.6410046566983,"(41.729429858216555,-87.64100465669831)",2014-08-03
117998,08/03/2014,Completed - Dup,08/04/2014,14-01259190,Street Light Out,7300 S SOUTH SHORE DR,60649.0,1195061.23376837,1857561.5764952,7.0,3.0,43.0,41.76406104657187,-87.56060867360962,"(41.76406104657187,-87.56060867360962)",2014-08-03
117999,08/03/2014,Completed - Dup,08/04/2014,14-01259192,Street Light Out,4800 S LAVERGNE AVE,60638.0,1143834.5807883001,1872342.96268856,23.0,8.0,56.0,41.80573305611919,-87.74799924179091,"(41.80573305611919,-87.7479992417909)",2014-08-03
118000,08/03/2014,Completed - Dup,08/04/2014,14-01259196,Street Light Out,4200 S PRAIRIE AVE,60653.0,1178737.54879155,1877219.18677189,3.0,2.0,38.0,41.81839022750364,-87.61984022865316,"(41.81839022750364,-87.61984022865315)",2014-08-03
118001,08/03/2014,Completed,08/04/2014,14-01256992,Street Light Out,5205 W BYRON ST,60641.0,1140965.64728178,1925425.21576753,38.0,16.0,15.0,41.95145067910122,-87.75721470679945,"(41.95145067910122,-87.75721470679945)",2014-08-03
118002,08/03/2014,Completed,08/04/2014,14-01257000,Street Light Out,4800 W AUGUSTA BLVD,60651.0,1144177.779918,1906218.88591175,37.0,15.0,25.0,41.89868673794764,-87.74589052839158,"(41.89868673794764,-87.7458905283916)",2014-08-03
118003,08/03/2014,Completed,08/04/2014,14-01258407,Street Light Out,8800 S INDIANA AVE,60619.0,1179131.25059024,1846688.91996602,6.0,6.0,44.0,41.73460309056543,-87.61932587705454,"(41.73460309056543,-87.61932587705454)",2014-08-03
118004,08/04/2014,Completed - Dup,08/04/2014,14-01259304,Street Light Out,4200 S CALUMET AVE,60653.0,1179129.76662575,1877229.92157616,3.0,2.0,38.0,41.81841073867836,-87.61840112648581,"(41.81841073867836,-87.61840112648581)",2014-08-04
118005,08/04/2014,Completed - Dup,08/04/2014,14-01259342,Street Light Out,4200 S PRAIRIE AVE,60653.0,1178737.54879155,1877219.18677189,3.0,2.0,38.0,41.81839022750364,-87.61984022865316,"(41.81839022750364,-87.61984022865315)",2014-08-04
118006,08/04/2014,Completed - Dup,08/04/2014,14-01259367,Street Light Out,4200 S CALUMET AVE,60653.0,1179129.76662575,1877229.92157616,3.0,2.0,38.0,41.81841073867836,-87.61840112648581,"(41.81841073867836,-87.61840112648581)",2014-08-04
118007,08/04/2014,Completed - Dup,08/04/2014,14-01259395,Street Light Out,3917 N ASHLAND AVE,60613.0,1164955.73011687,1926082.95941738,47.0,19.0,6.0,41.95277916937562,-87.66900888228419,"(41.95277916937562,-87.66900888228419)",2014-08-04
118008,08/04/2014,Completed - Dup,08/04/2014,14-01259473,Street Light Out,9053 S UNION AVE,60620.0,1173228.37186662,1844790.00412725,21.0,22.0,71.0,41.72952455302459,-87.64100730342925,"(41.72952455302459,-87.64100730342923)",2014-08-04
118009,08/04/2014,Completed - Dup,08/04/2014,14-01259707,Street Light Out,5208 W HENDERSON ST,60641.0,1141054.51761418,1921775.99607977,38.0,16.0,15.0,41.94143523430473,-87.75697822016672,"(41.94143523430473,-87.75697822016672)",2014-08-04
118010,08/04/2014,Completed - Dup,08/04/2014,14-01259841,Street Light Out,6148 S MOODY AVE,60638.0,1136461.36161268,1863125.36421672,23.0,8.0,64.0,41.78057294637578,-87.77526137912777,"(41.780572946375784,-87.77526137912777)",2014-08-04
118011,08/04/2014,Completed - Dup,08/04/2014,14-01260607,Street Light Out,7100 W BELDEN AVE,60707.0,1128716.97737279,1914287.79076716,36.0,25.0,25.0,41.92110535166462,-87.80249487331305,"(41.921105351664615,-87.80249487331304)",2014-08-04
118012,08/04/2014,Completed - Dup,08/04/2014,14-01260910,Street Light Out,9500 S COLFAX AVE,60617.0,1195165.64577684,1842471.20619081,7.0,4.0,51.0,41.72264927044245,-87.5607225769975,"(41.722649270442446,-87.5607225769975)",2014-08-04
118013,08/04/2014,Completed - Dup,08/04/2014,14-01262048,Street Light Out,11328 S NORMAL AVE,60628.0,1174989.56041312,1829779.93980308,34.0,22.0,49.0,41.68829572856698,-87.63500153560062,"(41.68829572856698,-87.63500153560062)",2014-08-04
118014,08/04/2014,Completed - Dup,08/04/2014,14-01262841,Street Light Out,310 W 29TH ST,60616.0,1174655.65317313,1885473.20370324,11.0,9.0,34.0,41.84113198916779,-87.6345676192681,"(41.84113198916779,-87.6345676192681)",2014-08-04
118015,08/04/2014,Completed - Dup,08/04/2014,14-01263882,Street Light Out,9638 S COLFAX AVE,60617.0,1195288.7380123998,1841444.58770992,7.0,4.0,51.0,41.71982910281234,-87.56030547966814,"(41.719829102812334,-87.56030547966814)",2014-08-04
118016,08/04/2014,Completed - Dup,08/04/2014,14-01267622,Street Light Out,7100 S UNION AVE,60621.0,1172977.27990423,1857806.47258748,6.0,7.0,68.0,41.765248961539605,-87.64154375752697,"(41.76524896153961,-87.64154375752697)",2014-08-04
118017,08/04/2014,Completed,08/04/2014,14-01264820,Street Light Out,7100 S GREENWOOD AVE,60619.0,1184780.70007939,1858130.94732582,5.0,3.0,69.0,41.765870704973004,-87.59827087959499,"(41.765870704973004,-87.598270879595)",2014-08-04
118216,08/01/2014,Completed - Dup,08/05/2014,14-01246774,Street Light Out,1028 E 62ND ST,60637.0,1184081.20937716,1864106.09508235,20.0,3.0,42.0,41.78228343433374,-87.60064813478962,"(41.78228343433374,-87.60064813478962)",2014-08-01
118217,08/01/2014,Completed - Dup,08/05/2014,14-01246789,Street Light Out,2525 E 76TH ST,60649.0,1194448.97640033,1855061.63256922,7.0,4.0,43.0,41.75721608527761,-87.56293475550737,"(41.75721608527761,-87.56293475550737)",2014-08-01
118218,08/01/2014,Completed - Dup,08/05/2014,14-01247633,Street Light Out,7199 W GRAND AVE,60707.0,1127687.13667468,1915338.80368849,36.0,25.0,18.0,41.92400689781503,-87.8062550929867,"(41.92400689781503,-87.8062550929867)",2014-08-01
118219,08/01/2014,Completed - Dup,08/05/2014,14-01248613,Street Light Out,420 W 57TH ST,60621.0,1174424.37119764,1867138.70058672,3.0,7.0,68.0,41.790825572835324,-87.63596235650002,"(41.79082557283533,-87.63596235650002)",2014-08-01
118220,08/01/2014,Completed - Dup,08/05/2014,14-01249315,Street Light Out,10722 S TROY ST,60655.0,1157237.68741673,1833357.54171622,19.0,22.0,74.0,41.69848986386868,-87.69989399396654,"(41.69848986386868,-87.69989399396654)",2014-08-01
118221,08/01/2014,Completed - Dup,08/05/2014,14-01249744,Street Light Out,3728 W PALMER ST,60647.0,1151162.49477505,1914364.51737375,35.0,25.0,22.0,41.920905012298974,-87.72002190576357,"(41.92090501229898,-87.72002190576357)",2014-08-01
118222,08/01/2014,Completed - Dup,08/05/2014,14-01250333,Street Light Out,5500 S WASHTENAW AVE,60629.0,1159308.95153038,1868081.63763436,16.0,8.0,63.0,41.79373620629058,-87.69136140622793,"(41.793736206290575,-87.69136140622794)",2014-08-01
118223,08/01/2014,Completed - Dup,08/05/2014,14-01250680,Street Light Out,5842 S LA SALLE ST,60621.0,1176301.0611951,1866199.24988161,20.0,2.0,68.0,41.78820564524821,-87.62910923373155,"(41.78820564524821,-87.62910923373155)",2014-08-01
118224,08/01/2014,Completed - Dup,08/05/2014,14-01251206,Street Light Out,718 N LARAMIE AVE,60644.0,1141563.70878262,1904257.05100446,28.0,15.0,25.0,41.893351946661724,-87.7555405219553,"(41.893351946661724,-87.7555405219553)",2014-08-01
118225,08/01/2014,Completed - Dup,08/05/2014,14-01251259,Street Light Out,7900 S TALMAN AVE,60652.0,1160083.92108702,1852131.08657895,18.0,8.0,70.0,41.749949686085735,-87.68895785574371,"(41.749949686085735,-87.68895785574372)",2014-08-01
118226,08/01/2014,Completed - Dup,08/05/2014,14-01251264,Street Light Out,9600 S ESCANABA AVE,60617.0,1197057.16889442,1841853.66258846,10.0,4.0,51.0,41.7209078838082,-87.55381478481735,"(41.720907883808195,-87.55381478481735)",2014-08-01
118227,08/01/2014,Completed - Dup,08/05/2014,14-01252028,Street Light Out,2321 W 113TH PL,60643.0,1162913.02710838,1829258.25979643,19.0,22.0,75.0,41.68712429057597,-87.67922752671295,"(41.68712429057598,-87.67922752671296)",2014-08-01
118228,08/01/2014,Completed - Dup,08/05/2014,14-01252157,Street Light Out,5000 S SPAULDING AVE,60632.0,1155225.11998121,1871245.31999618,14.0,8.0,63.0,41.80250050510499,-87.70625202897808,"(41.80250050510499,-87.70625202897808)",2014-08-01
118229,08/01/2014,Completed - Dup,08/05/2014,14-01252562,Street Light Out,2606 W 79TH PL,60652.0,1160327.81859101,1851829.33847,18.0,8.0,70.0,41.74911662690015,-87.68807239580471,"(41.74911662690015,-87.68807239580471)",2014-08-01
118230,08/01/2014,Completed - Dup,08/05/2014,14-01253023,Street Light Out,5549 S WASHTENAW AVE,60629.0,1159318.25153038,1867753.23763436,16.0,8.0,63.0,41.79283484183261,-87.69133629649721,"(41.79283484183261,-87.69133629649721)",2014-08-01
118231,08/01/2014,Completed - Dup,08/05/2014,14-01253661,Street Light Out,9700 S ESCANABA AVE,60617.0,1197070.50129097,1841188.59402804,10.0,4.0,51.0,41.71908254583642,-87.55378800970459,"(41.71908254583642,-87.5537880097046)",2014-08-01
118232,08/01/2014,Completed - Dup,08/05/2014,14-01253675,Street Light Out,2500 W 80TH ST,60652.0,1161101.43017941,1851518.27668691,18.0,8.0,70.0,41.74824707049611,-87.68524615159114,"(41.74824707049611,-87.68524615159114)",2014-08-01
118233,08/01/2014,Completed - Dup,08/05/2014,14-01253712,Street Light Out,4100 S PRAIRIE AVE,60653.0,1178718.3089873998,1877875.52720733,3.0,2.0,38.0,41.8201917177249,-87.61989081495474,"(41.8201917177249,-87.61989081495474)",2014-08-01
118234,08/01/2014,Completed - Dup,08/05/2014,14-01253728,Street Light Out,521 W 33RD ST,60616.0,1173274.32273108,1883039.68230175,11.0,9.0,60.0,41.834484927390044,-87.63970868945805,"(41.834484927390044,-87.63970868945805)",2014-08-01
118235,08/01/2014,Completed - Dup,08/05/2014,14-01253751,Street Light Out,1020 E 62ND ST,60637.0,1184045.40937716,1864104.89508235,20.0,3.0,42.0,41.782280978440454,-87.60077942335627,"(41.78228097844045,-87.60077942335627)",2014-08-01
118236,08/01/2014,Completed - Dup,08/05/2014,14-01253756,Street Light Out,1600 S LOOMIS ST,60608.0,1167298.29978359,1892176.57988809,25.0,12.0,31.0,41.859687745471646,-87.6613739003726,"(41.859687745471646,-87.6613739003726)",2014-08-01
118237,08/01/2014,Completed - Dup,08/05/2014,14-01253766,Street Light Out,9600 S ESCANABA AVE,60617.0,1197057.16889442,1841853.66258846,10.0,4.0,51.0,41.7209078838082,-87.55381478481735,"(41.720907883808195,-87.55381478481735)",2014-08-01
118238,08/01/2014,Completed - Dup,08/05/2014,14-01253773,Street Light Out,2532 W 79TH PL,60652.0,1160759.62697656,1851840.17987227,18.0,8.0,70.0,41.749137480188885,-87.68648977407946,"(41.74913748018888,-87.68648977407945)",2014-08-01
118239,08/01/2014,Completed - Dup,08/05/2014,14-01253777,Street Light Out,9600 S ESCANABA AVE,60617.0,1197057.16889442,1841853.66258846,10.0,4.0,51.0,41.7209078838082,-87.55381478481735,"(41.720907883808195,-87.55381478481735)",2014-08-01
118240,08/01/2014,Completed - Dup,08/05/2014,14-01253778,Street Light Out,9500 S ESCANABA AVE,60617.0,1197042.5740052,1842518.55872463,10.0,4.0,51.0,41.72273277943259,-87.55384619064041,"(41.72273277943259,-87.5538461906404)",2014-08-01
118241,08/01/2014,Completed - Dup,08/05/2014,14-01253801,Street Light Out,2100 E 97TH ST,60617.0,1191541.33572735,1841049.33992222,7.0,4.0,51.0,41.718836018719344,-87.57404368526228,"(41.71883601871934,-87.57404368526228)",2014-08-01
118242,08/01/2014,Completed - Dup,08/05/2014,14-01253830,Street Light Out,9500 S ESCANABA AVE,60617.0,1197042.5740052,1842518.55872463,10.0,4.0,51.0,41.72273277943259,-87.55384619064041,"(41.72273277943259,-87.5538461906404)",2014-08-01
118243,08/01/2014,Completed - Dup,08/05/2014,14-01253831,Street Light Out,9650 S CHAPPEL AVE,60617.0,1191535.06032189,1841284.83992203,7.0,4.0,51.0,41.71948240649974,-87.57405906250254,"(41.71948240649974,-87.57405906250253)",2014-08-01
118244,08/01/2014,Completed - Dup,08/05/2014,14-01253847,Street Light Out,1400 W DIVERSEY PKWY,60614.0,1166493.53079826,1918697.5717882998,32.0,19.0,6.0,41.93248046260131,-87.6635680006221,"(41.93248046260131,-87.6635680006221)",2014-08-01
118245,08/01/2014,Completed - Dup,08/05/2014,14-01253905,Street Light Out,3551 N SOUTHPORT AVE,60657.0,1166336.84483181,1923770.78022606,44.0,19.0,6.0,41.94640495644376,-87.66399823304971,"(41.946404956443764,-87.66399823304972)",2014-08-01
118246,08/01/2014,Completed - Dup,08/05/2014,14-01253935,Street Light Out,4134 S PRAIRIE AVE,60653.0,1178724.9089874,1877650.12720733,3.0,2.0,38.0,41.819573051370035,-87.61987346925552,"(41.819573051370035,-87.61987346925552)",2014-08-01
118247,08/01/2014,Completed - Dup,08/05/2014,14-01253961,Street Light Out,3300 S PARNELL AVE,60616.0,1173168.32273108,1883036.88230175,11.0,9.0,60.0,41.834479592058756,-87.64009771183984,"(41.834479592058756,-87.64009771183984)",2014-08-01
118248,08/01/2014,Completed - Dup,08/05/2014,14-01253975,Street Light Out,2952 W 39TH PL,60632.0,1157316.07068043,1878297.7048195999,14.0,9.0,58.0,41.821811046113865,-87.69839245392879,"(41.821811046113865,-87.69839245392879)",2014-08-01
118249,08/01/2014,Completed - Dup,08/05/2014,14-01253976,Street Light Out,700 N LARAMIE AVE,60644.0,1141568.10878262,1904128.75100446,28.0,15.0,25.0,41.89299979479115,-87.75552753530174,"(41.89299979479115,-87.75552753530174)",2014-08-01
118250,08/01/2014,Completed - Dup,08/05/2014,14-01253977,Street Light Out,6100 S ELLIS AVE,60637.0,1183939.20252528,1864771.01213376,20.0,3.0,42.0,41.784111344346755,-87.6011480066678,"(41.784111344346755,-87.6011480066678)",2014-08-01
118251,08/01/2014,Completed - Dup,08/05/2014,14-01253985,Street Light Out,1310 W OHIO ST,60642.0,1167608.51261837,1904143.15163254,27.0,12.0,24.0,41.89251828257222,-87.65989055038399,"(41.89251828257222,-87.65989055038399)",2014-08-01
118252,08/01/2014,Completed - Dup,08/05/2014,14-01253992,Street Light Out,10563 S MICHIGAN AVE,60628.0,1178838.70412187,1834908.42298261,9.0,5.0,49.0,41.70228252387246,-87.62075484267815,"(41.70228252387246,-87.62075484267814)",2014-08-01
118253,08/01/2014,Completed - Dup,08/05/2014,14-01254005,Street Light Out,6100 S ELLIS AVE,60637.0,1183939.20252528,1864771.01213376,20.0,3.0,42.0,41.784111344346755,-87.6011480066678,"(41.784111344346755,-87.6011480066678)",2014-08-01
118254,08/01/2014,Completed - Dup,08/05/2014,14-01254015,Street Light Out,1000 E 62ND ST,60637.0,1183956.00937716,1864101.89508235,20.0,3.0,42.0,41.78227483571367,-87.60110727811536,"(41.78227483571367,-87.60110727811536)",2014-08-01
118255,08/01/2014,Completed - Dup,08/05/2014,14-01254022,Street Light Out,9649 S CHAPPEL AVE,60617.0,1191534.86032189,1841289.63992203,7.0,4.0,51.0,41.719495583026564,-87.57405963997914,"(41.71949558302656,-87.57405963997913)",2014-08-01
118256,08/01/2014,Completed - Dup,08/05/2014,14-01254094,Street Light Out,7930 S TALMAN AVE,60652.0,1160092.13627611,1851813.11992336,18.0,8.0,70.0,41.74907696761597,-87.68893647788883,"(41.74907696761597,-87.68893647788883)",2014-08-01
118257,08/01/2014,Completed - Dup,08/05/2014,14-01254099,Street Light Out,7930 S TALMAN AVE,60652.0,1160092.13627611,1851813.11992336,18.0,8.0,70.0,41.74907696761597,-87.68893647788883,"(41.74907696761597,-87.68893647788883)",2014-08-01
118258,08/01/2014,Completed,08/05/2014,14-01246859,Street Light Out,3111 S RACINE AVE,60608.0,1168822.75010985,1884136.32766877,11.0,9.0,60.0,41.837591703814226,-87.6560108888405,"(41.83759170381423,-87.6560108888405)",2014-08-01
118259,08/01/2014,Completed,08/05/2014,14-01249667,Street Light Out,1600 N ORCHARD ST,60614.0,1171378.98987736,1910892.05147844,43.0,18.0,7.0,41.910955610450756,-87.64584458746141,"(41.91095561045076,-87.64584458746141)",2014-08-01
118260,08/01/2014,Completed,08/05/2014,14-01250074,Street Light Out,1500 N ASTOR ST,60610.0,1176347.75087781,1910401.93559369,43.0,18.0,8.0,41.909499974824136,-87.627606108604,"(41.909499974824136,-87.62760610860398)",2014-08-01
118261,08/01/2014,Completed,08/05/2014,14-01251016,Street Light Out,2300 S KILDARE AVE,60623.0,1148305.01553398,1888338.21757133,22.0,10.0,29.0,41.849541547004755,-87.73119199213923,"(41.84954154700475,-87.73119199213924)",2014-08-01
118262,08/01/2014,Completed,08/05/2014,14-01252632,Street Light Out,3800 N KENNETH AVE,60641.0,1145800.6163928001,1924887.29450049,38.0,17.0,16.0,41.94988401587837,-87.73945498638969,"(41.94988401587837,-87.7394549863897)",2014-08-01
118263,08/01/2014,Completed,08/05/2014,14-01252838,Street Light Out,11646 S LAFLIN ST,60643.0,1168426.12560429,1827502.52121665,34.0,5.0,53.0,41.682189602731476,-87.6590950705859,"(41.682189602731476,-87.6590950705859)",2014-08-01
118264,08/01/2014,Completed,08/05/2014,14-01254021,Street Light Out,3700 S STATE ST,60609.0,1176902.00238222,1880473.13009212,3.0,2.0,35.0,41.82736094841445,-87.62647537810173,"(41.82736094841445,-87.62647537810174)",2014-08-01
118265,08/02/2014,Completed - Dup,08/05/2014,14-01254154,Street Light Out,2200 N CENTRAL PARK AVE,60647.0,1152016.15507206,1914384.60481134,26.0,25.0,22.0,41.92094333776096,-87.71688481896074,"(41.92094333776096,-87.71688481896075)",2014-08-02
118266,08/02/2014,Completed - Dup,08/05/2014,14-01254161,Street Light Out,2332 N CENTRAL PARK AVE,60647.0,1151986.2632,1915395.0400727,35.0,25.0,22.0,41.923716649081825,-87.71696796415972,"(41.923716649081825,-87.71696796415972)",2014-08-02
118267,08/02/2014,Completed - Dup,08/05/2014,14-01254267,Street Light Out,5049 W DEVON AVE,60646.0,1141696.58987025,1942140.00030833,41.0,16.0,12.0,41.9973038740715,-87.75411230315628,"(41.9973038740715,-87.75411230315628)",2014-08-02
118268,08/02/2014,Completed - Dup,08/05/2014,14-01254310,Street Light Out,700 N LARAMIE AVE,60644.0,1141568.10878262,1904128.75100446,28.0,15.0,25.0,41.89299979479115,-87.75552753530174,"(41.89299979479115,-87.75552753530174)",2014-08-02
118269,08/02/2014,Completed - Dup,08/05/2014,14-01254607,Street Light Out,2947 W 39TH PL,60632.0,1157350.03047819,1878299.20948948,14.0,9.0,58.0,41.82181448639023,-87.69826782957314,"(41.82181448639023,-87.69826782957314)",2014-08-02
118270,08/02/2014,Completed - Dup,08/05/2014,14-01254815,Street Light Out,6231 S ELLIS AVE,60637.0,1183961.10937716,1863895.69508235,20.0,3.0,42.0,41.78170888553003,-87.60109501803585,"(41.78170888553003,-87.60109501803585)",2014-08-02
118271,08/02/2014,Completed - Dup,08/05/2014,14-01255176,Street Light Out,6005 S CARPENTER ST,60621.0,1170340.78270211,1864992.35172496,16.0,7.0,68.0,41.78502566594015,-87.65099833320696,"(41.78502566594015,-87.65099833320696)",2014-08-02
118272,08/02/2014,Completed - Dup,08/05/2014,14-01255296,Street Light Out,2325 W 113TH PL,60643.0,1162888.12710838,1829257.55979643,19.0,22.0,75.0,41.687122888436726,-87.67931870220077,"(41.68712288843673,-87.67931870220076)",2014-08-02
118273,08/02/2014,Completed - Dup,08/05/2014,14-01256096,Street Light Out,6212 S ELLIS AVE,60637.0,1183958.00937716,1864022.09508235,20.0,3.0,42.0,41.7820558107381,-87.60110243704464,"(41.7820558107381,-87.60110243704464)",2014-08-02
118274,08/02/2014,Completed - Dup,08/05/2014,14-01256222,Street Light Out,3422 N JANSSEN AVE,60657.0,1166032.81013158,1922820.64752233,44.0,19.0,6.0,41.94380425659367,-87.66514298909546,"(41.943804256593666,-87.66514298909546)",2014-08-02
118275,08/02/2014,Completed - Dup,08/05/2014,14-01256532,Street Light Out,1028 E 62ND ST,60637.0,1184081.20937716,1864106.09508235,20.0,3.0,42.0,41.78228343433374,-87.60064813478962,"(41.78228343433374,-87.60064813478962)",2014-08-02
118276,08/02/2014,Completed - Dup,08/05/2014,14-01256541,Street Light Out,9646 S CHAPPEL AVE,60617.0,1191534.56032189,1841304.03992203,7.0,4.0,51.0,41.71953510534641,-87.57406027361799,"(41.71953510534641,-87.57406027361799)",2014-08-02
118277,08/02/2014,Completed - Dup,08/05/2014,14-01256559,Street Light Out,5500 S WASHTENAW AVE,60629.0,1159308.95153038,1868081.63763436,16.0,8.0,63.0,41.79373620629058,-87.69136140622793,"(41.793736206290575,-87.69136140622794)",2014-08-02
118278,08/02/2014,Completed - Dup,08/05/2014,14-01256560,Street Light Out,532 W 33RD ST,60616.0,1173168.32273108,1883036.88230175,11.0,9.0,60.0,41.834479592058756,-87.64009771183984,"(41.834479592058756,-87.64009771183984)",2014-08-02
118279,08/02/2014,Completed - Dup,08/05/2014,14-01256563,Street Light Out,532 W 33RD ST,60616.0,1173168.32273108,1883036.88230175,11.0,9.0,60.0,41.834479592058756,-87.64009771183984,"(41.834479592058756,-87.64009771183984)",2014-08-02
118280,08/02/2014,Completed - Dup,08/05/2014,14-01256595,Street Light Out,2200 N NEVA AVE,60707.0,1128231.32633226,1913834.99643078,36.0,25.0,25.0,41.91987106110707,-87.80428956974517,"(41.91987106110707,-87.80428956974515)",2014-08-02
118281,08/02/2014,Completed - Dup,08/05/2014,14-01256606,Street Light Out,4839 W MELROSE ST,60641.0,1143537.70526919,1921169.95990133,30.0,16.0,15.0,41.93972603668116,-87.74786661509125,"(41.93972603668116,-87.74786661509125)",2014-08-02
118282,08/02/2014,Completed - Dup,08/05/2014,14-01256610,Street Light Out,6100 S ELLIS AVE,60637.0,1183939.20252528,1864771.01213376,20.0,3.0,42.0,41.784111344346755,-87.6011480066678,"(41.784111344346755,-87.6011480066678)",2014-08-02
118283,08/02/2014,Completed - Dup,08/05/2014,14-01256633,Street Light Out,6113 S ELLIS AVE,60637.0,1183941.40252528,1864683.11213376,20.0,3.0,42.0,41.78387008765881,-87.6011426850315,"(41.783870087658805,-87.60114268503152)",2014-08-02
118284,08/02/2014,Completed - Dup,08/05/2014,14-01256650,Street Light Out,9848 S AVALON AVE,60628.0,1186273.57752431,1839949.35500304,8.0,5.0,50.0,41.71594340252347,-87.59337206925,"(41.715943402523465,-87.59337206925)",2014-08-02
118285,08/02/2014,Completed - Dup,08/05/2014,14-01256736,Street Light Out,6100 S ELLIS AVE,60637.0,1183939.20252528,1864771.01213376,20.0,3.0,42.0,41.784111344346755,-87.6011480066678,"(41.784111344346755,-87.6011480066678)",2014-08-02
118286,08/02/2014,Completed - Dup,08/05/2014,14-01256770,Street Light Out,4132 S PRAIRIE AVE,60653.0,1178724.5089873997,1877663.32720733,3.0,2.0,38.0,41.81960928236189,-87.61987453453293,"(41.81960928236189,-87.61987453453294)",2014-08-02
118287,08/02/2014,Completed - Dup,08/05/2014,14-01256780,Street Light Out,2309 N NEVA AVE,60707.0,1128215.55589216,1914376.34732529,36.0,25.0,25.0,41.92135686486357,-87.80433524448723,"(41.92135686486357,-87.80433524448723)",2014-08-02
118288,08/02/2014,Completed - Dup,08/05/2014,14-01256782,Street Light Out,2536 W 80TH ST,60652.0,1160746.29062327,1851508.01038942,18.0,8.0,70.0,41.748226231215256,-87.68654779364336,"(41.748226231215256,-87.68654779364336)",2014-08-02
118289,08/02/2014,Completed - Dup,08/05/2014,14-01256789,Street Light Out,9847 S AVALON AVE,60628.0,1186273.27752431,1839955.45500304,8.0,5.0,50.0,41.715960148701356,-87.59337297597764,"(41.715960148701356,-87.59337297597766)",2014-08-02
118290,08/02/2014,Completed - Dup,08/05/2014,14-01256801,Street Light Out,2600 W 79TH ST,60652.0,1160082.69007573,1852178.37773442,18.0,8.0,70.0,41.75007948561166,-87.6889610688988,"(41.75007948561166,-87.68896106889882)",2014-08-02
118291,08/02/2014,Completed - Dup,08/05/2014,14-01256829,Street Light Out,3300 S PARNELL AVE,60616.0,1173168.32273108,1883036.88230175,11.0,9.0,60.0,41.834479592058756,-87.64009771183984,"(41.834479592058756,-87.64009771183984)",2014-08-02
118292,08/02/2014,Completed - Dup,08/05/2014,14-01256916,Street Light Out,1200 S HALSTED ST,60607.0,1171214.40008486,1894928.45638761,25.0,12.0,28.0,41.86715410129381,-87.64691834947314,"(41.867154101293806,-87.64691834947314)",2014-08-02
118293,08/02/2014,Completed - Dup,08/05/2014,14-01256971,Street Light Out,4800 W MELROSE ST,60641.0,1143803.10526919,1921176.35990133,30.0,16.0,15.0,41.93973862082829,-87.74689101785877,"(41.93973862082829,-87.74689101785877)",2014-08-02
118294,08/02/2014,Completed,08/05/2014,14-01254407,Street Light Out,11700 S PRINCETON AVE,60628.0,1176382.54248096,1827347.9153240002,34.0,5.0,53.0,41.68159078267011,-87.62997463719702,"(41.68159078267011,-87.62997463719701)",2014-08-02
118295,08/02/2014,Completed,08/05/2014,14-01256638,Street Light Out,10800 S STATE LINE RD,60617.0,1205111.8996915,1833957.6745902,10.0,4.0,52.0,41.699036788624774,-87.52458449589214,"(41.699036788624774,-87.52458449589214)",2014-08-02
118296,08/03/2014,Completed - Dup,08/05/2014,14-01256991,Street Light Out,3500 N KEATING AVE,60641.0,1144206.1305146,1922982.30892763,30.0,17.0,15.0,41.94468673447695,-87.74536423390465,"(41.944686734476946,-87.74536423390464)",2014-08-03
118297,08/03/2014,Completed - Dup,08/05/2014,14-01257250,Street Light Out,1444 W DIVERSEY PKWY,60614.0,1166091.6899908998,1918685.64996786,32.0,19.0,6.0,41.93245635305853,-87.66504505485027,"(41.932456353058534,-87.66504505485027)",2014-08-03
118298,08/03/2014,Completed - Dup,08/05/2014,14-01257324,Street Light Out,9700 S CHAPPEL AVE,60617.0,1191541.33572735,1841049.33992222,7.0,4.0,51.0,41.718836018719344,-87.57404368526228,"(41.71883601871934,-87.57404368526228)",2014-08-03
118299,08/03/2014,Completed - Dup,08/05/2014,14-01258243,Street Light Out,4828 W MELROSE ST,60641.0,1143612.50526919,1921171.75990133,30.0,16.0,15.0,41.939729573881,-87.74759165412627,"(41.939729573881,-87.74759165412627)",2014-08-03
118300,08/03/2014,Completed - Dup,08/05/2014,14-01258381,Street Light Out,700 N LARAMIE AVE,60644.0,1141568.10878262,1904128.75100446,28.0,15.0,25.0,41.89299979479115,-87.75552753530174,"(41.89299979479115,-87.75552753530174)",2014-08-03
118301,08/03/2014,Completed - Dup,08/05/2014,14-01258887,Street Light Out,6350 S WASHTENAW AVE,60629.0,1159458.51072316,1862768.34660671,15.0,8.0,66.0,41.779152737106656,-87.69095854547977,"(41.77915273710666,-87.69095854547977)",2014-08-03
118302,08/03/2014,Completed - Dup,08/05/2014,14-01258899,Street Light Out,6350 S WASHTENAW AVE,60629.0,1159458.51072316,1862768.34660671,15.0,8.0,66.0,41.779152737106656,-87.69095854547977,"(41.77915273710666,-87.69095854547977)",2014-08-03
118303,08/03/2014,Completed - Dup,08/05/2014,14-01258912,Street Light Out,9118 S WILLIAMS AVE,60619.0,1179387.82642541,1844452.32448186,6.0,6.0,49.0,41.72845975263151,-87.61845395802808,"(41.72845975263151,-87.61845395802808)",2014-08-03
118304,08/03/2014,Completed - Dup,08/05/2014,14-01258927,Street Light Out,347 N KILBOURN AVE,60624.0,1146323.02067825,1901824.82308765,28.0,11.0,26.0,41.88658836152001,-87.73812304810517,"(41.886588361520005,-87.73812304810515)",2014-08-03
118305,08/03/2014,Completed - Dup,08/05/2014,14-01258953,Street Light Out,6100 S ELLIS AVE,60637.0,1183939.20252528,1864771.01213376,20.0,3.0,42.0,41.784111344346755,-87.6011480066678,"(41.784111344346755,-87.6011480066678)",2014-08-03
118306,08/03/2014,Completed - Dup,08/05/2014,14-01259030,Street Light Out,6100 S ELLIS AVE,60637.0,1183939.20252528,1864771.01213376,20.0,3.0,42.0,41.784111344346755,-87.6011480066678,"(41.784111344346755,-87.6011480066678)",2014-08-03
118307,08/03/2014,Completed - Dup,08/05/2014,14-01259041,Street Light Out,3040 W MARQUETTE RD,60629.0,1157167.58989651,1860044.35889422,15.0,8.0,66.0,41.77172436743578,-87.6994309630797,"(41.77172436743578,-87.6994309630797)",2014-08-03
118308,08/03/2014,Completed - Dup,08/05/2014,14-01259059,Street Light Out,3112 W MARQUETTE RD,60629.0,1156745.19000111,1860033.73158101,15.0,8.0,66.0,41.771703737455546,-87.70097964349732,"(41.771703737455546,-87.70097964349732)",2014-08-03
118309,08/03/2014,Completed - Dup,08/05/2014,14-01259092,Street Light Out,10800 S AVENUE B,60617.0,1204786.28308169,1833957.52283207,10.0,4.0,52.0,41.699044756489464,-87.52577672504508,"(41.69904475648946,-87.52577672504508)",2014-08-03
118310,08/03/2014,Completed - Dup,08/05/2014,14-01259099,Street Light Out,3111 W MARQUETTE RD,60629.0,1156755.79000111,1860034.03158101,18.0,8.0,66.0,41.77170434682388,-87.70094077893305,"(41.77170434682388,-87.70094077893305)",2014-08-03
118311,08/03/2014,Completed - Dup,08/05/2014,14-01259143,Street Light Out,6100 S ELLIS AVE,60637.0,1183939.20252528,1864771.01213376,20.0,3.0,42.0,41.784111344346755,-87.6011480066678,"(41.784111344346755,-87.6011480066678)",2014-08-03
118312,08/03/2014,Completed - Dup,08/05/2014,14-01259146,Street Light Out,700 N LARAMIE AVE,60644.0,1141568.10878262,1904128.75100446,28.0,15.0,25.0,41.89299979479115,-87.75552753530174,"(41.89299979479115,-87.75552753530174)",2014-08-03
118313,08/03/2014,Completed - Dup,08/05/2014,14-01259200,Street Light Out,5400 W AGATITE AVE,60630.0,1139544.9763667,1929061.6163330001,45.0,16.0,15.0,41.961455386367305,-87.76234806484139,"(41.961455386367305,-87.76234806484139)",2014-08-03
118314,08/03/2014,Completed - Dup,08/05/2014,14-01259207,Street Light Out,9644 S CHAPPEL AVE,60617.0,1191534.26032189,1841313.63992203,7.0,4.0,51.0,41.71956145597964,-87.57406106230832,"(41.71956145597963,-87.57406106230832)",2014-08-03
118315,08/03/2014,Completed - Dup,08/05/2014,14-01259215,Street Light Out,5500 S WASHTENAW AVE,60629.0,1159308.95153038,1868081.63763436,16.0,8.0,63.0,41.79373620629058,-87.69136140622793,"(41.793736206290575,-87.69136140622794)",2014-08-03
118316,08/03/2014,Completed - Dup,08/05/2014,14-01259249,Street Light Out,649 N LARAMIE AVE,60644.0,1141578.68322814,1903814.92988354,28.0,15.0,25.0,41.892138436559314,-87.75549646072545,"(41.892138436559314,-87.75549646072547)",2014-08-03
118317,08/03/2014,Completed - Dup,08/05/2014,14-01259260,Street Light Out,2553 W 79TH PL,60652.0,1160642.02697656,1851837.27987227,18.0,8.0,70.0,41.749131947390296,-87.68692078868713,"(41.749131947390296,-87.68692078868713)",2014-08-03
118318,08/03/2014,Completed,08/05/2014,14-01257226,Street Light Out,5741 W HIRSCH ST,60651.0,1137710.96759642,1908733.99017902,29.0,25.0,25.0,41.90570754344528,-87.76958242423643,"(41.905707543445274,-87.76958242423642)",2014-08-03
118319,08/03/2014,Completed,08/05/2014,14-01258944,Street Light Out,2600 E 73RD ST,60649.0,1194698.64328305,1857313.07891989,7.0,3.0,43.0,41.76338808189074,-87.56194579390267,"(41.76338808189074,-87.56194579390267)",2014-08-03
118320,08/03/2014,Completed,08/05/2014,14-01258960,Street Light Out,10000 S DR MARTIN LUTHER KING JR DR,60628.0,1180673.23490438,1838647.64480439,9.0,5.0,49.0,41.712501591576775,-87.61392296230323,"(41.712501591576775,-87.61392296230323)",2014-08-03
118321,08/03/2014,Completed,08/05/2014,14-01258977,Street Light Out,4300 W CULLOM AVE,60641.0,1146824.40598495,1928229.35046808,38.0,17.0,16.0,41.959035358545975,-87.7356059324724,"(41.959035358545975,-87.7356059324724)",2014-08-03
118322,08/03/2014,Completed,08/05/2014,14-01258989,Street Light Out,1200 N LARAMIE AVE,60651.0,1141478.20837895,1907498.85033248,37.0,25.0,25.0,41.902249404964905,-87.75577438762005,"(41.902249404964905,-87.75577438762004)",2014-08-03
118323,08/03/2014,Completed,08/05/2014,14-01259060,Street Light Out,12300 S STATE ST,60628.0,1178473.34979459,1823408.41912605,9.0,5.0,53.0,41.67073311223457,-87.62244015085292,"(41.670733112234565,-87.62244015085292)",2014-08-03
118324,08/03/2014,Completed,08/05/2014,14-01259078,Street Light Out,7100 S JEFFERY BLVD,60649.0,1190774.59169588,1858255.10738698,5.0,3.0,43.0,41.766068748821226,-87.57629757287809,"(41.76606874882123,-87.57629757287809)",2014-08-03
118325,08/03/2014,Completed,08/05/2014,14-01259106,Street Light Out,10000 S RHODES AVE,60628.0,1181672.339999,1838779.05136819,9.0,5.0,49.0,41.71283922248908,-87.61025992622282,"(41.71283922248908,-87.61025992622282)",2014-08-03
118326,08/03/2014,Completed,08/05/2014,14-01259172,Street Light Out,8111 S ST LOUIS AVE,60652.0,1154465.17000784,1850551.4499708998,18.0,8.0,70.0,41.74572852878367,-87.70958955998135,"(41.74572852878367,-87.70958955998134)",2014-08-03
118327,08/03/2014,Completed,08/05/2014,14-01259253,Street Light Out,6200 S CLAREMONT AVE,60636.0,1161790.34012895,1863475.68762663,15.0,8.0,66.0,41.7810456588161,-87.68239015326891,"(41.78104565881609,-87.68239015326891)",2014-08-03
118328,08/03/2014,Completed,08/05/2014,14-01259254,Street Light Out,2226 S WENTWORTH AVE,60616.0,1175323.3599677,1889488.68003026,25.0,9.0,34.0,41.85213582813101,-87.6319970558547,"(41.852135828131004,-87.63199705585471)",2014-08-03
118329,08/04/2014,Completed - Dup,08/05/2014,14-01259311,Street Light Out,4142 S PRAIRIE AVE,60653.0,1178726.5089873997,1877597.12720733,3.0,2.0,38.0,41.819427578584,-87.61986921424703,"(41.819427578584,-87.61986921424703)",2014-08-04
118330,08/04/2014,Completed - Dup,08/05/2014,14-01259408,Street Light Out,1900 N PAULINA ST,60622.0,1164714.30759897,1912704.72229485,32.0,14.0,22.0,41.91607367548044,-87.67027671228914,"(41.91607367548044,-87.67027671228914)",2014-08-04
118331,08/04/2014,Completed - Dup,08/05/2014,14-01261658,Street Light Out,4431 W CARROLL AVE,60624.0,1146779.89082365,1901930.00811419,28.0,11.0,26.0,41.88686829304586,-87.7364426015872,"(41.88686829304586,-87.73644260158721)",2014-08-04
118332,08/04/2014,Completed - Dup,08/05/2014,14-01261944,Street Light Out,5500 S WASHTENAW AVE,60629.0,1159308.95153038,1868081.63763436,16.0,8.0,63.0,41.79373620629058,-87.69136140622793,"(41.793736206290575,-87.69136140622794)",2014-08-04
118333,08/04/2014,Completed - Dup,08/05/2014,14-01262432,Street Light Out,541 W 33RD ST,60616.0,1173123.42273108,1883035.78230175,11.0,9.0,60.0,41.83447756779052,-87.64026249328747,"(41.834477567790515,-87.64026249328747)",2014-08-04
118334,08/04/2014,Completed - Dup,08/05/2014,14-01262533,Street Light Out,10511 S PEORIA ST,60643.0,1172175.72339655,1835134.16447444,34.0,22.0,73.0,41.703050689329416,-87.6451461646154,"(41.703050689329416,-87.64514616461541)",2014-08-04
118335,08/04/2014,Completed - Dup,08/05/2014,14-01262830,Street Light Out,541 W 33RD ST,60616.0,1173123.42273108,1883035.78230175,11.0,9.0,60.0,41.83447756779052,-87.64026249328747,"(41.834477567790515,-87.64026249328747)",2014-08-04
118336,08/04/2014,Completed - Dup,08/05/2014,14-01262876,Street Light Out,3321 S PARNELL AVE,60616.0,1173171.82273108,1882888.98230175,11.0,9.0,60.0,41.83407366415188,-87.64008924916462,"(41.83407366415188,-87.64008924916463)",2014-08-04
118337,08/04/2014,Completed - Dup,08/05/2014,14-01262888,Street Light Out,3318 S PARNELL AVE,60616.0,1173171.32273108,1882910.18230175,11.0,9.0,60.0,41.83413184986078,-87.64009045599865,"(41.83413184986078,-87.64009045599866)",2014-08-04
118338,08/04/2014,Completed - Dup,08/05/2014,14-01262905,Street Light Out,151 E CHICAGO AVE,60611.0,1177408.76272666,1905760.53580575,42.0,18.0,8.0,41.8967397487928,-87.62384947501637,"(41.8967397487928,-87.62384947501636)",2014-08-04
118339,08/04/2014,Completed - Dup,08/05/2014,14-01263216,Street Light Out,4100 S PRAIRIE AVE,60653.0,1178718.3089873998,1877875.52720733,3.0,2.0,38.0,41.8201917177249,-87.61989081495474,"(41.8201917177249,-87.61989081495474)",2014-08-04
118340,08/04/2014,Completed - Dup,08/05/2014,14-01263326,Street Light Out,5500 S WASHTENAW AVE,60629.0,1159308.95153038,1868081.63763436,16.0,8.0,63.0,41.79373620629058,-87.69136140622793,"(41.793736206290575,-87.69136140622794)",2014-08-04
118341,08/04/2014,Completed - Dup,08/05/2014,14-01264043,Street Light Out,538 N MONTICELLO AVE,60624.0,1151956.20622117,1903393.41788513,27.0,11.0,23.0,41.89078366438855,-87.71739506129175,"(41.89078366438855,-87.71739506129175)",2014-08-04
118342,08/04/2014,Completed - Dup,08/05/2014,14-01264213,Street Light Out,3310 S PARNELL AVE,60616.0,1173170.02273108,1882966.48230175,11.0,9.0,60.0,41.8342863707233,-87.64009355883181,"(41.8342863707233,-87.6400935588318)",2014-08-04
118343,08/04/2014,Completed - Dup,08/05/2014,14-01264423,Street Light Out,700 N LARAMIE AVE,60644.0,1141568.10878262,1904128.75100446,28.0,15.0,25.0,41.89299979479115,-87.75552753530174,"(41.89299979479115,-87.75552753530174)",2014-08-04
118344,08/04/2014,Completed - Dup,08/05/2014,14-01265413,Street Light Out,6428 S KOSTNER AVE,60629.0,1148146.06512393,1861613.31560856,13.0,8.0,65.0,41.776207553148616,-87.73246118317036,"(41.776207553148616,-87.73246118317036)",2014-08-04
118345,08/04/2014,Completed - Dup,08/05/2014,14-01266164,Street Light Out,9155 S FOREST AVE,60619.0,1179864.08992394,1844218.36271338,6.0,6.0,49.0,41.72780686517643,-87.61671645280056,"(41.72780686517643,-87.61671645280057)",2014-08-04
118346,08/04/2014,Completed - Dup,08/05/2014,14-01266165,Street Light Out,9151 S FOREST AVE,60619.0,1179863.68992394,1844234.16271338,6.0,6.0,49.0,41.72785023146965,-87.6167174362147,"(41.72785023146965,-87.61671743621469)",2014-08-04
118347,08/04/2014,Completed - Dup,08/05/2014,14-01266973,Street Light Out,9500 S ESCANABA AVE,60617.0,1197042.5740052,1842518.55872463,10.0,4.0,51.0,41.72273277943259,-87.55384619064041,"(41.72273277943259,-87.5538461906404)",2014-08-04
118348,08/04/2014,Completed - Dup,08/05/2014,14-01267218,Street Light Out,500 W 33RD ST,60616.0,1173496.96093287,1883045.67779824,11.0,9.0,60.0,41.83449644338,-87.6388915987064,"(41.83449644338,-87.6388915987064)",2014-08-04
118349,08/04/2014,Completed - Dup,08/05/2014,14-01267342,Street Light Out,9760 S AVALON AVE,60628.0,1186256.78567854,1840438.29992629,8.0,5.0,50.0,41.71728551957869,-87.59341817893663,"(41.71728551957869,-87.59341817893663)",2014-08-04
118350,08/04/2014,Completed - Dup,08/05/2014,14-01267441,Street Light Out,9118 S WILLIAMS AVE,60619.0,1179387.82642541,1844452.32448186,6.0,6.0,49.0,41.72845975263151,-87.61845395802808,"(41.72845975263151,-87.61845395802808)",2014-08-04
118351,08/04/2014,Completed - Dup,08/05/2014,14-01267492,Street Light Out,9700 S ESCANABA AVE,60617.0,1197070.50129097,1841188.59402804,10.0,4.0,51.0,41.71908254583642,-87.55378800970459,"(41.71908254583642,-87.5537880097046)",2014-08-04
118352,08/04/2014,Completed - Dup,08/05/2014,14-01267498,Street Light Out,3300 W 110TH ST,60655.0,1156285.74009495,1831479.72800117,19.0,22.0,74.0,41.693355949894816,-87.70342987610283,"(41.693355949894816,-87.70342987610283)",2014-08-04
118353,08/04/2014,Completed - Dup,08/05/2014,14-01267580,Street Light Out,10700 S ALBANY AVE,60655.0,1157553.69860786,1833514.70912471,19.0,22.0,74.0,41.698914776486,-87.69873266504874,"(41.698914776486,-87.69873266504874)",2014-08-04
118354,08/04/2014,Completed - Dup,08/05/2014,14-01267588,Street Light Out,9647 S CHAPPEL AVE,60617.0,1191534.66032189,1841299.23992203,7.0,4.0,51.0,41.71952193123983,-87.57406006240498,"(41.719521931239825,-87.57406006240498)",2014-08-04
118355,08/04/2014,Completed - Dup,08/05/2014,14-01267658,Street Light Out,9140 S WILLIAMS AVE,60619.0,1179383.82642541,1844337.72448186,6.0,6.0,49.0,41.728145367117186,-87.61847209716946,"(41.72814536711719,-87.61847209716946)",2014-08-04
118356,08/04/2014,Completed - Dup,08/05/2014,14-01267666,Street Light Out,1400 W DIVERSEY PKWY,60614.0,1166493.53079826,1918697.5717882998,32.0,19.0,6.0,41.93248046260131,-87.6635680006221,"(41.93248046260131,-87.6635680006221)",2014-08-04
118357,08/04/2014,Completed - Dup,08/05/2014,14-01267685,Street Light Out,2130 E 97TH ST,60617.0,1191793.33572735,1841055.73992222,7.0,4.0,51.0,41.71884747847367,-87.57312050300476,"(41.71884747847367,-87.57312050300477)",2014-08-04
118358,08/04/2014,Completed - Dup,08/05/2014,14-01267700,Street Light Out,6231 S ELLIS AVE,60637.0,1183961.10937716,1863895.69508235,20.0,3.0,42.0,41.78170888553003,-87.60109501803585,"(41.78170888553003,-87.60109501803585)",2014-08-04
118359,08/04/2014,Completed - Dup,08/05/2014,14-01267718,Street Light Out,7930 S TALMAN AVE,60652.0,1160092.13627611,1851813.11992336,18.0,8.0,70.0,41.74907696761597,-87.68893647788883,"(41.74907696761597,-87.68893647788883)",2014-08-04
118360,08/04/2014,Completed - Dup,08/05/2014,14-01267765,Street Light Out,544 W 33RD ST,60616.0,1173108.42273108,1883035.38230175,11.0,9.0,60.0,41.83447680225029,-87.64031754372984,"(41.834476802250286,-87.64031754372984)",2014-08-04
118361,08/04/2014,Completed - Dup,08/05/2014,14-01267782,Street Light Out,3300 S PARNELL AVE,60616.0,1173168.32273108,1883036.88230175,11.0,9.0,60.0,41.834479592058756,-87.64009771183984,"(41.834479592058756,-87.64009771183984)",2014-08-04
118362,08/04/2014,Completed - Dup,08/05/2014,14-01267786,Street Light Out,9110 S WILLIAMS AVE,60619.0,1179389.32642541,1844494.02448186,6.0,6.0,49.0,41.72857414843524,-87.61844719458912,"(41.728574148435236,-87.61844719458912)",2014-08-04
118363,08/04/2014,Completed - Dup,08/05/2014,14-01267907,Street Light Out,7238 S SEELEY AVE,60636.0,1163945.46549822,1856652.35608523,17.0,7.0,67.0,41.762276467832535,-87.6746805688108,"(41.76227646783254,-87.67468056881081)",2014-08-04
118364,08/04/2014,Completed,08/05/2014,14-01259400,Street Light Out,4118 W 64TH ST,60629.0,1149943.5267116001,1861840.91490338,13.0,8.0,65.0,41.776797469365846,-87.72586583025087,"(41.77679746936584,-87.72586583025087)",2014-08-04
118365,08/04/2014,Completed,08/05/2014,14-01259696,Street Light Out,2107 W 76TH ST,60620.0,1163656.84512909,1854241.9063336998,18.0,6.0,71.0,41.75566790902858,-87.67580593230045,"(41.75566790902858,-87.67580593230045)",2014-08-04
118366,08/04/2014,Completed,08/05/2014,14-01259697,Street Light Out,3641 W 110TH ST,60655.0,1153923.52079333,1831413.06327507,19.0,22.0,74.0,41.69322008798183,-87.7120803351947,"(41.69322008798183,-87.71208033519471)",2014-08-04
118367,08/04/2014,Completed,08/05/2014,14-01259849,Street Light Out,4600 S PAULINA ST,60609.0,1165781.26538872,1874203.86111078,20.0,9.0,61.0,41.81040122524283,-87.66745389424877,"(41.81040122524283,-87.66745389424877)",2014-08-04
118368,08/04/2014,Completed,08/05/2014,14-01260641,Street Light Out,2177 E 96TH ST,60617.0,1192240.11001433,1841718.36111435,7.0,4.0,51.0,41.72065493959679,-87.57146267036195,"(41.72065493959679,-87.57146267036195)",2014-08-04
118369,08/04/2014,Completed,08/05/2014,14-01260735,Street Light Out,1455 S KOMENSKY AVE,60623.0,1149619.31421498,1892701.65341344,24.0,10.0,29.0,41.861489962696055,-87.72625507461285,"(41.861489962696055,-87.72625507461285)",2014-08-04
118370,08/04/2014,Completed,08/05/2014,14-01261129,Street Light Out,4526 S AVERS AVE,60632.0,1151450.62269311,1874248.96007632,14.0,8.0,57.0,41.8108176565074,-87.7200162789471,"(41.81081765650741,-87.72001627894711)",2014-08-04
118371,08/04/2014,Completed,08/05/2014,14-01261144,Street Light Out,4750 N KENNETH AVE,60630.0,1145612.4236292,1930863.35512156,45.0,17.0,16.0,41.96628638666081,-87.73999466648097,"(41.966286386660805,-87.73999466648095)",2014-08-04
118372,08/04/2014,Completed,08/05/2014,14-01261317,Street Light Out,4757 N KEELER AVE,60630.0,1147523.9700696,1931343.74769601,39.0,17.0,14.0,41.967568079101945,-87.73295379654675,"(41.967568079101945,-87.73295379654675)",2014-08-04
118373,08/04/2014,Completed,08/05/2014,14-01262210,Street Light Out,11349 S COTTAGE GROVE AVE,60628.0,1181577.76396648,1829816.25468706,9.0,5.0,50.0,41.68824629340058,-87.61088163945568,"(41.688246293400574,-87.61088163945567)",2014-08-04
118374,08/04/2014,Completed,08/05/2014,14-01262795,Street Light Out,1419 W 94TH ST,60620.0,1168443.56349733,1842407.03398274,21.0,22.0,73.0,41.72308960101581,-87.65860378236346,"(41.72308960101581,-87.65860378236346)",2014-08-04
118375,08/04/2014,Completed,08/05/2014,14-01263176,Street Light Out,3600 W AUGUSTA BLVD,60651.0,1152195.99032292,1906428.33783401,27.0,11.0,23.0,41.89910705960056,-87.71643431112847,"(41.89910705960056,-87.71643431112847)",2014-08-04
118376,08/04/2014,Completed,08/05/2014,14-01263185,Street Light Out,800 N CENTRAL PARK AVE,60651.0,1152238.27628428,1905099.90752721,27.0,11.0,23.0,41.895460881992186,-87.71631408613929,"(41.89546088199219,-87.71631408613929)",2014-08-04
118377,08/04/2014,Completed,08/05/2014,14-01263191,Street Light Out,5900 S STATE ST,60621.0,1177284.26121793,1865899.99312228,20.0,2.0,40.0,41.787362299087036,-87.6255132760561,"(41.78736229908703,-87.6255132760561)",2014-08-04
118378,08/04/2014,Completed,08/05/2014,14-01263424,Street Light Out,1211 W FLOURNOY ST,60607.0,1168387.59222905,1897119.61398086,25.0,12.0,28.0,41.87322836738607,-87.65723253944519,"(41.87322836738607,-87.65723253944519)",2014-08-04
118379,08/04/2014,Completed,08/05/2014,14-01264149,Street Light Out,3131 W CHICAGO AVE,60622.0,1155229.64000394,1905159.67019797,27.0,12.0,23.0,41.89556531831988,-87.70532586223604,"(41.89556531831988,-87.70532586223605)",2014-08-04
118380,08/04/2014,Completed,08/05/2014,14-01265112,Street Light Out,1608 W ERIE ST,60622.0,1165559.54437495,1904426.64158667,1.0,12.0,24.0,41.893340083348434,-87.66740746765417,"(41.89334008334843,-87.66740746765417)",2014-08-04
118381,08/04/2014,Completed,08/05/2014,14-01265431,Street Light Out,3700 W 68TH PL,60629.0,1152886.11860855,1858932.21719427,13.0,8.0,65.0,41.76875799893594,-87.71515491235742,"(41.76875799893594,-87.71515491235742)",2014-08-04
118382,08/04/2014,Completed,08/05/2014,14-01265456,Street Light Out,3131 S WELLS ST,60616.0,1175128.48437343,1884202.28836667,11.0,9.0,34.0,41.83763392680455,-87.63287054527466,"(41.83763392680455,-87.63287054527466)",2014-08-04
118383,08/04/2014,Completed,08/05/2014,14-01265672,Street Light Out,6500 N NEVA AVE,60631.0,1127750.25999939,1943024.32490445,41.0,16.0,10.0,41.99997794751162,-87.80539637384287,"(41.999977947511624,-87.80539637384287)",2014-08-04
118384,08/04/2014,Completed,08/05/2014,14-01265812,Street Light Out,9300 S KIMBARK AVE,60619.0,1186491.94100703,1843573.59292656,8.0,4.0,47.0,41.72588356560315,-87.5924580920496,"(41.72588356560315,-87.5924580920496)",2014-08-04
118385,08/04/2014,Completed,08/05/2014,14-01265871,Street Light Out,3955 N PACIFIC AVE,60634.0,1121994.42011872,1925315.77792073,36.0,16.0,17.0,41.95147913452114,-87.82695636504916,"(41.95147913452114,-87.82695636504916)",2014-08-04
118386,08/04/2014,Completed,08/05/2014,14-01266032,Street Light Out,4959 N SAYRE AVE,60656.0,1128935.58821281,1932541.2855718003,41.0,16.0,10.0,41.971191336910174,-87.80127530895102,"(41.97119133691017,-87.80127530895102)",2014-08-04
118387,08/05/2014,Completed - Dup,08/05/2014,14-01268563,Street Light Out,9627 S ESCANABA AVE,60617.0,1197060.76889442,1841672.26258846,10.0,4.0,51.0,41.72041001683979,-87.55380761527994,"(41.72041001683979,-87.55380761527994)",2014-08-05
118388,08/05/2014,Completed - Dup,08/05/2014,14-01268993,Street Light Out,5617 S MASON AVE,60638.0,1137664.92223291,1866720.95762249,23.0,8.0,56.0,41.790418377560094,-87.7707625650952,"(41.790418377560094,-87.77076256509518)",2014-08-05
118389,08/05/2014,Completed - Dup,08/05/2014,14-01269384,Street Light Out,248 W 33RD ST,60616.0,1175078.62973245,1883087.34602588,11.0,9.0,34.0,41.8345755496042,-87.63308683498016,"(41.8345755496042,-87.63308683498016)",2014-08-05
118390,08/05/2014,Completed - Dup,08/05/2014,14-01269873,Street Light Out,9500 S ESCANABA AVE,60617.0,1197042.5740052,1842518.55872463,10.0,4.0,51.0,41.72273277943259,-87.55384619064041,"(41.72273277943259,-87.5538461906404)",2014-08-05
118391,08/05/2014,Completed - Dup,08/05/2014,14-01270555,Street Light Out,512 W 33RD ST,60616.0,1173369.76093287,1883042.27779824,11.0,9.0,60.0,41.83448993438315,-87.63935842686489,"(41.83448993438315,-87.63935842686489)",2014-08-05
118392,08/05/2014,Completed - Dup,08/05/2014,14-01272242,Street Light Out,5619 S MASON AVE,60638.0,1137665.42223291,1866707.45762249,23.0,8.0,56.0,41.79038132220201,-87.77076105560239,"(41.79038132220201,-87.7707610556024)",2014-08-05
118393,08/05/2014,Completed - Dup,08/05/2014,14-01272728,Street Light Out,7900 S TALMAN AVE,60652.0,1160083.92108702,1852131.08657895,18.0,8.0,70.0,41.749949686085735,-87.68895785574371,"(41.749949686085735,-87.68895785574372)",2014-08-05
118394,08/05/2014,Completed - Dup,08/05/2014,14-01273181,Street Light Out,522 N MONTICELLO AVE,60624.0,1151959.10622117,1903298.61788513,27.0,11.0,23.0,41.89052346640637,-87.71738691017427,"(41.890523466406364,-87.71738691017428)",2014-08-05
118395,08/05/2014,Completed - Dup,08/05/2014,14-01273932,Street Light Out,2561 W 79TH PL,60652.0,1160597.22697656,1851836.17987227,18.0,8.0,70.0,41.749129852299454,-87.687084984583,"(41.749129852299454,-87.687084984583)",2014-08-05
118396,08/05/2014,Completed - Dup,08/05/2014,14-01274035,Street Light Out,2561 W 79TH PL,60652.0,1160597.22697656,1851836.17987227,18.0,8.0,70.0,41.749129852299454,-87.687084984583,"(41.749129852299454,-87.687084984583)",2014-08-05
118397,08/05/2014,Completed - Dup,08/05/2014,14-01274213,Street Light Out,3300 S PARNELL AVE,60616.0,1173168.32273108,1883036.88230175,11.0,9.0,60.0,41.834479592058756,-87.64009771183984,"(41.834479592058756,-87.64009771183984)",2014-08-05
118398,08/05/2014,Completed - Dup,08/05/2014,14-01274865,Street Light Out,7200 S SEELEY AVE,60636.0,1163938.66549822,1856907.75608523,17.0,7.0,67.0,41.76297746418304,-87.67469832448486,"(41.76297746418304,-87.67469832448486)",2014-08-05
118399,08/05/2014,Completed - Dup,08/05/2014,14-01275058,Street Light Out,3400 S PARNELL AVE,60616.0,1173185.0051041,1882339.83328026,11.0,9.0,60.0,41.83256645954082,-87.64005714211358,"(41.83256645954082,-87.64005714211358)",2014-08-05
118400,08/05/2014,Completed - Dup,08/05/2014,14-01275163,Street Light Out,9709 S AVALON AVE,60628.0,1186243.93550336,1840833.08981531,8.0,5.0,50.0,41.71836917121488,-87.59345281700014,"(41.71836917121488,-87.59345281700014)",2014-08-05
118401,08/05/2014,Completed - Dup,08/05/2014,14-01275606,Street Light Out,1028 E 62ND ST,60637.0,1184081.20937716,1864106.09508235,20.0,3.0,42.0,41.78228343433374,-87.60064813478962,"(41.78228343433374,-87.60064813478962)",2014-08-05
118402,08/05/2014,Completed - Dup,08/05/2014,14-01276067,Street Light Out,6100 S ELLIS AVE,60637.0,1183939.20252528,1864771.01213376,20.0,3.0,42.0,41.784111344346755,-87.6011480066678,"(41.784111344346755,-87.6011480066678)",2014-08-05
118403,08/05/2014,Completed - Dup,08/05/2014,14-01276091,Street Light Out,6200 S ELLIS AVE,60637.0,1183956.00937716,1864101.89508235,20.0,3.0,42.0,41.78227483571367,-87.60110727811536,"(41.78227483571367,-87.60110727811536)",2014-08-05
118404,08/05/2014,Completed - Dup,08/05/2014,14-01276105,Street Light Out,1000 E 62ND ST,60637.0,1183956.00937716,1864101.89508235,20.0,3.0,42.0,41.78227483571367,-87.60110727811536,"(41.78227483571367,-87.60110727811536)",2014-08-05
118405,08/05/2014,Completed - Dup,08/05/2014,14-01276260,Street Light Out,5916 S CARPENTER ST,60621.0,1170324.90741233,1865581.92026718,16.0,7.0,68.0,41.786643856138255,-87.65103938548746,"(41.78664385613826,-87.65103938548745)",2014-08-05
118406,08/05/2014,Completed - Dup,08/05/2014,14-01276374,Street Light Out,5405 W SUNNYSIDE AVE,60630.0,1139496.33401127,1929409.80769118,45.0,16.0,15.0,41.96241174413383,-87.76251837554493,"(41.96241174413383,-87.76251837554493)",2014-08-05
118407,08/05/2014,Completed - Dup,08/05/2014,14-01276936,Street Light Out,5041 W DEVON AVE,60646.0,1141735.68987025,1942140.10030833,41.0,16.0,12.0,41.997303422622366,-87.75396846507587,"(41.99730342262237,-87.75396846507587)",2014-08-05
118408,08/05/2014,Completed - Dup,08/05/2014,14-01277178,Street Light Out,2500 W 80TH ST,60652.0,1161101.43017941,1851518.27668691,18.0,8.0,70.0,41.74824707049611,-87.68524615159114,"(41.74824707049611,-87.68524615159114)",2014-08-05
118409,08/05/2014,Completed - Dup,08/05/2014,14-01277964,Street Light Out,7147 S SEELEY AVE,60636.0,1163929.35000238,1857256.37002704,17.0,7.0,67.0,41.763934305399054,-87.67472268441391,"(41.763934305399054,-87.6747226844139)",2014-08-05
118410,08/05/2014,Completed - Dup,08/05/2014,14-01277967,Street Light Out,7147 S SEELEY AVE,60636.0,1163929.35000238,1857256.37002704,17.0,7.0,67.0,41.763934305399054,-87.67472268441391,"(41.763934305399054,-87.6747226844139)",2014-08-05
118411,08/05/2014,Completed - Dup,08/05/2014,14-01277983,Street Light Out,7100 S SEELEY AVE,60636.0,1163920.85000238,1857571.37002704,17.0,7.0,67.0,41.764798887979325,-87.67474499917566,"(41.76479888797933,-87.67474499917566)",2014-08-05
118412,08/05/2014,Completed - Dup,08/05/2014,14-01278097,Street Light Out,9541 S CHARLES ST,60643.0,1166978.01681301,1841431.71332725,19.0,22.0,72.0,41.72044456672794,-87.66399972862989,"(41.72044456672794,-87.66399972862989)",2014-08-05
118413,08/05/2014,Completed,08/05/2014,14-01277269,Street Light Out,11943 S HARVARD AVE,60628.0,1176102.93559492,1825724.25438255,34.0,5.0,53.0,41.67714146402271,-87.63104659294521,"(41.67714146402271,-87.63104659294522)",2014-08-05
118414,08/05/2014,Completed,08/05/2014,14-01277435,Street Light Out,4251 S MOZART ST,60632.0,1158070.0467033002,1876331.58662899,12.0,9.0,58.0,41.81640044958932,-87.6956799750815,"(41.81640044958932,-87.6956799750815)",2014-08-05
118415,08/05/2014,Completed,08/05/2014,14-01277456,Street Light Out,7100 S GREENWOOD AVE,60619.0,1184780.70007939,1858130.94732582,5.0,3.0,69.0,41.765870704973004,-87.59827087959499,"(41.765870704973004,-87.598270879595)",2014-08-05
118416,08/05/2014,Completed,08/05/2014,14-01278273,Street Light Out,7658 S LOOMIS BLVD,60620.0,1168325.80928251,1853968.23647616,17.0,6.0,71.0,41.75481772537778,-87.6587031377675,"(41.75481772537778,-87.6587031377675)",2014-08-05
118417,08/05/2014,Completed,08/05/2014,14-01278516,Street Light Out,1000 S MENARD AVE,60644.0,1137862.01997298,1895426.18001861,29.0,15.0,25.0,41.869186469998326,-87.76934883635474,"(41.869186469998326,-87.76934883635474)",2014-08-05
118519,08/01/2014,Completed - Dup,08/06/2014,14-01246642,Street Light Out,5400 S KENNETH AVE,60632.0,1147613.13737991,1868437.13998832,23.0,8.0,62.0,41.794943426548734,-87.73424058503956,"(41.794943426548734,-87.73424058503957)",2014-08-01
118520,08/01/2014,Completed - Dup,08/06/2014,14-01246757,Street Light Out,10100 S EBERHART AVE,60628.0,1181358.76050284,1838105.41057416,9.0,5.0,49.0,41.71099788637593,-87.61142902963529,"(41.71099788637593,-87.6114290296353)",2014-08-01
118521,08/01/2014,Completed - Dup,08/06/2014,14-01248172,Street Light Out,5300 W MELROSE ST,60641.0,1140461.81553206,1921096.25950488,38.0,16.0,15.0,41.93958088475215,-87.7591734002798,"(41.93958088475215,-87.75917340027982)",2014-08-01
118522,08/01/2014,Completed - Dup,08/06/2014,14-01249298,Street Light Out,7700 S SANGAMON ST,60620.0,1171309.42341059,1853776.6050741002,17.0,6.0,71.0,41.754227141701946,-87.64777466032798,"(41.754227141701946,-87.64777466032798)",2014-08-01
118523,08/01/2014,Completed - Dup,08/06/2014,14-01250170,Street Light Out,6234 W 60TH ST,60638.0,1135750.83997025,1864095.07933336,23.0,8.0,64.0,41.78324664724972,-87.77784337014458,"(41.78324664724972,-87.77784337014458)",2014-08-01
118524,08/01/2014,Completed - Dup,08/06/2014,14-01251011,Street Light Out,1208 W FRY ST,60642.0,1168209.26723107,1905839.6751266997,27.0,12.0,24.0,41.8971606976381,-87.6576351660701,"(41.8971606976381,-87.6576351660701)",2014-08-01
118525,08/01/2014,Completed - Dup,08/06/2014,14-01253612,Street Light Out,10327 S VERNON AVE,60628.0,1181069.1805987,1836586.09562498,9.0,5.0,49.0,41.70683534556149,-87.61253610021605,"(41.70683534556149,-87.61253610021605)",2014-08-01
118526,08/01/2014,Completed - Dup,08/06/2014,14-01253660,Street Light Out,5500 S LOOMIS BLVD,60636.0,1167937.13237269,1868146.4258209,16.0,7.0,67.0,41.793732827160966,-87.65972054869263,"(41.79373282716097,-87.65972054869262)",2014-08-01
118527,08/02/2014,Completed - Dup,08/06/2014,14-01254151,Street Light Out,2855 W 21ST ST,60623.0,1157412.96988393,1889927.44298679,12.0,10.0,30.0,41.853722442869355,-87.69772125914128,"(41.85372244286935,-87.69772125914128)",2014-08-02
118528,08/02/2014,Completed - Dup,08/06/2014,14-01254208,Street Light Out,10137 S EBERHART AVE,60628.0,1181365.96050284,1837857.11057416,9.0,5.0,49.0,41.71031635355378,-87.6114102856871,"(41.71031635355378,-87.6114102856871)",2014-08-02
118529,08/02/2014,Completed - Dup,08/06/2014,14-01254215,Street Light Out,10137 S EBERHART AVE,60628.0,1181365.96050284,1837857.11057416,9.0,5.0,49.0,41.71031635355378,-87.6114102856871,"(41.71031635355378,-87.6114102856871)",2014-08-02
118530,08/02/2014,Completed - Dup,08/06/2014,14-01254842,Street Light Out,10300 S VERNON AVE,60628.0,1181063.8805987,1836767.49562498,9.0,5.0,49.0,41.707333252691605,-87.6125499483979,"(41.707333252691605,-87.61254994839791)",2014-08-02
118531,08/02/2014,Completed - Dup,08/06/2014,14-01255784,Street Light Out,5600 S LOOMIS BLVD,60636.0,1167951.4362142,1867615.43113024,16.0,7.0,67.0,41.792275407756,-87.65968335511799,"(41.792275407755994,-87.65968335511799)",2014-08-02
118532,08/02/2014,Completed - Dup,08/06/2014,14-01255791,Street Light Out,11839 S BELL AVE,60643.0,1163371.96622168,1826140.83018023,19.0,22.0,75.0,41.67855992683562,-87.6776342618355,"(41.67855992683562,-87.6776342618355)",2014-08-02
118533,08/02/2014,Completed - Dup,08/06/2014,14-01256333,Street Light Out,10300 S VERNON AVE,60628.0,1181063.8805987,1836767.49562498,9.0,5.0,49.0,41.707333252691605,-87.6125499483979,"(41.707333252691605,-87.61254994839791)",2014-08-02
118534,08/02/2014,Completed - Dup,08/06/2014,14-01256574,Street Light Out,10358 S VERNON AVE,60628.0,1181075.33590546,1836377.78717898,9.0,5.0,49.0,41.70626357842739,-87.61251994492243,"(41.70626357842739,-87.61251994492243)",2014-08-02
118535,08/02/2014,Completed - Dup,08/06/2014,14-01256865,Street Light Out,5422 W ADAMS ST,60644.0,1140354.395782,1898802.69928315,29.0,15.0,25.0,41.87840678255262,-87.76011576569624,"(41.87840678255262,-87.76011576569623)",2014-08-02
118536,08/02/2014,Completed - Dup,08/06/2014,14-01256898,Street Light Out,10333 S VERNON AVE,60628.0,1181070.3805987,1836545.79562498,9.0,5.0,49.0,41.706724729506654,-87.61253294114681,"(41.706724729506654,-87.61253294114682)",2014-08-02
118537,08/02/2014,Completed - Dup,08/06/2014,14-01256976,Street Light Out,5900 S LAFLIN ST,60636.0,1167345.34370349,1865608.44686838,15.0,7.0,67.0,41.78678101224756,-87.66196327282375,"(41.78678101224756,-87.66196327282375)",2014-08-02
118538,08/03/2014,Completed - Dup,08/06/2014,14-01257048,Street Light Out,10100 S EBERHART AVE,60628.0,1181358.76050284,1838105.41057416,9.0,5.0,49.0,41.71099788637593,-87.61142902963529,"(41.71099788637593,-87.6114290296353)",2014-08-03
118539,08/03/2014,Completed - Dup,08/06/2014,14-01258742,Street Light Out,10300 S VERNON AVE,60628.0,1181063.8805987,1836767.49562498,9.0,5.0,49.0,41.707333252691605,-87.6125499483979,"(41.707333252691605,-87.61254994839791)",2014-08-03
118540,08/03/2014,Completed - Dup,08/06/2014,14-01258913,Street Light Out,10400 S VERNON AVE,60628.0,1181083.43590546,1836102.38717898,9.0,5.0,49.0,41.70550765849704,-87.61249872509643,"(41.70550765849704,-87.61249872509643)",2014-08-03
118541,08/03/2014,Completed - Dup,08/06/2014,14-01258957,Street Light Out,2851 W 21ST ST,60623.0,1157453.76988393,1889928.44298679,12.0,10.0,30.0,41.85372435812753,-87.69757148036207,"(41.853724358127536,-87.69757148036207)",2014-08-03
118542,08/03/2014,Completed - Dup,08/06/2014,14-01259107,Street Light Out,10000 S EBERHART AVE,60628.0,1181339.91011709,1838769.23710135,9.0,5.0,49.0,41.71281994513918,-87.61147768256062,"(41.71281994513918,-87.61147768256063)",2014-08-03
118543,08/03/2014,Completed - Dup,08/06/2014,14-01259108,Street Light Out,7737 S BISHOP ST,60620.0,1167901.31123404,1853434.02291884,17.0,6.0,71.0,41.75336089437891,-87.66027411764217,"(41.75336089437891,-87.66027411764217)",2014-08-03
118544,08/03/2014,Completed - Dup,08/06/2014,14-01259114,Street Light Out,3330 W BERWYN AVE,60625.0,1153095.1412956999,1935017.44800101,39.0,17.0,13.0,41.97753997890862,-87.71237111138521,"(41.97753997890862,-87.7123711113852)",2014-08-03
118545,08/03/2014,Completed - Dup,08/06/2014,14-01259117,Street Light Out,3330 W BERWYN AVE,60625.0,1153095.1412956999,1935017.44800101,39.0,17.0,13.0,41.97753997890862,-87.71237111138521,"(41.97753997890862,-87.7123711113852)",2014-08-03
118546,08/03/2014,Completed - Dup,08/06/2014,14-01259126,Street Light Out,3337 S BELL AVE,60608.0,1161897.17438432,1882509.87830405,12.0,9.0,59.0,41.833275598800995,-87.68146919112404,"(41.83327559880099,-87.68146919112404)",2014-08-03
118547,08/03/2014,Completed - Dup,08/06/2014,14-01259127,Street Light Out,5320 N SPAULDING AVE,60625.0,1153421.63333436,1935160.28718373,39.0,17.0,13.0,41.9779254369514,-87.71116662383294,"(41.9779254369514,-87.71116662383294)",2014-08-03
118548,08/03/2014,Completed - Dup,08/06/2014,14-01259131,Street Light Out,3300 W BERWYN AVE,60625.0,1153425.13333436,1935025.18718373,39.0,17.0,13.0,41.97755464510961,-87.71115736114858,"(41.97755464510961,-87.71115736114858)",2014-08-03
118549,08/03/2014,Completed - Dup,08/06/2014,14-01259228,Street Light Out,11200 S TORRENCE AVE,60617.0,1195609.38002163,1831283.9600060002,10.0,4.0,51.0,41.691939433968436,-87.55946551410227,"(41.69193943396844,-87.55946551410227)",2014-08-03
118550,08/03/2014,Completed - Dup,08/06/2014,14-01259247,Street Light Out,5200 N CHRISTIANA AVE,60625.0,1153110.11582136,1934348.82927841,39.0,17.0,13.0,41.9757049524552,-87.712333867686,"(41.975704952455196,-87.712333867686)",2014-08-03
118551,08/04/2014,Completed - Dup,08/06/2014,14-01259483,Street Light Out,1 E PEARSON ST,60611.0,1176215.88531969,1906035.07987448,42.0,18.0,8.0,41.897520096560854,-87.62822237762863,"(41.897520096560854,-87.62822237762863)",2014-08-04
118552,08/04/2014,Completed - Dup,08/06/2014,14-01259563,Street Light Out,9630 S MUSKEGON AVE,60617.0,1196683.80189178,1841642.88543382,10.0,4.0,51.0,41.72033876162094,-87.55518929496267,"(41.72033876162094,-87.55518929496267)",2014-08-04
118553,08/04/2014,Completed - Dup,08/06/2014,14-01259625,Street Light Out,5744 S CENTRAL AVE,60638.0,1140023.41922829,1865949.72058549,23.0,8.0,56.0,41.78825929419927,-87.76213318307833,"(41.78825929419927,-87.76213318307833)",2014-08-04
118554,08/04/2014,Completed - Dup,08/06/2014,14-01261868,Street Light Out,5931 S LAFLIN ST,60636.0,1167350.14370349,1865401.04686838,16.0,7.0,67.0,41.78621177850864,-87.66195161142711,"(41.786211778508644,-87.66195161142711)",2014-08-04
118555,08/04/2014,Completed - Dup,08/06/2014,14-01263033,Street Light Out,2815 W 21ST ST,60623.0,1157821.39000458,1889937.16102176,12.0,10.0,30.0,41.85374080436194,-87.69622193673145,"(41.853740804361934,-87.69622193673145)",2014-08-04
118556,08/04/2014,Completed - Dup,08/06/2014,14-01263854,Street Light Out,10328 S VERNON AVE,60628.0,1181069.3805987,1836579.39562498,9.0,5.0,49.0,41.70681695528801,-87.61253557319309,"(41.70681695528801,-87.61253557319309)",2014-08-04
118557,08/04/2014,Completed - Dup,08/06/2014,14-01264658,Street Light Out,850 N STATE ST,60610.0,1176209.92271871,1906241.11007839,42.0,18.0,8.0,41.89808558803076,-87.62823805817214,"(41.89808558803076,-87.62823805817216)",2014-08-04
118558,08/04/2014,Completed - Dup,08/06/2014,14-01265466,Street Light Out,6006 S MERRIMAC AVE,60638.0,1135762.13997025,1864054.87933336,23.0,8.0,64.0,41.78313613075785,-87.77780289190441,"(41.783136130757846,-87.77780289190441)",2014-08-04
118559,08/04/2014,Completed - Dup,08/06/2014,14-01265609,Street Light Out,9200 S KIMBARK AVE,60619.0,1186476.50996699,1844225.39997519,8.0,4.0,47.0,41.72767255992541,-87.59249406754894,"(41.72767255992541,-87.59249406754893)",2014-08-04
118560,08/04/2014,Completed - Dup,08/06/2014,14-01266324,Street Light Out,5404 W ADAMS ST,60644.0,1140458.795782,1898805.29928315,29.0,15.0,25.0,41.8784120032664,-87.7597323621388,"(41.8784120032664,-87.7597323621388)",2014-08-04
118561,08/04/2014,Completed - Dup,08/06/2014,14-01266366,Street Light Out,10400 S VERNON AVE,60628.0,1181083.43590546,1836102.38717898,9.0,5.0,49.0,41.70550765849704,-87.61249872509643,"(41.70550765849704,-87.61249872509643)",2014-08-04
118562,08/04/2014,Completed - Dup,08/06/2014,14-01266533,Street Light Out,9200 S ASHLAND AVE,60620.0,1167286.15499951,1843701.6612246998,21.0,22.0,73.0,41.72666707041604,-87.66280633078745,"(41.72666707041605,-87.66280633078746)",2014-08-04
118563,08/04/2014,Completed - Dup,08/06/2014,14-01267478,Street Light Out,9200 S ASHLAND AVE,60620.0,1167286.15499951,1843701.6612246998,21.0,22.0,73.0,41.72666707041604,-87.66280633078745,"(41.72666707041605,-87.66280633078746)",2014-08-04
118564,08/04/2014,Completed - Dup,08/06/2014,14-01267490,Street Light Out,726 W 17TH ST,60616.0,1171669.999976,1892021.02002709,25.0,12.0,31.0,41.85916586705138,-87.64533132778656,"(41.85916586705138,-87.64533132778656)",2014-08-04
118565,08/04/2014,Completed - Dup,08/06/2014,14-01267491,Street Light Out,5900 S LAFLIN ST,60636.0,1167345.34370349,1865608.44686838,15.0,7.0,67.0,41.78678101224756,-87.66196327282375,"(41.78678101224756,-87.66196327282375)",2014-08-04
118566,08/04/2014,Completed - Dup,08/06/2014,14-01267512,Street Light Out,12000 S LAFAYETTE AVE,60628.0,1178078.41677794,1825393.01951065,9.0,5.0,53.0,41.67618809277164,-87.62382576523778,"(41.67618809277164,-87.6238257652378)",2014-08-04
118567,08/04/2014,Completed - Dup,08/06/2014,14-01267579,Street Light Out,5415 S KENNETH AVE,60632.0,1147615.83737991,1868335.93998832,23.0,8.0,62.0,41.79466566628643,-87.73423327023067,"(41.794665666286434,-87.73423327023067)",2014-08-04
118568,08/04/2014,Completed - Dup,08/06/2014,14-01267614,Street Light Out,5147 S RICHMOND ST,60632.0,1157579.82000098,1870372.80998544,14.0,9.0,63.0,41.80005875439398,-87.69763992708796,"(41.80005875439398,-87.69763992708795)",2014-08-04
118569,08/04/2014,Completed - Dup,08/06/2014,14-01267661,Street Light Out,5300 N CHRISTIANA AVE,60625.0,1153095.1412956999,1935017.44800101,39.0,17.0,13.0,41.97753997890862,-87.71237111138521,"(41.97753997890862,-87.7123711113852)",2014-08-04
