SERVICE REQUEST TYPE,SERVICE REQUEST NUMBER,DATE SERVICE REQUEST WAS RECEIVED,"LOCATION OF BUILDING ON THE LOT (IF GARAGE, CHANGE TYPE CODE TO BGD).",IS THE BUILDING DANGEROUS OR HAZARDOUS?,IS BUILDING OPEN OR BOARDED?,"IF THE BUILDING IS OPEN, WHERE IS THE ENTRY POINT?",IS THE BUILDING CURRENTLY VACANT OR OCCUPIED?,IS THE BUILDING VACANT DUE TO FIRE?,"ANY PEOPLE USING PROPERTY? (HOMELESS, CHILDEN, GANGS)",ADDRESS STREET NUMBER,ADDRESS STREET DIRECTION,ADDRESS STREET NAME,ADDRESS STREET SUFFIX,ZIP CODE,X COORDINATE,Y COORDINATE,Ward,Police District,Community Area,LATITUDE,LONGITUDE,Location,date
Vacant/Abandoned Building,15-06047120,11/09/2015,,,,,,,,4841,S,CHAMPLAIN,AVE,60615.0,1181415.45498915,1873057.04652871,4.0,2.0,38.0,41.80690754726991,-87.61014535329286,"(41.80690754726991, -87.61014535329286)",2015-11-09
Vacant/Abandoned Building,15-05896200,11/02/2015,Front,,Open,,Vacant,False,False,7131,S,RACINE,AVE,60636.0,1169557.32558311,1857376.88987497,6.0,7.0,68.0,41.764144926278455,-87.65409135325653,"(41.76414492627845, -87.65409135325653)",2015-11-02
Vacant/Abandoned Building,15-05896206,11/02/2015,Front,,Open,,Vacant,False,False,7133,S,RACINE,AVE,60636.0,1169557.62558311,1857367.18987497,6.0,7.0,68.0,41.76411830173422,-87.6540905344307,"(41.76411830173422, -87.65409053443068)",2015-11-02
Vacant/Abandoned Building,15-05892115,11/02/2015,Front,,Open,,Vacant,False,False,2334,S,CHRISTIANA,AVE,60623.0,1154397.05771907,1888287.47992729,22.0,10.0,30.0,41.849282921284434,-87.70883460296919,"(41.84928292128444, -87.70883460296918)",2015-11-02
Vacant/Abandoned Building,15-05891574,11/02/2015,Front,,Open,,Vacant,False,False,7137,S,LANGLEY,AVE,60619.0,1182027.9757906,1857843.49432554,6.0,3.0,69.0,41.76514601544756,-87.60836932246666,"(41.765146015447556, -87.60836932246666)",2015-11-02
Vacant/Abandoned Building,15-05895915,11/02/2015,Front,,Open,,Vacant,True,False,5959,S,MORGAN,ST,60621.0,1170663.81952037,1865302.85817449,16.0,7.0,68.0,41.78587069072285,-87.6498048919948,"(41.785870690722845, -87.64980489199479)",2015-11-02
Vacant/Abandoned Building,15-05990882,11/06/2015,Front,,Open,,Vacant,False,False,6822,S,LAFAYETTE,AVE,60621.0,1177009.27001228,1859764.44997829,6.0,7.0,69.0,41.770531931541775,-87.6267064023513,"(41.77053193154177, -87.6267064023513)",2015-11-06
Vacant/Abandoned Building,15-05998562,11/06/2015,Front,,Open,,Vacant,False,False,231,W,SCOTT,ST,60610.0,1174283.99146572,1908722.36002657,2.0,18.0,8.0,41.90493748189453,-87.63523759967346,"(41.90493748189453, -87.63523759967347)",2015-11-06
Vacant/Abandoned Building,15-05891563,11/02/2015,Front,,Open,,Vacant,False,False,5746,S,LAFLIN,ST,60636.0,1167318.62989171,1866627.12921767,16.0,7.0,67.0,41.789576972411574,-87.66203205707649,"(41.789576972411574, -87.66203205707649)",2015-11-02
Vacant/Abandoned Building,15-06118816,11/12/2015,Front,,Open,,Vacant,False,False,7110,S,PARNELL,AVE,60621.0,1173853.96382883,1857764.36280568,6.0,7.0,68.0,41.76511401395989,-87.63833170183855,"(41.76511401395988, -87.63833170183854)",2015-11-12
Vacant/Abandoned Building,15-06118898,11/12/2015,Front,,Open,,Vacant,False,False,7112,S,PARNELL,AVE,60621.0,1173854.36382883,1857750.96280568,6.0,7.0,68.0,41.7650772339009,-87.63833063257185,"(41.765077233900904, -87.63833063257185)",2015-11-12
Vacant/Abandoned Building,15-06057978,11/09/2015,Front,,Open,"FRONT/REAR DOORS, WINDOWS",Vacant,False,True,7859,S,COLES,AVE,60649.0,1197597.01251479,1853597.94199924,7.0,4.0,43.0,41.753121677785344,-87.55144669252083,"(41.753121677785344, -87.55144669252083)",2015-11-09
Vacant/Abandoned Building,15-06136593,11/13/2015,Front,,Open,,Vacant,False,False,417,E,45TH,PL,60653.0,1179811.18472718,1874941.66021778,3.0,2.0,38.0,41.81211597815901,-87.61597155214214,"(41.812115978159014, -87.61597155214214)",2015-11-13
Vacant/Abandoned Building,15-06015351,11/07/2015,Front,,Open,"2ND FLOOR DOOR AND BASEMENT, GARAGE",Vacant,False,True,7634,S,ST LAWRENCE,AVE,60619.0,1181556.59748339,1854522.15337864,6.0,6.0,69.0,41.75604279940201,-87.61019938310204,"(41.75604279940201, -87.61019938310203)",2015-11-07
Vacant/Abandoned Building,15-05873647,11/01/2015,Front,,Open,,Vacant,False,False,6744,S,MICHIGAN,AVE,60637.0,1178324.26987475,1860326.07210005,6.0,3.0,69.0,41.772043333565286,-87.62186913454123,"(41.77204333356529, -87.62186913454123)",2015-11-01
Vacant/Abandoned Building,15-05875300,11/01/2015,Front,,Open,ALL THE BOARDS ARE TAKEN OFF,Vacant,False,True,7109,S,VINCENNES,AVE,60621.0,1176650.24961366,1857788.22390512,6.0,7.0,69.0,41.765117034012505,-87.62808181973637,"(41.76511703401251, -87.62808181973638)",2015-11-01
Vacant/Abandoned Building,15-06132284,11/12/2015,Front,,Open,FRONT,Vacant,False,False,5711,S,ELIZABETH,ST,60636.0,1168963.99111559,1866905.79517203,16.0,7.0,67.0,41.790306251663296,-87.65599097441549,"(41.790306251663296, -87.65599097441549)",2015-11-12
Vacant/Abandoned Building,15-05898296,11/02/2015,Front,,Open,,Vacant,False,False,7028,S,CARPENTER,ST,60621.0,1170527.85058781,1858212.22627723,6.0,7.0,68.0,41.76641610867964,-87.65050984221735,"(41.76641610867964, -87.65050984221735)",2015-11-02
Vacant/Abandoned Building,15-06215312,11/17/2015,Front,,Open,,Vacant,False,False,7717,S,STONY ISLAND,AVE,60649.0,1188292.89429133,1854138.0401307999,8.0,4.0,43.0,41.754830727622,-87.58552490438629,"(41.754830727622, -87.58552490438629)",2015-11-17
Vacant/Abandoned Building,15-06215344,11/17/2015,Front,,Open,,Vacant,False,False,20,E,120TH,ST,60628.0,1178525.47539484,1825403.64369693,9.0,5.0,53.0,41.67620713370103,-87.62218911056596,"(41.67620713370102, -87.62218911056596)",2015-11-17
Vacant/Abandoned Building,15-06189959,11/16/2015,Front,,Open,ALL,Vacant,False,False,7420,S,NORMAL,AVE,60621.0,1174245.05986773,1855718.55999877,6.0,7.0,68.0,41.75949140675512,-87.63695892773924,"(41.75949140675512, -87.63695892773924)",2015-11-16
Vacant/Abandoned Building,15-06200528,11/16/2015,Front,,Open,,Vacant,False,False,9804,S,AVENUE L,,60617.0,1201797.559799,1840708.63449175,10.0,4.0,52.0,41.7176467412609,-87.53649101955368,"(41.7176467412609, -87.53649101955368)",2015-11-16
Vacant/Abandoned Building,15-05973945,11/05/2015,,,,,,,,1316,W,111TH,ST,60643.0,1169534.46921722,1831161.55243431,34.0,22.0,75.0,41.692206716425865,-87.65493240281738,"(41.692206716425865, -87.65493240281737)",2015-11-05
Vacant/Abandoned Building,15-06239340,11/18/2015,Front,,Open,,Vacant,False,False,10632,S,INDIANA,AVE,60628.0,1179465.02141747,1834474.18998197,9.0,5.0,49.0,41.70107668519312,-87.61847465571219,"(41.701076685193115, -87.61847465571218)",2015-11-18
Vacant/Abandoned Building,15-05879070,11/01/2015,Front,,Open,FRONT,Vacant,False,True,7341,S,PRINCETON,AVE,60621.0,1175563.79011574,1856280.7011319,6.0,7.0,69.0,41.76100459236417,-87.63210903995943,"(41.761004592364166, -87.63210903995942)",2015-11-01
Vacant/Abandoned Building,15-06248383,11/18/2015,Front,,Open,,Vacant,False,False,6951,S,LOOMIS,BLVD,60636.0,1168197.48208019,1858655.86848475,6.0,7.0,67.0,41.76768396872861,-87.6590387618609,"(41.76768396872861, -87.6590387618609)",2015-11-18
Vacant/Abandoned Building,15-06197049,11/16/2015,Front,,Open,FRONT DOOR,Vacant,False,True,7811,S,CALUMET,AVE,60619.0,1179826.73941601,1853293.14442291,6.0,6.0,69.0,41.75270998821437,-87.61657640261946,"(41.75270998821437, -87.61657640261946)",2015-11-16
Vacant/Abandoned Building,15-06146214,11/13/2015,Rear,,Open,REAR / GARAGE,Vacant,False,True,7820,S,CHAMPLAIN,AVE,60619.0,1181919.42797143,1853298.32122822,6.0,6.0,69.0,41.752676097217226,-87.6089074674263,"(41.75267609721723, -87.6089074674263)",2015-11-13
Vacant/Abandoned Building,15-05982764,11/05/2015,Rear,,Open,THE REAR DOOR,Vacant,False,False,4845,W,PATTERSON,AVE,60641.0,1143406.69028082,1923827.33376823,30.0,16.0,15.0,41.94702056980771,-87.74828147940599,"(41.94702056980771, -87.748281479406)",2015-11-05
Vacant/Abandoned Building,15-06017449,11/07/2015,Garage,,Open,,Vacant,False,False,2248,N,NARRAGANSETT,AVE,60639.0,1133380.81398598,1914250.91129525,36.0,25.0,19.0,41.920923649344424,-87.78535939241961,"(41.92092364934442, -87.78535939241961)",2015-11-07
Vacant/Abandoned Building,15-06034958,11/08/2015,Front,,Open,,Occupied,False,False,7932,S,VERNON,AVE,60619.0,1180618.86249052,1852512.09928727,6.0,6.0,44.0,41.75054856871167,-87.61369756051913,"(41.750548568711665, -87.61369756051913)",2015-11-08
Vacant/Abandoned Building,15-06039098,11/08/2015,Front,,Open,"FRONT DOOR IS OPEN REAR DOOR BASEMENT WINDOWS,",Vacant,False,False,7644,S,VERNON,AVE,60619.0,1180568.18543234,1854424.67266902,6.0,6.0,69.0,41.75579804318289,-87.61382465147022,"(41.755798043182885, -87.61382465147022)",2015-11-08
Vacant/Abandoned Building,15-05939378,11/04/2015,Rear,,Open,BASEMENT REAR,Vacant,False,True,5144,W,PATTERSON,AVE,60641.0,1141417.18759246,1923782.02018289,30.0,16.0,15.0,41.946933256614855,-87.75559555084793,"(41.946933256614855, -87.75559555084794)",2015-11-04
Vacant/Abandoned Building,15-05947755,11/04/2015,Front,,Open,FRONT AND REAR DOOR,Vacant,False,True,5348,N,NORMANDY,AVE,60656.0,1130929.00889295,1935189.39482415,41.0,16.0,10.0,41.97842380403557,-87.79388381777454,"(41.978423804035565, -87.79388381777454)",2015-11-04
Vacant/Abandoned Building,15-05869451,11/01/2015,Front,,Open,DOORS AND WINDOWS,Vacant,False,False,6108,W,GUNNISON,ST,60630.0,1134440.48989261,1931594.51190188,45.0,16.0,11.0,41.968497701576,-87.78105525094801,"(41.968497701576, -87.781055250948)",2015-11-01
Vacant/Abandoned Building,15-06206463,11/16/2015,Front,,Open,WIDE OPEN DOORS,Vacant,False,True,7148,S,WENTWORTH,AVE,60621.0,1176196.82428534,1857578.23330674,6.0,7.0,69.0,41.764550985699856,-87.62975004485331,"(41.76455098569986, -87.62975004485331)",2015-11-16
Vacant/Abandoned Building,15-06168334,11/15/2015,Rear,,Open,REAR,Vacant,False,True,7350,S,CHAMPLAIN,AVE,60619.0,1181827.52347367,1856756.46231693,6.0,3.0,69.0,41.76216772252147,-87.60913757696413,"(41.76216772252147, -87.60913757696413)",2015-11-15
Vacant/Abandoned Building,15-06200186,11/16/2015,,,,,,,,7316,S,DR MARTIN LUTHER KING JR,DR,60619.0,1180175.06230929,1856595.61619784,6.0,3.0,69.0,41.7617643598793,-87.61519892821954,"(41.761764359879294, -87.61519892821954)",2015-11-16
Vacant/Abandoned Building,15-06115591,11/12/2015,Front,,Open,FRONT REAR AND WINDOWS,Vacant,False,True,7038,S,EMERALD,AVE,60621.0,1172523.06479285,1858199.82782641,6.0,7.0,68.0,41.76633838843514,-87.64319702188317,"(41.76633838843514, -87.64319702188317)",2015-11-12
Vacant/Abandoned Building,15-06120094,11/12/2015,Front,,Open,WIDE OPEN,Vacant,False,False,7927,S,WABASH,AVE,60619.0,1178085.12800075,1852466.46179378,6.0,6.0,44.0,41.75048111274351,-87.62298366198759,"(41.75048111274351, -87.62298366198759)",2015-11-12
Vacant/Abandoned Building,15-06022452,11/07/2015,Front,,Open,"FRONT DOOR OPEN 3 DAYS NOW,",Vacant,False,False,8459,S,INDIANA,AVE,60619.0,1179067.58470028,1848953.53189808,6.0,6.0,44.0,41.740818908140966,-87.6194903032049,"(41.74081890814097, -87.61949030320491)",2015-11-07
Vacant/Abandoned Building,15-05959160,11/04/2015,Garage,,Open,,Vacant,False,False,7318,S,MICHIGAN,AVE,60619.0,1178427.79437936,1856523.08850379,6.0,3.0,69.0,41.761605185386074,-87.62160500198952,"(41.76160518538608, -87.62160500198951)",2015-11-04
Vacant/Abandoned Building,15-05966422,11/05/2015,Rear,,Open,,Vacant,False,True,7403,S,MARYLAND,AVE,60619.0,1183182.18416586,1856111.80652071,8.0,3.0,69.0,41.76036731927191,-87.60419265051138,"(41.76036731927191, -87.60419265051137)",2015-11-05
Vacant/Abandoned Building,15-05988317,11/06/2015,Front,,Open,,Vacant,False,False,7116,S,PRINCETON,AVE,60621.0,1175525.09151008,1857773.67203381,6.0,7.0,69.0,41.76510234337079,-87.63220627213724,"(41.76510234337079, -87.63220627213725)",2015-11-06
Vacant/Abandoned Building,15-05895965,11/02/2015,,,,,,,,7041,S,GREEN,ST,60621.0,1171851.10848436,1858161.63107392,6.0,7.0,68.0,41.76624834042466,-87.64566110211231,"(41.76624834042466, -87.64566110211231)",2015-11-02
Vacant/Abandoned Building,15-05937394,11/04/2015,Front,,Open,FRONT,Vacant,False,False,6949,S,LOOMIS,BLVD,60636.0,1168197.0538700002,1858669.32511254,6.0,7.0,67.0,41.76772090466704,-87.65903994475765,"(41.767720904667044, -87.65903994475765)",2015-11-04
Vacant/Abandoned Building,15-05995025,11/06/2015,Front,,Open,,Vacant,False,False,6411,S,WOLCOTT,AVE,60636.0,1164785.76618864,1862157.63197044,15.0,7.0,67.0,41.7773659920969,-87.67144546168919,"(41.7773659920969, -87.67144546168919)",2015-11-06
Vacant/Abandoned Building,15-06341993,11/24/2015,Front,,Open,,Vacant,False,False,6418,S,WOOD,ST,60636.0,1165442.59139095,1862123.37751589,15.0,7.0,67.0,41.77725809534083,-87.6690385071095,"(41.777258095340834, -87.6690385071095)",2015-11-24
Vacant/Abandoned Building,15-06301860,11/21/2015,Front,,Open,FRONT DOOR,Vacant,False,False,6602,S,MAY,ST,60621.0,1169787.24147399,1861018.4645743,16.0,7.0,68.0,41.77413287828233,-87.65314310110114,"(41.77413287828233, -87.65314310110114)",2015-11-21
Vacant/Abandoned Building,15-06340171,11/24/2015,Front,,Open,,Vacant,True,False,119,E,47TH,ST,60653.0,1178033.36373055,1873897.74350276,3.0,2.0,38.0,41.80929191805757,-87.62252417793606,"(41.80929191805757, -87.62252417793607)",2015-11-24
Vacant/Abandoned Building,15-06269267,11/19/2015,Front,,Boarded,,Vacant,False,True,10548,S,TORRENCE,AVE,60617.0,1195529.69501919,1835571.84403209,10.0,4.0,51.0,41.70370779143831,-87.55961622290056,"(41.703707791438305, -87.55961622290057)",2015-11-19
Vacant/Abandoned Building,15-06188677,11/16/2015,Front,,Open,,Vacant,False,False,5406,S,PAULINA,ST,60609.0,1165929.79741878,1868852.95897471,16.0,9.0,61.0,41.79571456541152,-87.6670612340348,"(41.795714565411515, -87.6670612340348)",2015-11-16
Vacant/Abandoned Building,15-06124762,11/12/2015,Front,,Boarded,,Vacant,False,False,6501,S,JUSTINE,ST,60636.0,1167123.71787888,1861616.8018298,16.0,7.0,67.0,41.77583218572478,-87.66288998362894,"(41.77583218572478, -87.66288998362893)",2015-11-12
Vacant/Abandoned Building,15-06144930,11/13/2015,Front,,Open,ALL OVER,Vacant,False,False,6348,S,HOYNE,AVE,60636.0,1163453.93691096,1862529.11861535,16.0,7.0,67.0,41.77841342713675,-87.67631755495735,"(41.77841342713675, -87.67631755495735)",2015-11-13
Vacant/Abandoned Building,15-06086266,11/10/2015,Front,,Open,FRONT ENTRY,Vacant,False,False,6750,S,PAULINA,ST,60636.0,1166157.9735139,1860271.42770189,16.0,7.0,67.0,41.77216090966954,-87.6664685639432,"(41.77216090966954, -87.66646856394321)",2015-11-10
Vacant/Abandoned Building,15-06117910,11/12/2015,Front,,Open,NOT SECURE -- A HAZARD,Vacant,False,False,6751,S,WINCHESTER,AVE,60636.0,1164519.95999855,1859913.54001269,16.0,7.0,67.0,41.77121351386876,-87.6724831265197,"(41.77121351386876, -87.67248312651971)",2015-11-12
Vacant/Abandoned Building,15-06340169,11/24/2015,Front,,Open,,Vacant,False,False,8713,S,EXCHANGE,AVE,60617.0,1197279.13998056,1847764.81998962,10.0,4.0,46.0,41.73712307301681,-87.55280544174289,"(41.73712307301681, -87.55280544174289)",2015-11-24
Vacant/Abandoned Building,15-06346509,11/24/2015,Front,,Open,,Vacant,False,False,6456,S,MAY,ST,60621.0,1169760.51811897,1861982.59781632,16.0,7.0,68.0,41.77677915773781,-87.65321311240757,"(41.776779157737806, -87.65321311240756)",2015-11-24
Vacant/Abandoned Building,15-05945878,11/04/2015,Front,,Open,,Vacant,False,False,6225,S,ALBANY,AVE,60629.0,1156787.66502874,1863190.96919505,16.0,8.0,66.0,41.78036680807855,-87.70073880848244,"(41.78036680807855, -87.70073880848243)",2015-11-04
Vacant/Abandoned Building,15-05969535,11/05/2015,Front,,Boarded,,Vacant,False,True,1146,W,112TH,ST,60643.0,1170682.3857043001,1830525.12538708,34.0,22.0,75.0,41.69043537214229,-87.65074816914152,"(41.69043537214229, -87.65074816914151)",2015-11-05
Vacant/Abandoned Building,15-06281560,11/20/2015,Front,,Open,,Vacant,False,False,1540,W,GARFIELD,BLVD,60609.0,1166909.90007405,1868253.70588427,16.0,9.0,61.0,41.79404924223601,-87.66348427471743,"(41.79404924223601, -87.66348427471742)",2015-11-20
Vacant/Abandoned Building,15-06219307,11/17/2015,Front,,Open,ALL ENTRIES OPEN,Vacant,False,True,6220,S,ABERDEEN,ST,60621.0,1170048.63769972,1863556.02466683,16.0,7.0,68.0,41.781090572006136,-87.6521111834363,"(41.78109057200613, -87.65211118343629)",2015-11-17
Vacant/Abandoned Building,15-06231640,11/17/2015,Front,,Open,,Occupied,False,True,6153,S,MAY,ST,60621.0,1169705.46163072,1863990.18762871,16.0,7.0,68.0,41.782289420600364,-87.65335675004364,"(41.78228942060037, -87.65335675004364)",2015-11-17
Vacant/Abandoned Building,15-05945228,11/04/2015,Front,,Open,,Vacant,False,True,2257,E,85TH,ST,60617.0,1192775.41999313,1849058.92051551,8.0,4.0,46.0,41.740785100731344,-87.56926331888376,"(41.74078510073134, -87.56926331888376)",2015-11-04
Vacant/Abandoned Building,15-05897017,11/02/2015,Front,,Open,,Vacant,True,True,5334,S,WOOD,ST,60609.0,1165253.71888866,1869319.87238217,16.0,9.0,61.0,41.797010184922655,-87.6695272262896,"(41.797010184922655, -87.66952722628959)",2015-11-02
Vacant/Abandoned Building,15-06461632,11/30/2015,Front,,Open,,Vacant,False,False,7214,S,BELL,AVE,60636.0,1162653.13998566,1856784.45999315,18.0,8.0,66.0,41.762666036169044,-87.67941345808298,"(41.76266603616905, -87.67941345808298)",2015-11-30
Vacant/Abandoned Building,15-06201830,11/16/2015,Front,,Open,NO,Vacant,False,False,5601,S,THROOP,ST,60636.0,1168613.51227391,1867627.07388743,16.0,7.0,67.0,41.79229309485118,-87.65725528854982,"(41.79229309485118, -87.65725528854983)",2015-11-16
Vacant/Abandoned Building,15-06240158,11/18/2015,Rear,,Open,,Vacant,False,False,5323,S,MARSHFIELD,AVE,60609.0,1166246.36162203,1869410.45368303,16.0,9.0,61.0,41.79723765871604,-87.66588450470877,"(41.79723765871604, -87.66588450470877)",2015-11-18
Vacant/Abandoned Building,15-06118358,11/12/2015,Front,,Open,FRONT DOOR IS OPEN,Vacant,False,False,5725,S,LOOMIS,BLVD,60636.0,1167973.59878081,1866785.37189384,16.0,7.0,67.0,41.78999715037028,-87.65962593993885,"(41.789997150370276, -87.65962593993886)",2015-11-12
Vacant/Abandoned Building,15-06174165,11/15/2015,Front,,Open,SIDE BASEMENT WINDOW,Vacant,False,False,4425,N,SAWYER,AVE,60625.0,1153921.68756666,1929227.48871205,33.0,17.0,14.0,41.96163550216705,-87.70948653754469,"(41.96163550216705, -87.70948653754469)",2015-11-15
Vacant/Abandoned Building,15-05998393,11/06/2015,Front,,Open,NOT BOARDED UP AT ALL,Vacant,False,True,5823,S,MOZART,ST,60629.0,1158372.60190617,1865905.88599317,16.0,8.0,63.0,41.78778478015249,-87.69485421027595,"(41.787784780152485, -87.69485421027596)",2015-11-06
Vacant/Abandoned Building,15-06062009,11/09/2015,Rear,,Open,,Vacant,True,True,5942,S,TALMAN,AVE,60629.0,1159725.18498,1865153.72627038,16.0,8.0,66.0,41.785693080414646,-87.68991544780035,"(41.78569308041465, -87.68991544780036)",2015-11-09
Vacant/Abandoned Building,15-06074219,11/10/2015,Rear,,Boarded,REAR,Vacant,False,False,5634,S,THROOP,ST,60636.0,1168619.51227391,1867406.07388743,16.0,7.0,67.0,41.79168651559472,-87.65723966045702,"(41.79168651559472, -87.65723966045702)",2015-11-10
Vacant/Abandoned Building,15-05894217,11/02/2015,Rear,,Open,REAR,Vacant,False,True,5657,S,BISHOP,ST,60636.0,1167630.03559065,1867225.0349931999,16.0,7.0,67.0,41.791211019275416,-87.66087307959585,"(41.791211019275416, -87.66087307959586)",2015-11-02
Vacant/Abandoned Building,15-05873497,11/01/2015,Garage,,Open,GARAGE DOOR IS RIPPED UP,Vacant,False,True,3601,N,MOZART,ST,60618.0,1156744.32987656,1923803.17252,33.0,17.0,16.0,41.9466939827265,-87.69925644323665,"(41.9466939827265, -87.69925644323665)",2015-11-01
Vacant/Abandoned Building,15-06240383,11/18/2015,Front,,Open,,Vacant,False,True,5602,S,MAY,ST,60621.0,1169606.76440263,1867647.16598377,16.0,7.0,68.0,41.792326737677215,-87.65361260511213,"(41.79232673767721, -87.65361260511214)",2015-11-18
Vacant/Abandoned Building,15-06203317,11/16/2015,Front,,Open,USING SIDE TO GET TO REAR,Vacant,True,True,8826,S,DANTE,AVE,60619.0,1187327.57891869,1846743.98297562,8.0,4.0,48.0,41.73456367474379,-87.58929675137152,"(41.73456367474379, -87.58929675137152)",2015-11-16
Vacant/Abandoned Building,15-06209081,11/16/2015,Front,,Open,"FRONT DOOR IS OPEN,",Vacant,False,False,8004,S,DOBSON,AVE,60619.0,1184613.19217813,1852145.18021955,8.0,6.0,44.0,41.74944909601965,-87.59907210457277,"(41.749449096019646, -87.59907210457277)",2015-11-16
Vacant/Abandoned Building,15-06090705,11/11/2015,Front,,Open,FRONT,Vacant,False,True,9242,S,DREXEL,AVE,60619.0,1184172.49802588,1843786.98993215,8.0,4.0,47.0,41.72652361772547,-87.60094761107928,"(41.72652361772547, -87.60094761107928)",2015-11-11
Vacant/Abandoned Building,15-06103629,11/11/2015,Front,,Open,ALL,Vacant,False,False,8224,S,LAFLIN,ST,60620.0,1167766.46008819,1850199.44971115,21.0,6.0,71.0,41.744487668829095,-87.6608609393523,"(41.74448766882909, -87.6608609393523)",2015-11-11
Vacant/Abandoned Building,15-06112705,11/11/2015,Rear,,Open,"WINDOWS, AND REAR DOOR",Vacant,False,True,5805,S,ADA,ST,60636.0,1168319.80972688,1866239.31869365,16.0,7.0,67.0,41.78849126389332,-87.65837220129869,"(41.78849126389332, -87.65837220129869)",2015-11-11
Vacant/Abandoned Building,15-06135548,11/13/2015,Garage,,Open,,Vacant,False,False,5352,S,MARSHFIELD,AVE,60609.0,1166251.6039838002,1869215.92922244,16.0,9.0,61.0,41.796703748730565,-87.66587081912658,"(41.79670374873056, -87.66587081912658)",2015-11-13
Vacant/Abandoned Building,15-06141234,11/13/2015,Front,,Boarded,,Vacant,False,True,9220,S,UNIVERSITY,AVE,60619.0,1185488.38942767,1844075.91511343,8.0,4.0,47.0,41.72728563678214,-87.5961183617382,"(41.72728563678214, -87.5961183617382)",2015-11-13
Vacant/Abandoned Building,15-06144000,11/13/2015,Front,,Open,ALL OVER,Vacant,False,False,1102,E,83RD,ST,60619.0,1185048.30088026,1850184.67367064,8.0,4.0,45.0,41.744059063832154,-87.59753914134237,"(41.744059063832154, -87.59753914134238)",2015-11-13
Vacant/Abandoned Building,15-05947787,11/04/2015,Rear,,Open,,Vacant,False,True,8055,S,WOODLAWN,AVE,60619.0,1185611.91260264,1851824.35861598,8.0,4.0,45.0,41.748545283226136,-87.59542251647218,"(41.74854528322613, -87.59542251647218)",2015-11-04
Vacant/Abandoned Building,15-05965085,11/05/2015,Rear,,Open,SIDE WINDOW AND REAR DOOR,Vacant,False,True,56,W,114TH,PL,60628.0,1177880.0113178,1829043.66997518,34.0,5.0,49.0,41.68621050878971,-87.62444203008629,"(41.68621050878971, -87.62444203008629)",2015-11-05
Vacant/Abandoned Building,15-06048633,11/09/2015,Front,,Boarded,,Vacant,False,False,8134,S,PAULINA,ST,60620.0,1166425.67538288,1850761.10430684,21.0,6.0,71.0,41.74605757809121,-87.66575778346039,"(41.74605757809121, -87.66575778346039)",2015-11-09
Vacant/Abandoned Building,15-06075595,11/10/2015,Front,,Open,,Vacant,False,False,8239,S,MARSHFIELD,AVE,60620.0,1166775.8032002,1850072.30767474,21.0,6.0,71.0,41.74415996026186,-87.66449445573437,"(41.74415996026186, -87.66449445573438)",2015-11-10
Vacant/Abandoned Building,15-05916470,11/03/2015,,,,,,,,822,E,90TH,ST,60619.0,1183378.46499763,1845480.90481671,8.0,6.0,44.0,41.73119041760603,-87.60380361365027,"(41.73119041760603, -87.60380361365026)",2015-11-03
Vacant/Abandoned Building,15-05942837,11/04/2015,Front,,Boarded,,Vacant,False,False,5743,S,CARPENTER,ST,60621.0,1170294.1583063998,1866727.73452907,16.0,7.0,68.0,41.789788771737534,-87.65111879206303,"(41.78978877173753, -87.65111879206303)",2015-11-04
Vacant/Abandoned Building,15-06202013,11/16/2015,Front,,Open,FRONT,Vacant,False,True,7028,S,RHODES,AVE,60637.0,1181121.99987279,1858538.94202156,6.0,3.0,69.0,41.76707530076538,-87.6116685767219,"(41.767075300765384, -87.6116685767219)",2015-11-16
Vacant/Abandoned Building,15-06138810,11/13/2015,,,,,,,,8024,S,WESTERN,AVE,60620.0,1161773.62036848,1851284.1799996002,18.0,8.0,70.0,41.74759075370235,-87.68278949143311,"(41.74759075370235, -87.68278949143311)",2015-11-13
Vacant/Abandoned Building,15-06143861,11/13/2015,Front,,Open,SIDE WINDOWS AND REAR DOOR,Vacant,False,True,7326,S,CHAMPLAIN,AVE,60619.0,1181832.02347367,1856581.96231693,6.0,3.0,69.0,41.7616887726185,-87.60912646850424,"(41.7616887726185, -87.60912646850424)",2015-11-13
Vacant/Abandoned Building,15-05994220,11/06/2015,Front,,Open,DOORS AND WINDOWS AND UNSECURED AND GANG MEMBERS GO IN AND OUT. THEY HAVE DESTROYED PART OF THE ROOF OF THIS BUILDING.,Vacant,False,True,5215,S,ST LOUIS,AVE,60632.0,1153927.76197043,1869819.5399683998,14.0,8.0,63.0,41.798613837349905,-87.71104790136127,"(41.79861383734991, -87.71104790136127)",2015-11-06
Vacant/Abandoned Building,15-06071297,11/10/2015,Front,,Open,ALL WINDOWS,Vacant,False,False,7420,S,DORCHESTER,AVE,60619.0,1186826.17100548,1856074.31163397,8.0,3.0,43.0,41.76017889700652,-87.5908387026557,"(41.76017889700652, -87.5908387026557)",2015-11-10
Vacant/Abandoned Building,15-06077343,11/10/2015,Front,,Open,FRONT AND BACK,Vacant,False,True,8101,S,JEFFERY,BLVD,,1190936.3358788,1851654.22382359,8.0,4.0,46.0,41.74795145862578,-87.57591774578218,"(41.74795145862578, -87.57591774578218)",2015-11-10
Vacant/Abandoned Building,15-05943891,11/04/2015,Front,,Open,NOT BOARDED UP,Vacant,False,True,7837,S,LAFLIN,ST,60620.0,1167475.81292359,1852759.30558525,17.0,6.0,71.0,41.75151850060358,-87.66185271020737,"(41.75151850060358, -87.66185271020738)",2015-11-04
Vacant/Abandoned Building,15-05947330,11/04/2015,Rear,,Open,,Vacant,False,True,8505,S,CREGIER,AVE,60617.0,1189670.12467338,1848920.46848657,8.0,4.0,45.0,41.7404802701836,-87.58064509415117,"(41.740480270183596, -87.58064509415117)",2015-11-04
Vacant/Abandoned Building,15-05973186,11/05/2015,Rear,,Open,REAR & WINDOWS(HAVENT BEEN BOARDED/LOCKED UP YET),Vacant,False,False,62,W,73RD,ST,60621.0,1177015.39519434,1856597.8298994,6.0,7.0,69.0,41.761842235424616,-87.62677929948946,"(41.761842235424616, -87.62677929948947)",2015-11-05
Vacant/Abandoned Building,15-05972956,11/05/2015,Garage,,Open,,Vacant,False,False,7525,S,ELLIS,AVE,60619.0,1184195.3022215,1855321.05809004,8.0,6.0,69.0,41.75817380298359,-87.60050427689676,"(41.758173802983585, -87.60050427689677)",2015-11-05
Vacant/Abandoned Building,15-05992225,11/06/2015,Front,,Open,SIDE ENTRANCE,Vacant,False,True,2935,W,47TH,ST,60632.0,1157480.4784316001,1873345.8329687999,14.0,9.0,58.0,41.808219140854355,-87.6979236410603,"(41.80821914085435, -87.6979236410603)",2015-11-06
Vacant/Abandoned Building,15-05994230,11/06/2015,Front,,Open,FRONT,Vacant,False,False,8125,S,PRINCETON,AVE,60620.0,1175697.62591826,1851102.15510598,21.0,6.0,44.0,41.746791045064676,-87.63177329378892,"(41.746791045064676, -87.63177329378892)",2015-11-06
Vacant/Abandoned Building,15-06071268,11/10/2015,Front,,Open,FRONT,Vacant,False,False,7404,S,DORCHESTER,AVE,60619.0,1186823.07100548,1856181.71163397,8.0,3.0,43.0,41.76047368594898,-87.59084666662608,"(41.76047368594898, -87.59084666662606)",2015-11-10
Vacant/Abandoned Building,15-06071289,11/10/2015,Front,,Open,WINDOWS MAIN FLOOR,Vacant,False,True,7408,S,DORCHESTER,AVE,60619.0,1186823.77100548,1856154.81163397,8.0,3.0,43.0,41.760399853286536,-87.59084495208346,"(41.760399853286536, -87.59084495208346)",2015-11-10
Vacant/Abandoned Building,15-05918733,11/03/2015,Front,,Open,ALL DOORS AND WINDOWS AT GROUND LEVEL ARE NOT SECURED AS PER CITY CODE.,Vacant,False,True,5349,S,MAPLEWOOD,AVE,60632.0,1160280.71738451,1869030.57159593,14.0,9.0,63.0,41.796320237687794,-87.68777185675911,"(41.7963202376878, -87.68777185675911)",2015-11-03
Vacant/Abandoned Building,15-05920936,11/03/2015,Front,,Open,GROUND LEVEL WINDOWS AND DOORS ARE NOT SECURED AS PER CITY CODE,Vacant,False,False,5229,S,MAPLEWOOD,AVE,60632.0,1160256.69612007,1869910.02603147,14.0,9.0,63.0,41.79873407077992,-87.68783572774339,"(41.798734070779915, -87.68783572774339)",2015-11-03
Vacant/Abandoned Building,15-05942875,11/04/2015,Front,,Open,GROUND LEVEL WINDOWS AND DOORS ARE NOT SECURED.,Vacant,False,True,4855,S,SPRINGFIELD,AVE,60632.0,1151187.42989988,1872147.06340833,14.0,8.0,57.0,41.805054900930465,-87.7210365826746,"(41.805054900930465, -87.72103658267459)",2015-11-04
Vacant/Abandoned Building,15-06413719,11/28/2015,Front,,Open,ALL AROUND - ROOF COLLAPSING,Vacant,False,False,11803,S,LOWE,AVE,60628.0,1174088.10699074,1826623.62102192,34.0,5.0,53.0,41.67965429848577,-87.63839489192993,"(41.67965429848577, -87.63839489192993)",2015-11-28
Vacant/Abandoned Building,15-06056730,11/09/2015,Front,,Open,FRONT,Vacant,False,True,9643,S,UNIVERSITY,AVE,60628.0,1185573.00552271,1841086.05617348,8.0,5.0,50.0,41.71907913617485,-87.59590222375402,"(41.719079136174855, -87.59590222375402)",2015-11-09
Vacant/Abandoned Building,15-05925940,11/03/2015,Rear,,Open,,Vacant,False,False,7919,S,ESSEX,AVE,60617.0,1194231.51139211,1852948.02011668,7.0,4.0,46.0,41.75142150887049,-87.56380100004404,"(41.75142150887049, -87.56380100004405)",2015-11-03
Vacant/Abandoned Building,15-06461981,11/30/2015,Front,,Open,WINDOWS,Vacant,False,True,6558,S,JUSTINE,ST,60636.0,1167134.68601654,1861234.515302,16.0,7.0,67.0,41.774782907987664,-87.6628607013974,"(41.774782907987664, -87.66286070139739)",2015-11-30
Vacant/Abandoned Building,15-06163225,11/14/2015,Front,,Open,FRONT -- DOOR -- PLS SECURE,Vacant,False,False,5117,S,ABERDEEN,ST,60609.0,1169851.63509625,1870871.57719675,20.0,9.0,61.0,41.80116956605668,-87.65262107588266,"(41.80116956605668, -87.65262107588266)",2015-11-14
Vacant/Abandoned Building,15-06092826,11/11/2015,Front,,Open,,Occupied,False,True,9337,S,SAGINAW,AVE,60617.0,1195506.81060267,1843564.71477567,7.0,4.0,48.0,41.72564154717232,-87.55943694861429,"(41.725641547172316, -87.55943694861429)",2015-11-11
Vacant/Abandoned Building,15-06457869,11/30/2015,,,,,,,,6320,S,WINCHESTER,AVE,60636.0,1164442.5958865,1862739.87040974,15.0,7.0,67.0,41.778970972402526,-87.67268712829029,"(41.77897097240252, -87.6726871282903)",2015-11-30
Vacant/Abandoned Building,15-06468386,11/30/2015,Rear,,Open,,Vacant,True,True,6755,S,ABERDEEN,ST,60621.0,1170146.79706724,1860010.01486982,16.0,7.0,68.0,41.77135775722847,-87.65185433238663,"(41.77135775722847, -87.65185433238662)",2015-11-30
Vacant/Abandoned Building,15-06379468,11/26/2015,Front,,Open,FRONT,Vacant,False,False,6559,S,MARSHFIELD,AVE,60636.0,1166453.77008682,1861210.54031781,15.0,7.0,67.0,41.774731657868315,-87.66535752269584,"(41.77473165786832, -87.66535752269584)",2015-11-26
Vacant/Abandoned Building,15-06182271,11/15/2015,Front,,Open,THE GARAGE AND BACK DOORS OF THE HOUSE,Vacant,False,True,9117,S,PARNELL,AVE,60620.0,1174233.19321338,1844438.25262808,21.0,22.0,73.0,41.728537062105694,-87.63733680044004,"(41.728537062105694, -87.63733680044004)",2015-11-15
Vacant/Abandoned Building,15-06028963,11/08/2015,Front,,Open,FRONT DOOR,Vacant,False,True,6450,S,PAULINA,ST,60636.0,1166097.02708835,1862218.66293263,15.0,7.0,67.0,41.77750567315682,-87.66663663944853,"(41.77750567315681, -87.66663663944853)",2015-11-08
Vacant/Abandoned Building,15-06056409,11/09/2015,Front,,Open,DOORS,Vacant,False,False,8803,S,LOWE,AVE,60620.0,1173511.36107238,1846525.51192106,21.0,22.0,71.0,41.73428077081576,-87.6399194211668,"(41.73428077081576, -87.6399194211668)",2015-11-09
Vacant/Abandoned Building,15-06082292,11/10/2015,Front,,Open,"REAR WINDOWS,",Vacant,False,False,8810,S,WALLACE,ST,60620.0,1173844.7954978,1846485.18921593,21.0,22.0,71.0,41.73416274168085,-87.6386990660752,"(41.73416274168085, -87.63869906607522)",2015-11-10
Vacant/Abandoned Building,15-06107449,11/11/2015,Front,,Open,,Vacant,False,True,9745,S,WENTWORTH,AVE,60628.0,1176661.43888231,1840331.06647725,21.0,5.0,49.0,41.717212173304034,-87.62856482832666,"(41.717212173304034, -87.62856482832666)",2015-11-11
Vacant/Abandoned Building,15-06121538,11/12/2015,Front,,Open,FRONT DOOR,Vacant,False,False,9420,S,LOWE,AVE,60620.0,1173628.53770108,1842402.63980698,21.0,22.0,73.0,41.722964454128494,-87.63961187130755,"(41.72296445412849, -87.63961187130755)",2015-11-12
Vacant/Abandoned Building,15-06122062,11/12/2015,Garage,,Open,"FRONT/REAR DOORS, WINDOWS, GARAGE AND SHED",Vacant,False,True,4839,W,QUINCY,ST,60644.0,1144185.70002211,1898564.27001244,28.0,15.0,25.0,41.87768142400946,-87.74605385708773,"(41.87768142400946, -87.74605385708772)",2015-11-12
Vacant/Abandoned Building,15-06147531,11/13/2015,Front,,Open,REAR DOOR UNSECURED,Vacant,False,False,9236,S,CLYDE,AVE,60617.0,1191786.95120606,1844138.74131193,7.0,4.0,48.0,41.72730769429532,-87.57304415980305,"(41.72730769429532, -87.57304415980305)",2015-11-13
Vacant/Abandoned Building,15-06456260,11/30/2015,Front,,Open,,Vacant,False,True,5630,S,WINCHESTER,AVE,60636.0,1164318.29178834,1867296.48381535,15.0,7.0,67.0,41.79147752586125,-87.67301454943565,"(41.79147752586125, -87.67301454943565)",2015-11-30
Vacant/Abandoned Building,15-06460454,11/30/2015,Front,,Open,,Occupied,False,True,8928,S,JUSTINE,ST,60620.0,1167566.58179823,1845501.24010383,21.0,22.0,73.0,41.73159938462544,-87.6617276605813,"(41.73159938462544, -87.66172766058129)",2015-11-30
Vacant/Abandoned Building,15-06175616,11/15/2015,Front,,Open,DOORS / WINDOWS OPEN,Vacant,False,True,7927,S,MARQUETTE,AVE,60617.0,1195555.36003108,1852927.85000918,7.0,4.0,46.0,41.75133356628898,-87.55895050035136,"(41.751333566288984, -87.55895050035134)",2015-11-15
Vacant/Abandoned Building,15-06188247,11/16/2015,Front,,Open,,Vacant,True,False,5044,S,CARPENTER,ST,60609.0,1170169.31990856,1871363.30191887,20.0,9.0,61.0,41.802512002355314,-87.65144170886884,"(41.802512002355314, -87.65144170886884)",2015-11-16
Vacant/Abandoned Building,15-06189157,11/16/2015,Rear,,Open,REAR,Vacant,False,False,9949,S,YATES,AVE,60617.0,1194134.1269269,1839474.09709144,7.0,4.0,51.0,41.7144502582508,-87.56459885558546,"(41.7144502582508, -87.56459885558546)",2015-11-16
Vacant/Abandoned Building,15-06201011,11/16/2015,Garage,,Open,,Vacant,False,True,5649,S,HOYNE,AVE,60636.0,1163325.78191986,1867174.64072139,15.0,7.0,67.0,41.791164034073404,-87.67665731068041,"(41.7911640340734, -87.6766573106804)",2015-11-16
Vacant/Abandoned Building,15-06080500,11/10/2015,Front,,Open,ALL,Vacant,True,False,8130,S,ESCANABA,AVE,60617.0,1196909.36478094,1851619.05061968,7.0,4.0,46.0,41.74770857531729,-87.55403228188442,"(41.74770857531729, -87.55403228188442)",2015-11-10
Vacant/Abandoned Building,15-06116184,11/12/2015,Rear,,Open,GARAGE,Vacant,False,True,5535,S,HAMILTON,AVE,60636.0,1162975.35987721,1867838.98449457,15.0,7.0,67.0,41.79299441628493,-87.67792366587628,"(41.79299441628492, -87.67792366587626)",2015-11-12
Vacant/Abandoned Building,15-06117202,11/12/2015,,,,,,,,2659,E,78TH,ST,60649.0,1195404.13576905,1853764.65979841,7.0,4.0,43.0,41.75363356973469,-87.55947707042904,"(41.75363356973469, -87.55947707042904)",2015-11-12
Vacant/Abandoned Building,15-05999490,11/06/2015,,,,,,,,8439,S,ESSEX,AVE,60617.0,1194302.59330141,1849501.25158262,7.0,4.0,46.0,41.741961549766174,-87.56365350473196,"(41.74196154976617, -87.56365350473196)",2015-11-06
Vacant/Abandoned Building,15-06022205,11/07/2015,Rear,,Open,REAR DOOR IS OPEN,Vacant,False,False,8700,S,MUSKEGON,AVE,60617.0,1196519.81007513,1847833.12733121,7.0,4.0,46.0,41.737329377865024,-87.55558507876734,"(41.73732937786502, -87.55558507876734)",2015-11-07
Vacant/Abandoned Building,15-05891260,11/02/2015,Front,,Boarded,,Vacant,False,False,8208,S,MANISTEE,AVE,60617.0,1195927.1877918001,1851077.1001855,7.0,4.0,46.0,41.74624577518664,-87.5576491028333,"(41.746245775186644, -87.55764910283328)",2015-11-02
Vacant/Abandoned Building,15-05895733,11/02/2015,Front,,Open,,Vacant,False,False,9715,S,JEFFERY,AVE,60617.0,1191209.39220855,1840944.23012119,7.0,4.0,51.0,41.71855561376243,-87.57526285194271,"(41.71855561376243, -87.57526285194272)",2015-11-02
Vacant/Abandoned Building,15-06461030,11/30/2015,Front,,Open,FRONT,Vacant,False,True,2315,W,47TH,PL,60609.0,1161715.8700044,1873120.1799753997,15.0,9.0,61.0,41.80751294224774,-87.68239544134916,"(41.80751294224774, -87.68239544134917)",2015-11-30
Vacant/Abandoned Building,15-06400509,11/27/2015,,,,,,,,2129,W,71ST,PL,60636.0,1163437.9299667,1857227.48997934,17.0,7.0,67.0,41.76386536559546,-87.6765246676235,"(41.763865365595464, -87.6765246676235)",2015-11-27
Vacant/Abandoned Building,15-06414933,11/28/2015,Front,,Open,,Vacant,False,True,5935,S,THROOP,ST,60636.0,1168673.80556575,1865409.9263116,16.0,7.0,67.0,41.78620767928613,-87.65709814824612,"(41.786207679286136, -87.65709814824612)",2015-11-28
Vacant/Abandoned Building,15-06457595,11/30/2015,Front,,Open,2ND FLOOR WINDOW IS OPEN ON THE SIDE IN THE GANGWAY,Vacant,False,False,1330,W,WINNEMAC,AVE,60640.0,1166515.02751254,1933680.44579074,47.0,20.0,3.0,41.97359364945716,-87.66305837480337,"(41.97359364945716, -87.66305837480337)",2015-11-30
Vacant/Abandoned Building,15-06283353,11/20/2015,,,,,,,,5541,S,HOYNE,AVE,60636.0,1163308.36990478,1867814.34360658,15.0,7.0,67.0,41.792919825277465,-87.67670324119463,"(41.79291982527746, -87.67670324119462)",2015-11-20
Vacant/Abandoned Building,15-06324015,11/23/2015,,,,,,,,5942,S,ADA,ST,60636.0,1168344.01202644,1865353.90786966,16.0,7.0,67.0,41.78606106938014,-87.65830894880158,"(41.78606106938014, -87.65830894880158)",2015-11-23
Vacant/Abandoned Building,15-06340026,11/24/2015,Front,,Open,"WINDOWS BROKEN, DOOR LOCK HAS BEEN PICKED OPEN",Vacant,False,True,7622,S,WINCHESTER,AVE,60620.0,1164678.90090594,1854118.5034315,17.0,6.0,71.0,41.75530777716731,-87.67206380623286,"(41.75530777716731, -87.67206380623284)",2015-11-24
Vacant/Abandoned Building,15-06246650,11/18/2015,Rear,,Open,BACK DOOR OPEN,Vacant,False,True,2121,W,72ND,ST,60636.0,1163491.47873382,1856897.25099856,17.0,7.0,67.0,41.76295802107205,-87.67633764332723,"(41.762958021072045, -87.67633764332724)",2015-11-18
Vacant/Abandoned Building,15-06200417,11/16/2015,Garage,,Open,,Vacant,False,True,5651,S,HOYNE,AVE,60636.0,1163326.18839756,1867161.30569409,15.0,7.0,67.0,41.79112743253343,-87.67665619369629,"(41.79112743253343, -87.67665619369629)",2015-11-16
Vacant/Abandoned Building,15-06454312,11/30/2015,Front,,Open,,Vacant,False,False,5328,S,WOOD,ST,60609.0,1165252.61888866,1869359.97238217,16.0,9.0,61.0,41.797120247487676,-87.6695301245857,"(41.797120247487676, -87.6695301245857)",2015-11-30
Vacant/Abandoned Building,15-06454316,11/30/2015,Rear,,Open,,Vacant,False,False,5147,S,WOOD,ST,60609.0,1165218.302986,1870559.60028369,16.0,9.0,61.0,41.800412897901175,-87.66962199827015,"(41.80041289790117, -87.66962199827016)",2015-11-30
Vacant/Abandoned Building,15-06454517,11/30/2015,Front,,Open,FRONT DOORS AND REAR DOORS..,Vacant,False,False,8917,S,EXCHANGE,AVE,60617.0,1197314.66110925,1846408.13469884,10.0,4.0,46.0,41.73339933590889,-87.55272038762611,"(41.73339933590889, -87.55272038762611)",2015-11-30
Vacant/Abandoned Building,15-06270714,11/19/2015,Front,,Boarded,,Vacant,True,False,6827,S,HERMITAGE,AVE,60636.0,1165857.04121228,1859420.21352858,17.0,7.0,67.0,41.76983146304792,-87.66759584665306,"(41.76983146304792, -87.66759584665306)",2015-11-19
Vacant/Abandoned Building,15-06276788,11/19/2015,,,Open,FRONT AND THE SIDE,Vacant,,,7358,S,ASHLAND,AVE,60636.0,1166959.74532273,1855843.23988148,17.0,7.0,67.0,41.75999227751542,-87.66365588554014,"(41.75999227751542, -87.66365588554014)",2015-11-19
Vacant/Abandoned Building,15-06340319,11/24/2015,Front,,Open,FRONT DOOR,Vacant,False,True,7022,S,WINCHESTER,AVE,60636.0,1164568.62231894,1858099.19287766,17.0,7.0,67.0,41.76623367195986,-87.67235585782484,"(41.76623367195986, -87.67235585782485)",2015-11-24
Vacant/Abandoned Building,15-06342245,11/24/2015,Front,,Open,,Vacant,True,False,5142,S,WOLCOTT,AVE,60609.0,1164554.58611512,1870580.73331191,16.0,9.0,61.0,41.80048492698759,-87.6720554640291,"(41.800484926987586, -87.67205546402911)",2015-11-24
Vacant/Abandoned Building,15-06211809,11/17/2015,Front,,Open,,Vacant,False,False,4225,S,MAPLEWOOD,AVE,60632.0,1160064.66277263,1876562.38673116,15.0,9.0,58.0,41.81699294361179,-87.68835687880484,"(41.816992943611794, -87.68835687880483)",2015-11-17
Vacant/Abandoned Building,15-06230293,11/17/2015,Front,,Open,ALL DOORS AND WINDOWS OVER 1 YR NOW,Vacant,False,True,1509,W,71ST,PL,60636.0,1167313.24099683,1857314.12068666,17.0,7.0,67.0,41.76402101253354,-87.66231826851215,"(41.76402101253354, -87.66231826851215)",2015-11-17
Vacant/Abandoned Building,15-06230473,11/17/2015,Front,,Open,FRONT DOOR,Vacant,False,True,1505,W,71ST,PL,60636.0,1167330.64099683,1857314.62068666,17.0,7.0,67.0,41.764022012104725,-87.66225447903936,"(41.764022012104725, -87.66225447903936)",2015-11-17
Vacant/Abandoned Building,15-06231918,11/17/2015,Front,,Open,"SIDE DOOR IS OPEN,",Vacant,False,True,4125,S,ALBANY,AVE,60632.0,1156368.45226863,1876996.1386849,15.0,9.0,58.0,41.818258546323854,-87.70190393987556,"(41.81825854632385, -87.70190393987556)",2015-11-17
Vacant/Abandoned Building,15-06137664,11/13/2015,Front,,Boarded,,Vacant,False,False,6830,S,LOOMIS,BLVD,60636.0,1168174.70039041,1859459.74549969,17.0,7.0,67.0,41.76989040087064,-87.65909916854757,"(41.76989040087064, -87.65909916854758)",2015-11-13
Vacant/Abandoned Building,15-06141431,11/13/2015,Front,,Open,"FRONT/REAR DOORS, WINDOWS",Vacant,False,False,7028,S,HERMITAGE,AVE,60636.0,1165894.80370655,1858087.21332571,17.0,7.0,67.0,41.766172729844925,-87.66749525118826,"(41.76617272984492, -87.66749525118827)",2015-11-13
Vacant/Abandoned Building,15-06141464,11/13/2015,Rear,,Boarded,,Vacant,False,False,7032,S,HERMITAGE,AVE,60636.0,1165895.60370655,1858060.41332571,17.0,7.0,67.0,41.76609917003877,-87.66749307931484,"(41.76609917003877, -87.66749307931484)",2015-11-13
Vacant/Abandoned Building,15-05900597,11/02/2015,Front,,Open,FRONT DR,Vacant,True,False,6826,S,MARSHFIELD,AVE,60636.0,1166519.19013354,1859442.09430506,17.0,7.0,67.0,41.7698774165799,-87.66516806811535,"(41.769877416579895, -87.66516806811535)",2015-11-02
Vacant/Abandoned Building,15-05968674,11/05/2015,Front,,Open,FRONT/REAR,Vacant,False,False,2318,S,WHIPPLE,ST,60623.0,1156389.3400027,1888443.45991728,12.0,10.0,30.0,41.8496709578793,-87.70151845039128,"(41.8496709578793, -87.70151845039128)",2015-11-05
Vacant/Abandoned Building,15-06460185,11/30/2015,Front,,Open,"FRONT SIDE KICKED OPEN, PEOPLE GOING IN & OUT",Vacant,False,True,9600,S,CARPENTER,ST,60643.0,1171013.97987274,1841030.64177682,21.0,22.0,73.0,41.71925690919654,-87.64922865392887,"(41.71925690919654, -87.64922865392887)",2015-11-30
Vacant/Abandoned Building,15-06365089,11/25/2015,Front,,Open,,Vacant,True,True,1834,W,PERSHING,RD,60609.0,1164654.79350686,1878889.76896675,12.0,9.0,59.0,41.82328376129424,-87.67145327918888,"(41.82328376129424, -87.67145327918888)",2015-11-25
Vacant/Abandoned Building,15-06392300,11/27/2015,Front,,Open,,Vacant,False,False,4250,S,WELLS,ST,60609.0,1175313.88931242,1877091.34759202,3.0,9.0,37.0,41.8181167496134,-87.63240310774094,"(41.8181167496134, -87.63240310774093)",2015-11-27
Vacant/Abandoned Building,15-06301205,11/21/2015,Front,,Open,REAR DOOR,Vacant,False,False,10019,S,PERRY,AVE,60628.0,1177368.57310667,1838527.54836644,9.0,5.0,49.0,41.71224716151236,-87.62602917601757,"(41.71224716151236, -87.62602917601758)",2015-11-21
Vacant/Abandoned Building,15-06117616,11/12/2015,Front,,Open,FRONT DOOR WIDE OPEN,Vacant,False,False,10028,S,YALE,AVE,60628.0,1176384.00111235,1838443.30857963,9.0,5.0,49.0,41.712038133252136,-87.62963746726555,"(41.71203813325214, -87.62963746726555)",2015-11-12
Vacant/Abandoned Building,15-06147397,11/13/2015,,,,,,,,1323,W,98TH,ST,60643.0,1169237.14132743,1839798.0699706,21.0,22.0,73.0,41.71591310589927,-87.6557721897298,"(41.71591310589927, -87.6557721897298)",2015-11-13
Vacant/Abandoned Building,15-06151889,11/13/2015,Front,,Open,FRONT AND REAR,Vacant,False,True,4325,S,ALBANY,AVE,60632.0,1156417.54991378,1875799.68338854,15.0,9.0,58.0,41.81497432821489,-87.70175609113787,"(41.81497432821489, -87.70175609113787)",2015-11-13
Vacant/Abandoned Building,15-06200412,11/16/2015,Front,,Open,FRONT DOOR,Vacant,False,True,349,W,95TH,ST,60628.0,1175536.3303116998,1841922.24447408,21.0,5.0,49.0,41.72160378365182,-87.63263816933022,"(41.72160378365182, -87.63263816933022)",2015-11-16
Vacant/Abandoned Building,15-05953514,11/04/2015,Front,,Open,DOORS AND WINDOWS,Vacant,False,True,4842,S,WOLCOTT,AVE,60609.0,1164502.5098146999,1872568.81833225,15.0,9.0,61.0,41.80594156935347,-87.6721903625251,"(41.80594156935347, -87.67219036252511)",2015-11-04
Vacant/Abandoned Building,15-05962557,11/05/2015,Front,,Open,FRONT DOOR,Vacant,False,True,10236,S,WALLACE,ST,60628.0,1174109.86857475,1837006.08909935,9.0,22.0,73.0,41.70814489434792,-87.63800844636835,"(41.708144894347924, -87.63800844636836)",2015-11-05
Vacant/Abandoned Building,15-05974010,11/05/2015,Front,,Open,FRONT AND REAR DOORS..,Vacant,False,True,222,E,99TH,ST,60628.0,1179566.92557646,1839380.63109566,9.0,5.0,49.0,41.71453829591066,-87.61795226957126,"(41.71453829591066, -87.61795226957126)",2015-11-05
Vacant/Abandoned Building,15-05996215,11/06/2015,Front,,Open,FRONT DOOR IS OPENED AND FRONT PICTURE WINDOW IS BROKEN,Vacant,False,False,10121,S,PERRY,AVE,60628.0,1177384.91489915,1837851.52201313,9.0,5.0,49.0,41.71039168407841,-87.62598966616068,"(41.710391684078424, -87.62598966616069)",2015-11-06
Vacant/Abandoned Building,15-06002685,11/06/2015,Front,,Open,SOUTH SIDE OF BUILDIING,Vacant,False,False,10237,S,YALE,AVE,60628.0,1176421.50021235,1837057.75717607,9.0,5.0,49.0,41.70823514539353,-87.6295416095803,"(41.70823514539353, -87.62954160958031)",2015-11-06
Vacant/Abandoned Building,15-06099494,11/11/2015,Front,,Open,,Vacant,False,False,2836,W,38TH,PL,60632.0,1158093.09050874,1878984.92133089,12.0,9.0,58.0,41.82368106045839,-87.69552319615488,"(41.82368106045839, -87.69552319615487)",2015-11-11
Vacant/Abandoned Building,15-06099628,11/11/2015,Front,,Open,,Vacant,False,False,2724,W,47TH,ST,60632.0,1158902.57493031,1873387.71497327,15.0,9.0,58.0,41.808305100170905,-87.69270655676003,"(41.80830510017091, -87.69270655676003)",2015-11-11
Vacant/Abandoned Building,15-06453579,11/30/2015,Rear,,Open,,Vacant,False,False,4638,S,WALLACE,ST,60609.0,1173076.6004869,1874036.93368547,11.0,9.0,61.0,41.809784930267426,-87.64070047430685,"(41.809784930267426, -87.64070047430684)",2015-11-30
Vacant/Abandoned Building,15-06458080,11/30/2015,,,,,,,,6823,S,WOLCOTT,AVE,60636.0,1164864.23853261,1859424.84972142,17.0,7.0,67.0,41.76986521566822,-87.67123491011922,"(41.76986521566822, -87.67123491011924)",2015-11-30
Vacant/Abandoned Building,15-06389979,11/27/2015,Front,,Open,,Vacant,False,False,3222,S,ABERDEEN,ST,60608.0,1169508.97761981,1883319.18562688,11.0,9.0,60.0,41.835334513204714,-87.65351655694876,"(41.83533451320471, -87.65351655694877)",2015-11-27
Vacant/Abandoned Building,15-06394080,11/27/2015,Front,,Boarded,FRONT DOOR,Vacant,False,False,7041,S,CLAREMONT,AVE,60636.0,1161951.39790846,1857915.52121,17.0,8.0,66.0,41.76578444081638,-87.68195407420204,"(41.76578444081638, -87.68195407420205)",2015-11-27
Vacant/Abandoned Building,15-06240194,11/18/2015,Rear,,Open,,Vacant,False,False,4207,S,PRINCETON,AVE,60609.0,1174989.14538723,1877037.39987411,3.0,9.0,37.0,41.817975975242156,-87.63359597761891,"(41.817975975242156, -87.63359597761891)",2015-11-18
Vacant/Abandoned Building,15-06246216,11/18/2015,Front,,Open,FRONT DOOR HAS BEEN KICKED IN..,Vacant,False,True,458,W,80TH,ST,60620.0,1174596.69197085,1851873.68658754,17.0,6.0,44.0,41.74893278536476,-87.63578445983414,"(41.74893278536476, -87.63578445983414)",2015-11-18
Vacant/Abandoned Building,15-06268390,11/19/2015,Rear,,Open,SIDE DOOR UNLOCKED,Vacant,False,True,7000,S,TALMAN,AVE,60629.0,1159917.5234921002,1858130.53331475,17.0,8.0,66.0,41.76641648985024,-87.68940305371895,"(41.76641648985024, -87.68940305371896)",2015-11-19
Vacant/Abandoned Building,15-06287745,11/20/2015,Front,,Open,REAR,Vacant,False,False,3654,S,MARSHFIELD,AVE,60609.0,1165948.0900303998,1880496.79827619,12.0,9.0,59.0,41.82766618218013,-87.66666291510525,"(41.827666182180124, -87.66666291510525)",2015-11-20
Vacant/Abandoned Building,15-06171608,11/15/2015,Front,,Open,PLS SECURE THE SIDE,Vacant,False,True,7609,S,DAMEN,AVE,60620.0,1164345.39790514,1854195.94790132,17.0,6.0,71.0,41.75552732372485,-87.67328383460391,"(41.755527323724856, -87.67328383460391)",2015-11-15
Vacant/Abandoned Building,15-05971661,11/05/2015,,,,,,,,7841,S,MARQUETTE,AVE,60649.0,1195682.40709959,1853498.75620864,7.0,4.0,43.0,41.75289703735748,-87.55846610310476,"(41.75289703735748, -87.55846610310476)",2015-11-05
Vacant/Abandoned Building,15-05976835,11/05/2015,Front,,Open,,Vacant,False,True,7508,S,HONORE,ST,60620.0,1165319.02246763,1854850.13227614,17.0,6.0,71.0,41.75730194409172,-87.66969723763597,"(41.75730194409173, -87.66969723763597)",2015-11-05
Vacant/Abandoned Building,15-05989925,11/06/2015,,,,,,,,2127,W,71ST,PL,60636.0,1163449.0299667,1857227.68997934,17.0,7.0,67.0,41.7638656818326,-87.67648397784329,"(41.7638656818326, -87.67648397784328)",2015-11-06
Vacant/Abandoned Building,15-05999494,11/06/2015,,,,,,,,3021,E,80TH,ST,60617.0,1197787.4100338002,1852506.27999537,7.0,4.0,46.0,41.75012132950898,-87.55078536108894,"(41.75012132950898, -87.55078536108893)",2015-11-06
Vacant/Abandoned Building,15-06101742,11/11/2015,Front,,Open,FRONT ENTRANCE,Vacant,False,False,4160,S,WENTWORTH,AVE,60609.0,1175623.08186621,1877306.96990735,3.0,9.0,37.0,41.818701509715424,-87.63126243420638,"(41.81870150971542, -87.63126243420638)",2015-11-11
Vacant/Abandoned Building,15-05947724,11/04/2015,Rear,,Open,,Vacant,False,True,7926,S,AVALON,AVE,60619.0,1185921.52120899,1852692.61000336,8.0,4.0,45.0,41.75092055963928,-87.59426068692514,"(41.750920559639276, -87.59426068692514)",2015-11-04
Vacant/Abandoned Building,15-05947731,11/04/2015,Rear,,Open,,Vacant,False,True,8055,S,AVALON,AVE,60619.0,1185944.32900363,1851832.26818911,8.0,4.0,45.0,41.7485591584434,-87.59420419203146,"(41.7485591584434, -87.59420419203147)",2015-11-04
Vacant/Abandoned Building,15-05956691,11/04/2015,Front,,Open,FRONT,Vacant,False,True,8128,S,ESCANABA,AVE,60617.0,1196909.06478094,1851632.45061968,7.0,4.0,46.0,41.747745353377276,-87.55403293644486,"(41.74774535337727, -87.55403293644486)",2015-11-04
Vacant/Abandoned Building,15-06404884,11/27/2015,Front,,Open,,Vacant,False,False,9143,S,URBAN,AVE,60619.0,1178206.34451797,1844282.41018182,9.0,6.0,49.0,41.72802033105543,-87.6227870846045,"(41.72802033105543, -87.62278708460448)",2015-11-27
Vacant/Abandoned Building,15-06458295,11/30/2015,Front,,Open,FRONT,Vacant,False,False,9141,S,URBAN,AVE,60619.0,1178211.24451797,1844292.81018182,9.0,6.0,49.0,41.72804875898266,-87.62276882062082,"(41.72804875898266, -87.62276882062083)",2015-11-30
Vacant/Abandoned Building,15-06303061,11/21/2015,Front,,Open,REAR,Vacant,False,True,7931,S,LANGLEY,AVE,60619.0,1182270.55942186,1852570.76318803,6.0,6.0,44.0,41.750671479961035,-87.60764321597624,"(41.75067147996104, -87.60764321597624)",2015-11-21
Vacant/Abandoned Building,15-06330072,11/23/2015,Front,,Boarded,,Vacant,True,False,4874,N,LINCOLN,AVE,60625.0,1159296.20921454,1932497.04528318,40.0,20.0,4.0,41.970498259436226,-87.68963643853937,"(41.97049825943623, -87.68963643853938)",2015-11-23
Vacant/Abandoned Building,15-06337829,11/24/2015,Front,,Open,FRONT AND BACK,Vacant,True,False,716,E,69TH,ST,60637.0,1182252.56992522,1859421.97457053,20.0,3.0,42.0,41.76947232450517,-87.60749730293352,"(41.76947232450517, -87.60749730293351)",2015-11-24
Vacant/Abandoned Building,15-06395368,11/27/2015,Front,,Open,FRONT DOOR,Vacant,False,True,2157,W,ADAMS,ST,60612.0,1161978.02003208,1899053.90003362,27.0,12.0,28.0,41.8786723507401,-87.68071116426191,"(41.8786723507401, -87.6807111642619)",2015-11-27
Vacant/Abandoned Building,15-06240815,11/18/2015,Rear,,Open,,Vacant,False,True,1242,N,LOCKWOOD,AVE,60651.0,1140795.40647215,1907863.87237715,37.0,25.0,25.0,41.90326365514289,-87.75827346828507,"(41.90326365514289, -87.75827346828507)",2015-11-18
Vacant/Abandoned Building,15-06242212,11/18/2015,Front,,Open,"REAR, AND THE GARAGE",Vacant,False,False,8455,S,DR MARTIN LUTHER KING JR,DR,60619.0,1180388.99292047,1849018.99559043,6.0,6.0,44.0,41.74096836724834,-87.61464681319515,"(41.74096836724834, -87.61464681319515)",2015-11-18
Vacant/Abandoned Building,15-06049818,11/09/2015,Rear,,Open,REAR,Vacant,False,True,6548,S,EMERALD,AVE,60621.0,1172363.00003004,1861374.40998302,20.0,7.0,68.0,41.775053342752535,-87.64369041286879,"(41.77505334275253, -87.64369041286878)",2015-11-09
Vacant/Abandoned Building,15-06133190,11/12/2015,Rear,,Boarded,REAR FENCE,Vacant,False,False,4519,S,LARAMIE,AVE,60638.0,1142454.50271794,1874184.53280517,22.0,8.0,56.0,41.81081229788568,-87.75301531835397,"(41.81081229788568, -87.75301531835399)",2015-11-12
Vacant/Abandoned Building,15-05895969,11/02/2015,,,,,,,,8057,S,STEWART,AVE,60620.0,1175025.01698759,1851505.9650231004,17.0,6.0,44.0,41.74791417216858,-87.63422587081058,"(41.74791417216858, -87.6342258708106)",2015-11-02
Vacant/Abandoned Building,15-06001642,11/06/2015,Front,,Open,DOORS AND WINDOWS - GARAGE,Vacant,False,True,5452,W,POTOMAC,AVE,60651.0,1139635.88357058,1908119.54472798,37.0,25.0,25.0,41.90398650085178,-87.76252645003412,"(41.90398650085178, -87.76252645003412)",2015-11-06
Vacant/Abandoned Building,15-06406889,11/28/2015,Front,,Open,FRONT,Vacant,False,True,6428,S,CHAMPLAIN,AVE,60637.0,1181672.35618384,1862530.70731379,20.0,3.0,42.0,41.778016406924635,-87.60952817699021,"(41.77801640692463, -87.6095281769902)",2015-11-28
Vacant/Abandoned Building,15-06433552,11/29/2015,Front,,Open,NOT BOARDED,Vacant,False,True,1121,W,37TH,ST,60609.0,1169372.11958118,1880272.11027238,11.0,9.0,60.0,41.826976016881744,-87.65410713245838,"(41.82697601688174, -87.65410713245838)",2015-11-29
Vacant/Abandoned Building,15-06289717,11/20/2015,Rear,,Open,REAR OPEN,Vacant,False,False,2952,N,LONG,AVE,60641.0,1139857.04931585,1919192.81000671,31.0,25.0,19.0,41.934368719608045,-87.76144279305119,"(41.934368719608045, -87.76144279305119)",2015-11-20
Vacant/Abandoned Building,15-06347436,11/24/2015,Rear,,Open,RATS IN THE BACKYARD  ALOT OF GARBAGE  CAUSING RATS AND GARBAGE IN THE FRONTYARD,Vacant,False,False,3516,S,PARNELL,AVE,60609.0,1173204.26591243,1881600.2766025001,11.0,9.0,60.0,41.83053662452825,-87.64000837243185,"(41.83053662452825, -87.64000837243184)",2015-11-24
Vacant/Abandoned Building,15-06145800,11/13/2015,Garage,,Boarded,,Occupied,False,False,5348,W,CORNELIA,AVE,60641.0,1140087.13290617,1922751.46582118,30.0,16.0,15.0,41.94412981252227,-87.7605098357066,"(41.94412981252227, -87.7605098357066)",2015-11-13
Vacant/Abandoned Building,15-06149989,11/13/2015,Front,,Boarded,CALLER CAN HEAR CATS INSIDE THE PROPERTY,Vacant,False,False,5146,W,PATTERSON,AVE,60641.0,1141403.78759246,1923781.62018289,30.0,16.0,15.0,41.94693240681757,-87.75564481598889,"(41.946932406817574, -87.75564481598889)",2015-11-13
Vacant/Abandoned Building,15-05880734,11/01/2015,Rear,,Open,,Vacant,False,False,2828,W,ADDISON,ST,60618.0,1156756.02987656,1923796.67252,33.0,17.0,16.0,41.94667590878424,-87.69921361417238,"(41.946675908784236, -87.69921361417238)",2015-11-01
Vacant/Abandoned Building,15-06405667,11/27/2015,Front,,Open,"OPEN IN FRONT AND BACK AND NO WINDOWS, SO OPEN THERE",Vacant,False,True,5940,S,STEWART,AVE,60621.0,1174534.71921622,1865537.66231574,20.0,7.0,68.0,41.7864296975127,-87.63560538060976,"(41.7864296975127, -87.63560538060977)",2015-11-27
Vacant/Abandoned Building,15-06467526,11/30/2015,Front,,Boarded,REAR,Vacant,False,True,4832,W,WABANSIA,AVE,60639.0,1143848.88568197,1910864.81090137,37.0,25.0,25.0,41.911441840101936,-87.7469819120733,"(41.911441840101936, -87.74698191207328)",2015-11-30
Vacant/Abandoned Building,15-06300440,11/21/2015,Front,,Open,FRONT IS OPEN,Vacant,False,True,548,E,61ST,ST,60637.0,1181036.73662361,1864688.93208238,20.0,3.0,42.0,41.78395343869828,-87.6117919651079,"(41.783953438698276, -87.6117919651079)",2015-11-21
Vacant/Abandoned Building,15-06376334,11/26/2015,Front,,Open,FRONT,Vacant,False,False,7644,S,VERNON,AVE,60619.0,1180568.18543234,1854424.67266902,6.0,6.0,69.0,41.75579804318289,-87.61382465147022,"(41.755798043182885, -87.61382465147022)",2015-11-26
Vacant/Abandoned Building,15-06242625,11/18/2015,Front,,Open,OPEN AT REAR GATE TO GANGWAY,Vacant,False,False,7553,S,RHODES,AVE,60619.0,1181212.62179493,1855049.05419199,6.0,6.0,69.0,41.757496598612725,-87.61144376355469,"(41.757496598612725, -87.61144376355468)",2015-11-18
Vacant/Abandoned Building,15-06262115,11/19/2015,Rear,,Boarded,,Vacant,False,True,1723,W,GREENLEAF,AVE,60626.0,1163626.6800252,1947004.59630524,49.0,24.0,1.0,42.010217037111104,-87.67330188318344,"(42.010217037111104, -87.67330188318343)",2015-11-19
Vacant/Abandoned Building,15-06283563,11/20/2015,Front,,Open,SQUATTORS HAVE KICKED OPEN THE FRONT AND REAR DOORS. AND GARAGE..,Vacant,False,True,5936,S,PRAIRIE,AVE,60637.0,1179054.91057435,1865712.99810397,20.0,2.0,40.0,41.786808982402064,-87.61902682078545,"(41.78680898240206, -87.61902682078546)",2015-11-20
Vacant/Abandoned Building,15-05993524,11/06/2015,Rear,,Open,,Vacant,False,True,6321,S,RHODES,AVE,60637.0,1180988.48657293,1863218.04880449,20.0,3.0,42.0,41.77991830624783,-87.61201410431734,"(41.77991830624783, -87.61201410431734)",2015-11-06
Vacant/Abandoned Building,15-06051879,11/09/2015,Front,,Boarded,,Vacant,False,False,5840,S,PRAIRIE,AVE,60637.0,1179038.11890463,1866350.91927314,20.0,2.0,40.0,41.788559882425496,-87.61906895651484,"(41.7885598824255, -87.61906895651485)",2015-11-09
Vacant/Abandoned Building,15-06096902,11/11/2015,Front,,Open,DOORS OPEN,Vacant,True,True,6452,S,EBERHART,AVE,60637.0,1180686.75352743,1862338.2968753998,20.0,3.0,42.0,41.77751112158627,-87.61314730146881,"(41.77751112158627, -87.61314730146881)",2015-11-11
Vacant/Abandoned Building,15-06099869,11/11/2015,Front,,Open,"FRONT/REAR DOORS, WINDOWS",Vacant,False,True,5726,S,PRINCETON,AVE,60621.0,1175264.93312672,1866970.28700674,20.0,7.0,68.0,41.79034467711236,-87.63288526183489,"(41.79034467711236, -87.63288526183489)",2015-11-11
Vacant/Abandoned Building,15-06120377,11/12/2015,Front,,Open,FRONT AND SIDE DOORS,Vacant,False,True,828,N,KEYSTONE,AVE,60651.0,1149237.82008181,1905226.04571559,37.0,11.0,23.0,41.895865701593976,-87.72733085888163,"(41.895865701593976, -87.72733085888163)",2015-11-12
Vacant/Abandoned Building,15-06142099,11/13/2015,Rear,,Open,,Vacant,False,True,6521,S,ELLIS,AVE,60637.0,1184010.54001732,1861977.71220416,20.0,3.0,42.0,41.776444613424175,-87.60097368214973,"(41.776444613424175, -87.60097368214973)",2015-11-13
Vacant/Abandoned Building,15-06194984,11/16/2015,Front,,Open,OPEN IN THE REAR OF BLDG.,Vacant,False,True,6507,S,EVANS,AVE,60637.0,1182337.55973035,1862030.80580155,20.0,3.0,42.0,41.77662923996762,-87.60710502140871,"(41.77662923996762, -87.6071050214087)",2015-11-16
Vacant/Abandoned Building,15-06195227,11/16/2015,Rear,,Open,IN THE REAR,Vacant,False,True,6507,S,LANGLEY,AVE,60637.0,1182011.16162111,1862019.75891504,20.0,3.0,42.0,41.776606483893,-87.6083019106628,"(41.776606483893, -87.60830191066279)",2015-11-16
Vacant/Abandoned Building,15-06195935,11/16/2015,Front,,Open,REAR DR,Vacant,False,True,1022,N,LAWLER,AVE,60651.0,1142506.80909889,1906332.08188192,37.0,15.0,25.0,41.89902859355318,-87.75202517378429,"(41.89902859355318, -87.75202517378429)",2015-11-16
Vacant/Abandoned Building,15-06196918,11/16/2015,Front,,Open,SIDE AS WELL AS WINDOWS ARE MISSING,Vacant,False,True,7941,S,UNION,AVE,60620.0,1173012.14701552,1852222.13957817,17.0,6.0,71.0,41.74992408918182,-87.64158054464393,"(41.74992408918181, -87.64158054464394)",2015-11-16
Vacant/Abandoned Building,15-06396084,11/27/2015,Front,,Open,FRONT AND REAR,Vacant,True,False,10710,S,EDBROOKE,AVE,60628.0,1179144.99965,1833931.9009999998,9.0,5.0,49.0,41.699595852372035,-87.61966291133413,"(41.69959585237203, -87.61966291133413)",2015-11-27
Vacant/Abandoned Building,15-06414161,11/28/2015,Front,,Boarded,,Vacant,True,True,10632,S,INDIANA,AVE,60628.0,1179465.02141747,1834474.18998197,9.0,5.0,49.0,41.70107668519312,-87.61847465571219,"(41.701076685193115, -87.61847465571218)",2015-11-28
Vacant/Abandoned Building,15-06282716,11/20/2015,Front,,Open,,Vacant,False,True,12041,S,PERRY,AVE,60628.0,1177765.89980536,1824946.84481063,9.0,5.0,53.0,41.67497077680592,-87.62498307250964,"(41.67497077680592, -87.62498307250964)",2015-11-20
Vacant/Abandoned Building,15-06285920,11/20/2015,Front,,Open,FRONT AND REAR,Occupied,False,True,10907,S,STATE,ST,60628.0,1178189.06678259,1832621.92811245,9.0,5.0,49.0,41.69602278449072,-87.62320265338327,"(41.69602278449072, -87.62320265338326)",2015-11-20
Vacant/Abandoned Building,15-05875615,11/01/2015,Front,,Open,"FRONT/REAR DOORS, WINDOWS",Vacant,False,True,142,E,124TH,ST,60628.0,1179496.39503215,1822774.43380891,9.0,5.0,53.0,41.66897013915442,-87.61871513830134,"(41.66897013915442, -87.61871513830133)",2015-11-01
Vacant/Abandoned Building,15-05889389,11/02/2015,Front,,Boarded,FRONT AND REAR WINDOWS,Vacant,False,True,10738,S,EDBROOKE,AVE,60628.0,1179147.89965,1833743.301,9.0,5.0,49.0,41.699078241784704,-87.61965801518467,"(41.6990782417847, -87.61965801518467)",2015-11-02
Vacant/Abandoned Building,15-05915293,11/03/2015,Rear,,Open,,Vacant,False,True,123,E,111TH,ST,60628.0,1179033.90012826,1831389.19693425,9.0,5.0,49.0,41.69262083955754,-87.62014679820959,"(41.69262083955754, -87.6201467982096)",2015-11-03
Vacant/Abandoned Building,15-06428246,11/29/2015,Rear,,Open,REAR APARTMENTS,Vacant,False,True,2425,W,POLK,ST,60612.0,1160346.39360426,1896301.85007655,28.0,11.0,28.0,41.871154358748726,-87.68677829031088,"(41.871154358748726, -87.68677829031088)",2015-11-29
Vacant/Abandoned Building,15-06249791,11/18/2015,Front,,Open,ALL DOORS AND WINDOWS,Vacant,False,False,549,N,CICERO,AVE,60644.0,1144261.45206557,1903312.08640693,28.0,11.0,25.0,41.89070857566827,-87.74565633038472,"(41.89070857566827, -87.74565633038472)",2015-11-18
Vacant/Abandoned Building,15-06312718,11/22/2015,Front,,Open,REAR DOOR,Vacant,False,True,4236,W,HADDON,AVE,60651.0,1147926.7971811001,1907330.35988145,37.0,11.0,23.0,41.901665471110675,-87.7320918427675,"(41.901665471110675, -87.7320918427675)",2015-11-22
Vacant/Abandoned Building,15-06202358,11/16/2015,Front,,Open,WINDOWS AND NORTH SIDE OF THE BUILDING OPEN,Vacant,False,False,600,N,CICERO,AVE,60644.0,1144253.51776748,1903557.2764327,28.0,15.0,25.0,41.891381554643566,-87.74567930233684,"(41.89138155464356, -87.74567930233685)",2015-11-16
Vacant/Abandoned Building,15-06288717,11/20/2015,,,,,,,,5329,S,LAFLIN,ST,60609.0,1167241.74820943,1869395.22629011,20.0,9.0,61.0,41.79717460659155,-87.66223472598055,"(41.79717460659155, -87.66223472598054)",2015-11-20
Vacant/Abandoned Building,15-06316189,11/22/2015,Front,,Open,FRONT,Vacant,False,False,6021,S,DR MARTIN LUTHER KING JR,DR,60637.0,1179953.14067465,1865175.71642542,20.0,3.0,42.0,41.78531410540333,-87.61574989922859,"(41.78531410540333, -87.6157498992286)",2015-11-22
Vacant/Abandoned Building,15-06341974,11/24/2015,Front,,Open,,Vacant,True,False,748,W,53RD,ST,60609.0,1172122.9647203998,1869720.02751986,20.0,9.0,61.0,41.7979599302504,-87.64432517955215,"(41.7979599302504, -87.64432517955215)",2015-11-24
Vacant/Abandoned Building,15-06361823,11/25/2015,Rear,,Boarded,,Vacant,False,False,6221,S,MICHIGAN,AVE,60637.0,1178252.50287509,1863782.02042204,20.0,3.0,40.0,41.78152844224351,-87.62202742296151,"(41.78152844224351, -87.6220274229615)",2015-11-25
Vacant/Abandoned Building,15-06381524,11/26/2015,Front,,Open,SIDE WINDOW,Vacant,False,True,5410,S,CARPENTER,ST,60609.0,1170232.35718816,1868938.66777639,20.0,9.0,61.0,41.79585716757155,-87.65128108097986,"(41.79585716757155, -87.65128108097986)",2015-11-26
Vacant/Abandoned Building,15-06221719,11/17/2015,Front,,Open,FRONT,Vacant,False,True,5016,S,MAY,ST,60609.0,1169502.0399671998,1871533.60192869,20.0,9.0,61.0,41.802993824820064,-87.65388397139309,"(41.802993824820064, -87.65388397139309)",2015-11-17
Vacant/Abandoned Building,15-06221900,11/17/2015,Front,,Open,FRONT DOOR IS OPEN,Vacant,False,False,5118,S,ABERDEEN,ST,60609.0,1169851.73509625,1870864.77719675,20.0,9.0,61.0,41.8011509039382,-87.65262090664177,"(41.8011509039382, -87.65262090664177)",2015-11-17
Vacant/Abandoned Building,15-06231788,11/17/2015,Front,,Open,FRONT DOOR AND ALSO IN THE BACK,Vacant,False,False,5154,S,MAY,ST,60609.0,1169526.06858667,1870632.2646025002,20.0,9.0,61.0,41.8005199347865,-87.65382198015206,"(41.8005199347865, -87.65382198015207)",2015-11-17
Vacant/Abandoned Building,15-06240157,11/18/2015,Front,,Open,,Vacant,False,False,5210,S,SANGAMON,ST,60609.0,1170861.91007381,1870282.11612206,20.0,9.0,61.0,41.79953000651476,-87.64893325953095,"(41.79953000651476, -87.64893325953096)",2015-11-18
Vacant/Abandoned Building,15-06240946,11/18/2015,Rear,,Open,,Vacant,True,True,5220,S,LAFLIN,ST,60609.0,1167221.2023851,1870119.06812813,20.0,9.0,61.0,41.799161353068506,-87.66228934852552,"(41.799161353068506, -87.66228934852552)",2015-11-18
Vacant/Abandoned Building,15-05870854,11/01/2015,Front,,Boarded,REAR,Vacant,False,True,920,W,50TH,PL,60609.0,1171029.57862762,1871349.28411358,20.0,9.0,61.0,41.80245476490629,-87.6482871862425,"(41.802454764906294, -87.6482871862425)",2015-11-01
Vacant/Abandoned Building,15-06455623,11/30/2015,Front,,Boarded,,Vacant,False,False,3716,W,DOUGLAS,BLVD,60623.0,1151779.95418733,1893036.02518656,24.0,10.0,29.0,41.862365319517345,-87.71831491256702,"(41.86236531951734, -87.71831491256702)",2015-11-30
Vacant/Abandoned Building,15-06180933,11/15/2015,Front,,Open,,Vacant,False,False,3850,W,FLOURNOY,ST,60624.0,1151203.65999254,1896762.49010655,24.0,11.0,26.0,41.872602475195215,-87.72033274400879,"(41.872602475195215, -87.72033274400879)",2015-11-15
Vacant/Abandoned Building,15-06202679,11/16/2015,Front,,Open,WINDOWS AND DOORS,Vacant,False,False,3854,W,LEXINGTON,ST,60624.0,1150825.68988801,1896421.17422156,24.0,11.0,26.0,41.87167326459625,-87.72172938210487,"(41.87167326459625, -87.72172938210488)",2015-11-16
Vacant/Abandoned Building,15-06245572,11/18/2015,Front,,Open,RIGHT SIDE DOOR IS KICKED IN,Vacant,False,False,5533,S,GREEN,ST,60621.0,1171582.7100203,1868066.72031907,20.0,7.0,68.0,41.79343494163693,-87.64635483207995,"(41.793434941636924, -87.64635483207995)",2015-11-18
Vacant/Abandoned Building,15-06291665,11/20/2015,Front,,Open,REAR & FRONT,Vacant,False,True,4028,W,ARTHINGTON,ST,60624.0,1149664.66061617,1895809.38999911,24.0,11.0,26.0,41.87001707937287,-87.7260079093308,"(41.870017079372865, -87.72600790933082)",2015-11-20
Vacant/Abandoned Building,15-06326672,11/23/2015,,,,,,,,3307,W,ARTHINGTON,ST,60624.0,1154463.96040888,1895848.94359179,24.0,11.0,29.0,41.87003108995465,-87.70838706069642,"(41.87003108995465, -87.70838706069642)",2015-11-23
Vacant/Abandoned Building,15-06096046,11/11/2015,Front,,Open,,Vacant,False,False,1908,S,SAWYER,AVE,60623.0,1154997.54558733,1890470.3607721,24.0,10.0,29.0,41.855260992308274,-87.70657225579973,"(41.85526099230827, -87.70657225579973)",2015-11-11
Vacant/Abandoned Building,15-06357403,11/25/2015,Rear,,Open,,Vacant,False,False,428,E,46TH,ST,60653.0,1179899.58388075,1874613.28372058,3.0,2.0,38.0,41.81121286044523,-87.61565736771531,"(41.81121286044523, -87.61565736771533)",2015-11-25
Vacant/Abandoned Building,15-06381235,11/26/2015,Rear,,Open,BACK DOOR(KIDS HANG INSIDE),Vacant,False,True,2923,E,96TH,ST,60617.0,1197304.46950787,1841859.64768604,10.0,4.0,51.0,41.72091815912305,-87.55290879800356,"(41.720918159123045, -87.55290879800356)",2015-11-26
Vacant/Abandoned Building,15-06382185,11/26/2015,Garage,,Open,REAR,Vacant,False,True,9612,S,DR MARTIN LUTHER KING JR,DR,60628.0,1180604.33712377,1841326.74978819,9.0,5.0,49.0,41.719854977339935,-87.61409332063324,"(41.719854977339935, -87.61409332063323)",2015-11-26
Vacant/Abandoned Building,15-06200145,11/16/2015,,,,,,,,5014,S,HERMITAGE,AVE,60609.0,1165526.62297286,1871450.2336255,20.0,9.0,61.0,41.80285036271012,-87.66846602615938,"(41.80285036271012, -87.66846602615938)",2015-11-16
Vacant/Abandoned Building,15-06219665,11/17/2015,Front,,Open,,Vacant,False,False,13248,S,BURLEY,AVE,60633.0,1199760.54272191,1817720.17813377,10.0,4.0,55.0,41.65461565644276,-87.54472235074785,"(41.65461565644276, -87.54472235074785)",2015-11-17
Vacant/Abandoned Building,15-05923085,11/03/2015,Rear,,Open,,Vacant,False,False,1013,W,47TH,PL,60609.0,1170360.34498049,1873319.51993109,20.0,9.0,61.0,41.807875912340506,-87.65068415671604,"(41.807875912340506, -87.65068415671605)",2015-11-03
Vacant/Abandoned Building,15-05923575,11/03/2015,Front,,Open,,Vacant,False,False,1006,W,48TH,ST,60609.0,1170415.79737768,1872989.97991701,20.0,9.0,61.0,41.80697041097185,-87.65049037535084,"(41.80697041097185, -87.65049037535084)",2015-11-03
Vacant/Abandoned Building,15-05930834,11/03/2015,Front,,Open,,Vacant,True,False,4800,S,MORGAN,ST,60609.0,1170455.99737768,1872990.97991701,20.0,9.0,61.0,41.80697227853473,-87.65034290555313,"(41.80697227853473, -87.65034290555313)",2015-11-03
Vacant/Abandoned Building,15-05949081,11/04/2015,Front,,Boarded,,Vacant,True,True,9701,S,YATES,AVE,60617.0,1194102.86472176,1841107.36011726,10.0,4.0,51.0,41.718932855820654,-87.56465994441727,"(41.71893285582066, -87.56465994441726)",2015-11-04
Vacant/Abandoned Building,15-06098933,11/11/2015,Rear,,Open,,Vacant,False,True,13248,S,CARONDOLET,AVE,60633.0,1198437.19318741,1817712.36609255,10.0,4.0,55.0,41.65462733964347,-87.54956466470959,"(41.65462733964347, -87.5495646647096)",2015-11-11
Vacant/Abandoned Building,15-06360318,11/25/2015,Front,,Open,FRONT,Vacant,False,False,7245,S,PRINCETON,AVE,60621.0,1175547.86280744,1856915.65201478,6.0,7.0,69.0,41.76274732788111,-87.63214844506054,"(41.76274732788111, -87.63214844506054)",2015-11-25
Vacant/Abandoned Building,15-06174852,11/15/2015,Front,,Open,WINDOW IS OPEN,Vacant,False,False,3451,N,LAVERGNE,AVE,60641.0,1142422.01999327,1922575.62648082,31.0,16.0,15.0,41.943604154976136,-87.75193210468153,"(41.94360415497613, -87.75193210468153)",2015-11-15
Vacant/Abandoned Building,15-06287101,11/20/2015,Front,,Open,ALL OVER,Vacant,True,False,4818,W,OHIO,ST,60644.0,1144075.816475,1903553.888275,37.0,15.0,25.0,41.891375594950745,-87.74633200803737,"(41.89137559495074, -87.74633200803737)",2015-11-20
Vacant/Abandoned Building,15-05977814,11/05/2015,Front,,Open,,Vacant,False,False,4923,W,RICE,ST,60651.0,1143379.36321725,1905207.79376674,37.0,15.0,25.0,41.89592714979785,-87.74884840542713,"(41.895927149797856, -87.74884840542714)",2015-11-05
Vacant/Abandoned Building,15-06453555,11/30/2015,Front,,Open,DOORS,Vacant,False,False,1199,S,FRANCISCO,AVE,60612.0,1157208.09001638,1894575.5596856999,28.0,11.0,29.0,41.86648152966386,-87.69834707024657,"(41.86648152966386, -87.69834707024657)",2015-11-30
Vacant/Abandoned Building,15-06461865,11/30/2015,Front,,Open,FRONT,Vacant,False,True,10921,S,BUFFALO,AVE,60617.0,1199875.81820683,1833145.66172849,10.0,4.0,52.0,41.69694187499726,-87.54378338266864,"(41.69694187499726, -87.54378338266862)",2015-11-30
Vacant/Abandoned Building,15-06241155,11/18/2015,,,,,,,,3860,W,WASHINGTON,BLVD,60624.0,1150639.88029982,1900139.36859488,28.0,11.0,26.0,41.88188003393898,-87.72231438609062,"(41.88188003393898, -87.72231438609063)",2015-11-18
Vacant/Abandoned Building,15-06253820,11/18/2015,Front,,Open,"FRONT DOOR OPEN, LIGHTS ON",Vacant,False,False,8457,S,INDIANA,AVE,60619.0,1179067.18470028,1848966.93189808,6.0,6.0,44.0,41.740855688442885,-87.61949136150314,"(41.74085568844288, -87.61949136150314)",2015-11-18
Vacant/Abandoned Building,15-06263679,11/19/2015,Rear,,Open,REAR,Vacant,False,True,3229,W,MAYPOLE,AVE,60624.0,1154817.99012187,1900792.69107232,28.0,11.0,27.0,41.8835901626686,-87.70695484444221,"(41.88359016266859, -87.70695484444222)",2015-11-19
Vacant/Abandoned Building,15-06368484,11/25/2015,Front,,Open,REAR WINDOW,Vacant,False,False,8041,S,WABASH,AVE,60619.0,1178106.18609578,1851707.0837658,6.0,6.0,44.0,41.748396813411176,-87.62292947126885,"(41.74839681341117, -87.62292947126885)",2015-11-25
Vacant/Abandoned Building,15-06014395,11/07/2015,Rear,,Open,REAR,Vacant,False,False,4108,W,MAYPOLE,AVE,60624.0,1148966.43199819,1901136.0980071998,28.0,11.0,26.0,41.88464770040978,-87.7284335131945,"(41.884647700409786, -87.7284335131945)",2015-11-07
Vacant/Abandoned Building,15-06123324,11/12/2015,Front,,Open,,Vacant,False,True,10548,S,AVENUE M,,60617.0,1201513.46172168,1835618.54569175,10.0,4.0,52.0,41.70368633171114,-87.53770378833806,"(41.70368633171114, -87.53770378833806)",2015-11-12
Vacant/Abandoned Building,15-06132150,11/12/2015,Front,,Boarded,REAR WINDOW,Vacant,False,False,3838,W,JACKSON,BLVD,60624.0,1150852.17779267,1898412.88021865,28.0,11.0,26.0,41.8771382106566,-87.72158001646353,"(41.87713821065659, -87.72158001646353)",2015-11-12
Vacant/Abandoned Building,15-06159349,11/14/2015,Front,,Open,,Vacant,False,True,3923,W,VAN BUREN,ST,60624.0,1150304.80339953,1897735.71541221,28.0,11.0,26.0,41.8752906830982,-87.7236074956262,"(41.8752906830982, -87.72360749562621)",2015-11-14
Vacant/Abandoned Building,15-06199306,11/16/2015,Front,,Open,DOORS/ WINDOWS,Vacant,False,False,4030,W,ADAMS,ST,60624.0,1149559.05087361,1898706.93651822,28.0,11.0,26.0,41.87797032839751,-87.72632040753031,"(41.87797032839751, -87.72632040753031)",2015-11-16
Vacant/Abandoned Building,15-06201017,11/16/2015,Front,,Open,FRONT-DOG OBSERVED IN WINDOW,Vacant,False,True,4507,W,MAYPOLE,AVE,60624.0,1146269.73047249,1901075.80837764,28.0,11.0,26.0,41.884533993201984,-87.73833781652817,"(41.884533993201984, -87.73833781652817)",2015-11-16
Vacant/Abandoned Building,15-05898548,11/02/2015,Front,,Open,,Vacant,False,True,4831,W,WASHINGTON,BLVD,60644.0,1144162.22927425,1900067.24028359,28.0,15.0,25.0,41.8818061978435,-87.74610227718878,"(41.8818061978435, -87.74610227718878)",2015-11-02
Vacant/Abandoned Building,15-06283505,11/20/2015,Rear,,Boarded,,Vacant,False,True,7131,S,RACINE,AVE,60636.0,1169557.32558311,1857376.88987497,6.0,7.0,68.0,41.764144926278455,-87.65409135325653,"(41.76414492627845, -87.65409135325653)",2015-11-20
Vacant/Abandoned Building,15-06327082,11/23/2015,Front,,Open,DOORS/ WINDOWS.,Vacant,False,True,6950,S,NORMAL,BLVD,60621.0,1174139.15500257,1859166.39721955,6.0,7.0,68.0,41.76895503245161,-87.63724480709926,"(41.76895503245161, -87.63724480709926)",2015-11-23
Vacant/Abandoned Building,15-06396154,11/27/2015,Front,,Open,FRONT CENTER WINDOW,Vacant,False,False,11310,S,WENTWORTH,AVE,60628.0,1176958.42929974,1829899.9252827999,34.0,5.0,49.0,41.68858096219915,-87.62779007886104,"(41.688580962199154, -87.62779007886104)",2015-11-27
Vacant/Abandoned Building,15-06461093,11/30/2015,Front,,Open,SIDE DOOR,Vacant,False,True,11701,S,PEORIA,ST,60643.0,1172423.96528442,1827245.22992196,34.0,5.0,53.0,41.68139676661589,-87.644468180507,"(41.68139676661589, -87.64446818050702)",2015-11-30
Vacant/Abandoned Building,15-06118111,11/12/2015,Front,,Open,"FRONT/REAR DOORS, WINDOWS MISSING",Vacant,False,False,12045,S,UNION,AVE,60628.0,1173822.02492368,1825000.02111597,34.0,5.0,53.0,41.6752047637334,-87.6394167297421,"(41.6752047637334, -87.6394167297421)",2015-11-12
Vacant/Abandoned Building,15-06235047,11/17/2015,Front,,Open,FRONT ENTRANCE AND REAR EXIT SEVERAL BOARDS LAYING IN THE GRASS,Vacant,False,True,121,E,71ST,ST,60619.0,1178484.52741408,1857974.3824261,6.0,3.0,69.0,41.7655864063759,-87.62135304449947,"(41.7655864063759, -87.62135304449947)",2015-11-17
Vacant/Abandoned Building,15-06250031,11/18/2015,,,,,,,,7058,W,64TH,ST,60638.0,1130451.34717687,1861278.73617804,23.0,8.0,64.0,41.77561036241471,-87.79733791188303,"(41.77561036241471, -87.79733791188303)",2015-11-18
Vacant/Abandoned Building,15-05949649,11/04/2015,Front,,Open,"FRONT/REAR/SIDE DOORS, WINDOWS",Vacant,False,True,3900,W,69TH,ST,60629.0,1151557.35419964,1858562.99743412,13.0,8.0,65.0,41.76777090417177,-87.72003521526459,"(41.767770904171776, -87.72003521526459)",2015-11-04
Vacant/Abandoned Building,15-06078545,11/10/2015,Garage,,Open,,Vacant,False,False,3546,W,81ST,PL,60652.0,1154194.95568989,1850315.5767215,18.0,8.0,70.0,41.745086623728106,-87.71058594350737,"(41.74508662372811, -87.71058594350737)",2015-11-10
Vacant/Abandoned Building,15-06287466,11/20/2015,Front,,Open,"FRONT/REAR DOORS, WINDOWS",Vacant,False,True,11314,S,GREEN,ST,60643.0,1172675.6402228998,1829819.81973181,34.0,22.0,75.0,41.688456327500646,-87.64347144900013,"(41.688456327500646, -87.64347144900012)",2015-11-20
Vacant/Abandoned Building,15-06456606,11/30/2015,Front,,Open,,Vacant,False,True,5750,S,ADA,ST,60636.0,1168300.18929212,1866961.77598027,16.0,7.0,67.0,41.79047419495853,-87.65842334737678,"(41.79047419495852, -87.65842334737678)",2015-11-30
Vacant/Abandoned Building,15-05966944,11/05/2015,Front,,Open,ALL OVER,Vacant,False,True,12600,S,STATE,ST,60628.0,1178575.17922816,1821123.15997292,9.0,5.0,53.0,41.66445969922908,-87.62213648674656,"(41.66445969922908, -87.62213648674656)",2015-11-05
Vacant/Abandoned Building,15-06120410,11/12/2015,Front,,Open,,Vacant,False,False,208,W,113TH,ST,60628.0,1176869.82929974,1830012.0252828,34.0,5.0,49.0,41.68889057218547,-87.62811107744034,"(41.68889057218547, -87.62811107744035)",2015-11-12
Vacant/Abandoned Building,15-05875632,11/01/2015,Front,,Open,"FRONT/REAR DOORS, WINDOWS",Vacant,False,True,130,E,124TH,ST,60628.0,1179398.59503215,1822771.33380891,9.0,5.0,53.0,41.66896385723011,-87.6190731617605,"(41.66896385723011, -87.6190731617605)",2015-11-01
Vacant/Abandoned Building,15-06159974,11/14/2015,Rear,,Boarded,,Vacant,False,True,11104,S,EMERALD,AVE,60628.0,1173294.86829621,1831223.46092723,34.0,22.0,49.0,41.692294507727055,-87.64116320659087,"(41.692294507727055, -87.64116320659089)",2015-11-14
Vacant/Abandoned Building,15-06327617,11/23/2015,Front,,Boarded,,Vacant,False,False,1259,N,SPRINGFIELD,AVE,60651.0,1150150.98530236,1908132.95987584,26.0,25.0,23.0,41.90382481910965,-87.72390113025145,"(41.90382481910966, -87.72390113025143)",2015-11-23
Vacant/Abandoned Building,15-05995744,11/06/2015,Front,,Open,REAR  AND FRONT DOOR..,Vacant,False,False,2750,W,MAYPOLE,AVE,60612.0,1158337.5656827,1900847.51677688,27.0,12.0,27.0,41.8836693885519,-87.69402914181588,"(41.8836693885519, -87.69402914181588)",2015-11-06
Vacant/Abandoned Building,15-06418964,11/28/2015,Front,,Open,FRONT DOOR,Vacant,False,False,1341,W,110TH,PL,60643.0,1169355.59367371,1831488.29607543,34.0,22.0,75.0,41.693107218366855,-87.65557788143319,"(41.693107218366855, -87.65557788143319)",2015-11-28
Vacant/Abandoned Building,15-06451565,11/30/2015,Garage,,Open,GARAGE PLYWOOD SIDE DOOR IS RIPPED OUT,Vacant,False,True,4301,S,CHRISTIANA,AVE,60632.0,1154731.50010954,1875934.98650924,14.0,8.0,58.0,41.81537945667388,-87.70793720553962,"(41.81537945667388, -87.70793720553962)",2015-11-30
Vacant/Abandoned Building,15-05918038,11/03/2015,Front,,Open,REAR DOOR IS WIDE OPEN AND THE WINDOWS AND DOORS ARE NOT SECURED,Vacant,False,True,4301,S,CHRISTIANA,AVE,60632.0,1154731.50010954,1875934.98650924,14.0,8.0,58.0,41.81537945667388,-87.70793720553962,"(41.81537945667388, -87.70793720553962)",2015-11-03
Vacant/Abandoned Building,15-06244512,11/18/2015,Rear,,Open,,Vacant,False,True,1344,N,WESTERN,AVE,60622.0,1160164.91796836,1908872.46571021,26.0,14.0,24.0,41.90565297113947,-87.6870969852371,"(41.90565297113947, -87.6870969852371)",2015-11-18
Vacant/Abandoned Building,15-05893987,11/02/2015,,,,,,,,2735,W,WARREN,BLVD,60612.0,1158138.28009569,1900240.61360414,27.0,12.0,27.0,41.882008060897476,-87.6947775196603,"(41.882008060897476, -87.69477751966029)",2015-11-02
Vacant/Abandoned Building,15-06396051,11/27/2015,Front,,Open,"REAR, SIDE BASEMENT DOOR",Vacant,False,False,106,W,113TH,PL,60628.0,1177499.92227733,1829696.48798406,34.0,5.0,49.0,41.688010512803004,-87.62581382941073,"(41.688010512803, -87.62581382941072)",2015-11-27
Vacant/Abandoned Building,15-06203825,11/16/2015,Front,,Open,WINDOWS AND DOORS,Vacant,False,False,5608,S,GREEN,ST,60621.0,1171595.38362372,1867661.10581927,20.0,7.0,68.0,41.7923216129249,-87.6463202452438,"(41.792321612924894, -87.6463202452438)",2015-11-16
Vacant/Abandoned Building,15-06396210,11/27/2015,,,,,,,,4705,W,PALMER,ST,60639.0,1144640.55637915,1914212.43840072,36.0,25.0,19.0,41.92061318731104,-87.7439890259878,"(41.92061318731104, -87.74398902598779)",2015-11-27
Vacant/Abandoned Building,15-06396211,11/27/2015,,,,,,,,4707,W,PALMER,ST,60639.0,1144617.65637915,1914211.93840072,36.0,25.0,19.0,41.92061224708587,-87.74407317882309,"(41.92061224708587, -87.7440731788231)",2015-11-27
Vacant/Abandoned Building,15-06396214,11/27/2015,,,,,,,,2158,N,KILPATRICK,AVE,60639.0,1144701.58682506,1914016.34130904,36.0,25.0,19.0,41.92007392594198,-87.74376973856741,"(41.92007392594198, -87.7437697385674)",2015-11-27
Vacant/Abandoned Building,15-06117659,11/12/2015,Rear,,Open,ALL OVER,Vacant,False,False,1665,N,MILWAUKEE,AVE,60647.0,1162244.69282537,1911065.49331212,2.0,14.0,24.0,41.911627550255886,-87.67939584183391,"(41.91162755025588, -87.6793958418339)",2015-11-12
Vacant/Abandoned Building,15-06144473,11/13/2015,Garage,,Boarded,,Vacant,False,True,11612,S,VINCENNES,AVE,60643.0,1165836.14112174,1827855.64431277,34.0,22.0,75.0,41.68321386452225,-87.66856598153494,"(41.68321386452225, -87.66856598153493)",2015-11-13
Vacant/Abandoned Building,15-06150687,11/13/2015,Front,,Open,VARIOUS,Vacant,False,False,1340,W,108TH,PL,60643.0,1169328.26377456,1832814.8781160999,34.0,22.0,75.0,41.69674816478164,-87.6556397281995,"(41.69674816478164, -87.6556397281995)",2015-11-13
Vacant/Abandoned Building,15-06226162,11/17/2015,,,,,,,,11616,S,CHURCH,ST,60643.0,1165368.94178145,1827601.11291365,34.0,22.0,75.0,41.682525265370934,-87.67028340853655,"(41.68252526537093, -87.67028340853655)",2015-11-17
Vacant/Abandoned Building,15-06281813,11/20/2015,Front,,Open,FRONT,Vacant,False,False,2247,W,71ST,ST,60636.0,1162532.98610429,1857540.32192525,18.0,8.0,66.0,41.764742734894476,-87.67983279604421,"(41.76474273489448, -87.67983279604422)",2015-11-20
Vacant/Abandoned Building,15-05879089,11/01/2015,Front,,Open,"BOARDS REMOVED, FRONT, PORCH IS BROKEN DOWN,",Vacant,False,True,7028,S,LAFLIN,ST,60636.0,1167549.72353265,1858128.20097617,17.0,7.0,67.0,41.76624989060712,-87.6614281956196,"(41.76624989060712, -87.6614281956196)",2015-11-01
Vacant/Abandoned Building,15-06055636,11/09/2015,Front,,Open,FRONT,Vacant,False,False,2014,W,35TH,ST,60609.0,1163441.59599846,1881467.86319069,12.0,9.0,59.0,41.83038389652086,-87.6758316638901,"(41.83038389652086, -87.6758316638901)",2015-11-09
Vacant/Abandoned Building,15-06147162,11/13/2015,Front,,Boarded,,Vacant,False,False,8057,S,STEWART,AVE,60620.0,1175025.01698759,1851505.9650231004,17.0,6.0,44.0,41.74791417216858,-87.63422587081058,"(41.74791417216858, -87.6342258708106)",2015-11-13
Vacant/Abandoned Building,15-06189162,11/16/2015,Front,,Open,,Vacant,False,False,8024,S,WESTERN,AVE,60620.0,1161773.62036848,1851284.1799996002,18.0,8.0,70.0,41.74759075370235,-87.68278949143311,"(41.74759075370235, -87.68278949143311)",2015-11-16
Vacant/Abandoned Building,15-06160671,11/14/2015,Front,,Open,,Vacant,False,False,7131,S,WESTERN,AVE,60636.0,1161608.73430686,1857310.20749493,18.0,8.0,66.0,41.764130486862456,-87.68322682691219,"(41.764130486862456, -87.68322682691219)",2015-11-14
Vacant/Abandoned Building,15-05976583,11/05/2015,Front,,Open,SIDE DOOR WINDOW,Vacant,False,True,3800,W,80TH,ST,60652.0,1152445.99239105,1851272.64556997,18.0,8.0,70.0,41.747747539289705,-87.71696937662911,"(41.747747539289705, -87.71696937662911)",2015-11-05
Vacant/Abandoned Building,15-05926295,11/03/2015,Rear,,Boarded,,Vacant,False,False,2868,W,85TH,ST,60652.0,1158609.21842735,1848232.64999457,18.0,8.0,70.0,41.73928193316372,-87.6944679088123,"(41.73928193316372, -87.6944679088123)",2015-11-03
Vacant/Abandoned Building,15-06030071,11/08/2015,Front,,Open,FRONT AND REAR,Vacant,False,True,3446,W,84TH,ST,60652.0,1154872.64201653,1848674.79799656,18.0,8.0,70.0,41.740570565905976,-87.70814644621888,"(41.740570565905976, -87.70814644621888)",2015-11-08
Vacant/Abandoned Building,15-06203657,11/16/2015,Garage,,Boarded,,Vacant,False,False,4263,W,81ST,ST,60652.0,1149320.44209075,1850455.06626674,18.0,8.0,70.0,41.74556482597329,-87.7284435762331,"(41.74556482597329, -87.72844357623309)",2015-11-16
Vacant/Abandoned Building,15-06246420,11/18/2015,Front,,Open,WINDOWS,Vacant,False,False,10015,S,CRANDON,AVE,60617.0,1193481.91392453,1839019.58640566,7.0,4.0,51.0,41.713218990386075,-87.56700230018322,"(41.713218990386075, -87.56700230018322)",2015-11-18
Vacant/Abandoned Building,15-06271878,11/19/2015,Front,,Open,FRONT,Vacant,False,False,9913,S,HOXIE,AVE,60617.0,1195103.53230572,1839741.95360596,7.0,4.0,51.0,41.715161476316005,-87.56103976271545,"(41.71516147631601, -87.56103976271545)",2015-11-19
Vacant/Abandoned Building,15-06283908,11/20/2015,Front,,Boarded,FRONT DOOR,Vacant,False,True,9012,S,DAUPHIN,AVE,60619.0,1183731.36371236,1845361.96007221,8.0,6.0,44.0,41.73085580451637,-87.6025145301243,"(41.730855804516374, -87.6025145301243)",2015-11-20
Vacant/Abandoned Building,15-06347648,11/24/2015,Front,,Open,FRONT AND BACK DOOR,Vacant,False,True,7444,S,PAXTON,AVE,60649.0,1192169.84878358,1856035.33033257,7.0,3.0,43.0,41.759943694095696,-87.571255640381,"(41.759943694095696, -87.57125564038098)",2015-11-24
Vacant/Abandoned Building,15-06121202,11/12/2015,Front,,Open,,Vacant,False,False,1244,W,115TH,ST,60643.0,1169998.35036757,1828514.21760051,34.0,22.0,75.0,41.68493195758805,-87.65331057333428,"(41.68493195758805, -87.65331057333428)",2015-11-12
Vacant/Abandoned Building,15-06267997,11/19/2015,Front,,Open,,Vacant,False,False,8549,S,KINGSTON,AVE,60617.0,1194649.41691331,1848781.27800096,7.0,4.0,46.0,41.73997736271276,-87.56240640782976,"(41.73997736271276, -87.56240640782976)",2015-11-19
Vacant/Abandoned Building,15-06285318,11/20/2015,Front,,Open,FRONT AND REAR,Vacant,False,True,7673,S,EXCHANGE,AVE,60649.0,1196178.45208201,1854611.07171261,7.0,4.0,43.0,41.7559370389607,-87.55661153523813,"(41.7559370389607, -87.55661153523813)",2015-11-20
Vacant/Abandoned Building,15-06349089,11/24/2015,Front,,Open,ALL AROUND,Vacant,False,False,9000,S,BLACKSTONE,AVE,60619.0,1187687.46652592,1845599.2100978,8.0,4.0,48.0,41.731413754236655,-87.58801461810762,"(41.73141375423666, -87.58801461810762)",2015-11-24
Vacant/Abandoned Building,15-06222498,11/17/2015,Front,,Open,FRONT / SIDE ENTRANCE,Vacant,False,True,4418,W,CONGRESS,PKWY,60624.0,1147017.33706566,1897324.33090185,28.0,11.0,26.0,41.874225245002634,-87.73568840655321,"(41.87422524500263, -87.7356884065532)",2015-11-17
Vacant/Abandoned Building,15-06345450,11/24/2015,,,,,,,,8518,S,INGLESIDE,AVE,60619.0,1184039.73783157,1848705.10161758,8.0,6.0,44.0,41.740022564667946,-87.60128069068365,"(41.740022564667946, -87.60128069068365)",2015-11-24
Vacant/Abandoned Building,15-06217837,11/17/2015,Front,,Open,FRONT,Vacant,False,False,8100,S,KINGSTON,AVE,60617.0,1194587.84351769,1851756.65158812,7.0,4.0,46.0,41.748143545920506,-87.5625343518453,"(41.748143545920506, -87.56253435184529)",2015-11-17
Vacant/Abandoned Building,15-06218580,11/17/2015,Front,,Open,REAR DR,Vacant,False,True,4031,W,ADAMS,ST,60624.0,1149552.25087361,1898706.73651822,28.0,11.0,26.0,41.87796991154494,-87.72634538089301,"(41.87796991154494, -87.726345380893)",2015-11-17
Vacant/Abandoned Building,15-06349647,11/24/2015,Front,,Open,FRONT DOOR,Vacant,False,False,4731,W,GLADYS,AVE,60644.0,1144905.26680043,1897934.26393416,28.0,11.0,25.0,41.87593906918152,-87.74342766156202,"(41.87593906918152, -87.74342766156201)",2015-11-24
Vacant/Abandoned Building,15-06396058,11/27/2015,Front,,Open,REAR,Vacant,False,False,108,W,113TH,PL,60628.0,1177488.42227733,1829696.18798406,34.0,5.0,49.0,41.688009948737935,-87.62585593871631,"(41.68800994873794, -87.62585593871631)",2015-11-27
Vacant/Abandoned Building,15-06080685,11/10/2015,Front,,Open,,Vacant,False,True,8748,S,BALTIMORE,AVE,60617.0,1198412.0600666,1847559.13569962,10.0,4.0,46.0,41.73653038932726,-87.54866172497834,"(41.73653038932726, -87.54866172497836)",2015-11-10
Vacant/Abandoned Building,15-06161460,11/14/2015,Front,,Open,,Vacant,False,False,2506,W,55TH,ST,60632.0,1160548.70123284,1868121.50432525,14.0,9.0,63.0,41.79382011080957,-87.6868142049548,"(41.79382011080957, -87.6868142049548)",2015-11-14
Vacant/Abandoned Building,15-05973416,11/05/2015,Front,,Open,GROUND-LEVEL WINDOWS AND DOORS ARE NOT SECURED,Vacant,False,False,2450,W,55TH,ST,60632.0,1160799.30989953,1868129.37240442,14.0,9.0,63.0,41.79383652631263,-87.68589501702566,"(41.79383652631263, -87.68589501702566)",2015-11-05
Vacant/Abandoned Building,15-06246058,11/18/2015,,,,,,,,7523,S,CHAPPEL,AVE,60649.0,1191179.47920001,1855489.02738582,8.0,4.0,43.0,41.75846861186772,-87.57490293472786,"(41.75846861186772, -87.57490293472786)",2015-11-18
Vacant/Abandoned Building,15-06273146,11/19/2015,Rear,,Boarded,REAR,Vacant,False,True,408,W,116TH,ST,60628.0,1175619.1542086,1827993.89347256,34.0,5.0,53.0,41.683380514801385,-87.63274981850793,"(41.683380514801385, -87.63274981850793)",2015-11-19
Vacant/Abandoned Building,15-06314968,11/22/2015,Rear,,Open,FRONT AND BACK DOORS BOARDS HAVE BEEN TORN OFF,Vacant,False,True,11644,S,HARVARD,AVE,60628.0,1176043.39282948,1827708.16638595,34.0,5.0,53.0,41.682586958315376,-87.63120535925354,"(41.682586958315376, -87.63120535925353)",2015-11-22
Vacant/Abandoned Building,15-06071755,11/10/2015,Front,,Open,,Vacant,False,True,10505,S,COTTAGE GROVE,AVE,60628.0,1182485.48260869,1835422.06091709,9.0,5.0,50.0,41.70360843569369,-87.60738560876284,"(41.70360843569369, -87.60738560876283)",2015-11-10
Vacant/Abandoned Building,15-06071763,11/10/2015,Rear,,Open,,Vacant,False,True,10511,S,COTTAGE GROVE,AVE,60628.0,1182475.48260869,1835357.26091709,9.0,5.0,50.0,41.70343084739894,-87.60742422649948,"(41.70343084739894, -87.60742422649948)",2015-11-10
Vacant/Abandoned Building,15-06057397,11/09/2015,,,,,,,,2577,N,CLARK,ST,60614.0,1172104.25069891,1917728.09071937,43.0,19.0,7.0,41.92969804065292,-87.64297808891773,"(41.92969804065292, -87.64297808891773)",2015-11-09
Vacant/Abandoned Building,15-05947289,11/04/2015,Rear,,Boarded,,Vacant,False,True,4030,W,KAMERLING,AVE,60651.0,1149268.34511344,1908688.06009112,26.0,25.0,23.0,41.905365230840424,-87.7271288970395,"(41.90536523084042, -87.7271288970395)",2015-11-04
Vacant/Abandoned Building,15-06269516,11/19/2015,Front,,Open,,Vacant,False,True,15,W,104TH,PL,60628.0,1178005.49080104,1835682.25002621,34.0,5.0,49.0,41.70442489136162,-87.62378247524971,"(41.70442489136162, -87.62378247524971)",2015-11-19
Vacant/Abandoned Building,15-06396077,11/27/2015,Front,,Open,REAR,Vacant,False,False,137,W,113TH,PL,60628.0,1177321.72227733,1829692.08798406,34.0,5.0,49.0,41.688002452971396,-87.6264663330343,"(41.688002452971396, -87.62646633303432)",2015-11-27
Vacant/Abandoned Building,15-06396111,11/27/2015,Front,,Open,REAR,Vacant,False,False,135,W,113TH,PL,60628.0,1177333.22227733,1829692.38798406,34.0,5.0,49.0,41.68800301726018,-87.62642422373581,"(41.68800301726018, -87.62642422373582)",2015-11-27
Vacant/Abandoned Building,15-06217481,11/17/2015,Front,,Boarded,,Vacant,False,True,1721,N,MILWAUKEE,AVE,60647.0,1161829.71737687,1911418.65758226,32.0,14.0,24.0,41.912605330323494,-87.68091046207338,"(41.91260533032349, -87.68091046207338)",2015-11-17
Vacant/Abandoned Building,15-05943387,11/04/2015,,,,,,,,4525,N,DELPHIA,AVE,60656.0,1117953.48000446,1929084.07267561,38.0,16.0,76.0,41.961884372880064,-87.84173169511608,"(41.96188437288006, -87.84173169511608)",2015-11-04
Vacant/Abandoned Building,15-06174385,11/15/2015,Front,,Open,REAR ATTIC DOOR,Vacant,False,False,4151,W,SCHOOL,ST,60641.0,1148144.20670749,1921613.81732075,30.0,17.0,16.0,41.940856439807376,-87.73092470871299,"(41.940856439807376, -87.730924708713)",2015-11-15
Vacant/Abandoned Building,15-06174192,11/15/2015,Front,,Open,FRONT DOOR,Vacant,False,False,4026,N,ALBANY,AVE,60618.0,1155000.99838903,1926603.36320125,33.0,17.0,16.0,41.95441310421377,-87.70558904455771,"(41.95441310421377, -87.7055890445577)",2015-11-15
Vacant/Abandoned Building,15-06329900,11/23/2015,,,,,,,,5034,W,CARMEN,AVE,60630.0,1141854.45279493,1933443.39379583,45.0,16.0,12.0,41.973436805320276,-87.75374806864575,"(41.97343680532027, -87.75374806864575)",2015-11-23
Vacant/Abandoned Building,15-05920968,11/03/2015,,,,,,,,2043,W,BIRCHWOOD,AVE,60645.0,1161269.42637553,1949799.55697808,49.0,24.0,1.0,42.017936019670856,-87.68189678811315,"(42.017936019670856, -87.68189678811316)",2015-11-03
Vacant/Abandoned Building,15-05939085,11/04/2015,Front,,Open,,Vacant,True,False,4939,W,FERDINAND,ST,60644.0,1143346.31128873,1902878.97867213,37.0,15.0,25.0,41.889537227052394,-87.74902804679665,"(41.88953722705239, -87.74902804679664)",2015-11-04
Vacant/Abandoned Building,15-06144403,11/13/2015,Rear,,Open,,Vacant,False,True,1735,N,PULASKI,RD,60639.0,1149441.82710286,1911369.9564665002,26.0,25.0,23.0,41.912721250566,-87.7264219297077,"(41.912721250566, -87.72642192970771)",2015-11-13
Vacant/Abandoned Building,15-06327157,11/23/2015,Front,,Open,FRONT,Vacant,False,False,2131,N,KARLOV,AVE,60639.0,1148703.27932335,1913849.26121703,26.0,25.0,20.0,41.91953900862431,-87.7290710181165,"(41.91953900862431, -87.72907101811649)",2015-11-23
