,Creation Date,Status,Completion Date,Service Request Number,Type of Service Request,Street Address,ZIP Code,X Coordinate,Y Coordinate,Ward,Police District,Community Area,Latitude,Longitude,Location,date
225975,11/01/2014,Completed - Dup,11/01/2014,14-01884799,Street Lights - All/Out,3900 W 56TH PL,60629.0,1151335.46127905,1866853.35378201,13.0,8.0,62.0,41.79052528292243,-87.72063204512287,"(41.79052528292243, -87.72063204512288)",2014-11-01
225976,11/01/2014,Completed,11/01/2014,14-01884719,Street Lights - All/Out,15 W MADISON ST,60602.0,1176219.59122814,1900388.80989122,42.0,1.0,32.0,41.88202634887542,-87.62837914101324,"(41.88202634887542, -87.62837914101323)",2014-11-01
225977,11/01/2014,Completed,11/01/2014,14-01887336,Street Lights - All/Out,601 E 95TH ST,60619.0,1181915.16002642,1842110.29950823,9.0,5.0,49.0,41.72197498223285,-87.60926804635838,"(41.721974982232844, -87.60926804635838)",2014-11-01
225990,11/02/2014,Completed,11/02/2014,14-01889697,Street Lights - All/Out,220 N MORGAN ST,60607.0,1169736.19246829,1901717.96859792,27.0,12.0,28.0,41.88581732652449,-87.65214720138323,"(41.885817326524496, -87.65214720138324)",2014-11-02
225991,11/03/2014,Completed - Dup,11/03/2014,14-01891217,Street Lights - All/Out,1 W 127TH ST,60628.0,1178588.04401952,1820829.82637604,9.0,5.0,53.0,41.66365445430691,-87.62209826599528,"(41.66365445430691, -87.62209826599526)",2014-11-03
225992,11/03/2014,Completed - Dup,11/03/2014,14-01898191,Street Lights - All/Out,8100 S HOUSTON AVE,60617.0,1197896.21889222,1851846.94320126,7.0,4.0,46.0,41.74830934564385,-87.55040863112558,"(41.74830934564385, -87.55040863112558)",2014-11-03
225993,11/03/2014,Completed,11/03/2014,14-01891088,Street Lights - All/Out,2700 N CAMPBELL AVE,60647.0,1159235.79997571,1917861.42000579,1.0,14.0,22.0,41.93033848834639,-87.69026236307164,"(41.93033848834639, -87.69026236307162)",2014-11-03
225994,11/03/2014,Completed,11/03/2014,14-01891097,Street Lights - All/Out,1800 W VAN BUREN ST,60612.0,1164466.69852863,1898200.38638795,2.0,12.0,28.0,41.876277945072644,-87.67159741547937,"(41.87627794507264, -87.67159741547937)",2014-11-03
225995,11/03/2014,Completed,11/03/2014,14-01891100,Street Lights - All/Out,905 N WOOD ST,60622.0,1164232.04641472,1906099.80999746,1.0,12.0,24.0,41.89795955251138,-87.67223552789038,"(41.897959552511374, -87.67223552789038)",2014-11-03
225996,11/03/2014,Completed,11/03/2014,14-01891108,Street Lights - All/Out,1800 S LUMBER ST,60616.0,1174077.25359607,1891510.41340613,25.0,12.0,31.0,41.85771145214046,-87.63651035363415,"(41.85771145214045, -87.63651035363415)",2014-11-03
225997,11/03/2014,Completed,11/03/2014,14-01891112,Street Lights - All/Out,2200 S CANAL ST,60616.0,1173540.97278997,1889713.28942886,25.0,9.0,34.0,41.85279193448982,-87.63853218543339,"(41.85279193448982, -87.63853218543339)",2014-11-03
225998,11/03/2014,Completed,11/03/2014,14-01891479,Street Lights - All/Out,6300 S STONY ISLAND AVE,60637.0,1187956.67960342,1863533.03208694,20.0,3.0,42.0,41.780619407901966,-87.58645804588508,"(41.780619407901966, -87.58645804588508)",2014-11-03
225999,11/03/2014,Completed,11/03/2014,14-01891522,Street Lights - All/Out,5900 S BLACKSTONE AVE,60637.0,1186921.90790254,1866164.95662754,5.0,2.0,41.0,41.7878662212001,-87.59016825236931,"(41.78786622120009, -87.59016825236932)",2014-11-03
226000,11/03/2014,Completed,11/03/2014,14-01891528,Street Lights - All/Out,5600 S BLACKSTONE AVE,60637.0,1186869.65557177,1868159.68009956,5.0,2.0,41.0,41.793341136266285,-87.59029662662407,"(41.79334113626629, -87.59029662662408)",2014-11-03
226001,11/03/2014,Completed,11/03/2014,14-01891579,Street Lights - All/Out,7925 S DORCHESTER AVE,60619.0,1186917.5900657,1852721.68777062,8.0,4.0,45.0,41.75097681470504,-87.59060973370896,"(41.75097681470504, -87.59060973370896)",2014-11-03
226002,11/03/2014,Completed,11/03/2014,14-01894466,Street Lights - All/Out,3300 S WALLACE ST,60616.0,1172833.96180784,1883028.41002322,11.0,9.0,60.0,41.83446374151698,-87.64132481299579,"(41.834463741516984, -87.64132481299579)",2014-11-03
226003,11/03/2014,Completed,11/03/2014,14-01897450,Street Lights - All/Out,10500 S WHIPPLE ST,60655.0,1157829.45030485,1834846.84651835,19.0,22.0,74.0,41.70256482471388,-87.69768698153759,"(41.70256482471388, -87.6976869815376)",2014-11-03
226004,11/03/2014,Completed,11/03/2014,14-01897689,Street Lights - All/Out,1450 N ASTOR ST,60610.0,1176366.15997321,1909788.99922506,43.0,18.0,8.0,41.907817635111044,-87.62755700938095,"(41.90781763511104, -87.62755700938095)",2014-11-03
226005,11/03/2014,Completed,11/03/2014,14-01898044,Street Lights - All/Out,5000 W DIVERSEY AVE,60639.0,1142568.21253257,1918153.56027259,31.0,25.0,19.0,41.9314668563999,-87.75150507551004,"(41.9314668563999, -87.75150507551004)",2014-11-03
226006,11/01/2014,Completed,11/03/2014,14-01885530,Street Lights - All/Out,3416 N NAGLE AVE,60634.0,1132767.11236558,1922026.37537153,36.0,16.0,17.0,41.94227116647829,-87.787432407758,"(41.94227116647829, -87.78743240775802)",2014-11-01
226007,11/01/2014,Completed,11/03/2014,14-01887308,Street Lights - All/Out,3202 N PANAMA AVE,60634.0,1121531.68999718,1920305.8000921002,36.0,16.0,17.0,41.93773860258825,-87.82876580337546,"(41.93773860258825, -87.82876580337545)",2014-11-01
226008,11/01/2014,Completed,11/03/2014,14-01887349,Street Lights - All/Out,1401 S MICHIGAN AVE,60605.0,1177444.5761087,1893862.0164796002,2.0,1.0,33.0,41.86408874592996,-87.62407909416164,"(41.86408874592996, -87.62407909416164)",2014-11-01
226009,11/01/2014,Completed,11/03/2014,14-01887413,Street Lights - All/Out,7747 S LANGLEY AVE,60619.0,1182236.99227634,1853792.53602512,6.0,6.0,69.0,41.75402493167183,-87.60772846210675,"(41.75402493167183, -87.60772846210675)",2014-11-01
226010,11/01/2014,Completed,11/03/2014,14-01887414,Street Lights - All/Out,3344 N OPAL AVE,60634.0,1123169.81588144,1921236.33870124,36.0,16.0,17.0,41.94026550482762,-87.8227248659938,"(41.94026550482762, -87.82272486599382)",2014-11-01
226011,11/01/2014,Completed,11/03/2014,14-01887478,Street Lights - All/Out,2400 W HARRISON ST,60612.0,1160486.90362248,1897300.23448657,2.0,11.0,28.0,41.87389111412114,-87.68623479286053,"(41.87389111412114, -87.68623479286053)",2014-11-01
226012,11/02/2014,Completed - Dup,11/03/2014,14-01889447,Street Lights - All/Out,1734 W BALMORAL AVE,60640.0,1163660.69067258,1935906.8632281998,40.0,20.0,77.0,41.97976382394569,-87.67349138363943,"(41.97976382394569, -87.67349138363943)",2014-11-02
226013,11/02/2014,Completed - Dup,11/03/2014,14-01889632,Street Lights - All/Out,5700 S BLACKSTONE AVE,60637.0,1186887.66898005,1867492.53700611,5.0,2.0,41.0,41.791510017263825,-87.5902517191195,"(41.79151001726383, -87.59025171911948)",2014-11-02
226014,11/02/2014,Completed - Dup,11/03/2014,14-01889634,Street Lights - All/Out,5800 S BLACKSTONE AVE,60637.0,1186904.22501424,1866815.70012925,5.0,2.0,41.0,41.78965233175425,-87.59021246431273,"(41.78965233175425, -87.59021246431274)",2014-11-02
226015,11/02/2014,Completed - Dup,11/03/2014,14-01889817,Street Lights - All/Out,10500 S WHIPPLE ST,60655.0,1157829.45030485,1834846.84651835,19.0,22.0,74.0,41.70256482471388,-87.69768698153759,"(41.70256482471388, -87.6976869815376)",2014-11-02
226016,11/02/2014,Completed,11/03/2014,14-01887807,Street Lights - All/Out,4800 S DORCHESTER AVE,60615.0,1186373.4486266,1873452.2663025002,4.0,2.0,39.0,41.80787613779286,-87.59194875348848,"(41.80787613779286, -87.59194875348848)",2014-11-02
226017,11/02/2014,Completed,11/03/2014,14-01887808,Street Lights - All/Out,8700 S WABASH AVE,60619.0,1178231.12038827,1847327.30017397,6.0,6.0,44.0,41.73637532912628,-87.62260422278084,"(41.736375329126275, -87.62260422278085)",2014-11-02
226018,11/02/2014,Completed,11/03/2014,14-01888034,Street Lights - All/Out,8100 S CHAPPEL AVE,60617.0,1191268.37691738,1851669.247995,8.0,4.0,46.0,41.74798465923871,-87.57470057700175,"(41.74798465923871, -87.57470057700175)",2014-11-02
226019,11/02/2014,Completed,11/03/2014,14-01889473,Street Lights - All/Out,400 S ST LOUIS AVE,60624.0,1153204.16301782,1897804.85370967,28.0,11.0,27.0,41.87542339406749,-87.71296028783891,"(41.87542339406749, -87.71296028783892)",2014-11-02
226020,11/02/2014,Completed,11/03/2014,14-01889572,Street Lights - All/Out,1700 W BALMORAL AVE,60640.0,1164019.93649204,1935917.46681264,40.0,20.0,77.0,41.979785319160854,-87.6721699226498,"(41.979785319160854, -87.67216992264979)",2014-11-02
226021,11/02/2014,Completed,11/03/2014,14-01889761,Street Lights - All/Out,820 S LOOMIS ST,60607.0,1167177.82501094,1896357.05252112,25.0,12.0,28.0,41.871161899948135,-87.66169607145132,"(41.871161899948135, -87.66169607145132)",2014-11-02
226070,11/04/2014,Completed - Dup,11/04/2014,14-01899283,Street Lights - All/Out,10900 S AVENUE O,60617.0,1200885.31877729,1833290.4218285999,10.0,4.0,52.0,41.69731365602428,-87.54008238661078,"(41.69731365602427, -87.54008238661078)",2014-11-04
226071,11/04/2014,Completed - Dup,11/04/2014,14-01899350,Street Lights - All/Out,11100 S DR MARTIN LUTHER KING JR DR,60628.0,1180882.64576997,1831447.17198893,9.0,5.0,49.0,41.692737727309925,-87.61337649382533,"(41.69273772730993, -87.61337649382533)",2014-11-04
226072,11/04/2014,Completed - Dup,11/04/2014,14-01899591,Street Lights - All/Out,11100 S DR MARTIN LUTHER KING JR DR,60628.0,1180882.64576997,1831447.17198893,9.0,5.0,49.0,41.692737727309925,-87.61337649382533,"(41.69273772730993, -87.61337649382533)",2014-11-04
226073,11/04/2014,Completed - Dup,11/04/2014,14-01900261,Street Lights - All/Out,10900 S AVENUE O,60617.0,1200885.31877729,1833290.4218285999,10.0,4.0,52.0,41.69731365602428,-87.54008238661078,"(41.69731365602427, -87.54008238661078)",2014-11-04
226074,11/04/2014,Completed - Dup,11/04/2014,14-01904148,Street Lights - All/Out,10342 S CORLISS AVE,60628.0,1183405.98090831,1836451.78999667,9.0,5.0,50.0,41.70641280062875,-87.60398302798073,"(41.70641280062875, -87.60398302798073)",2014-11-04
226075,11/04/2014,Completed,11/04/2014,14-01899417,Street Lights - All/Out,1412 N ASTOR ST,60610.0,1176363.95997321,1909863.29922506,43.0,18.0,8.0,41.90802156724262,-87.62756284518915,"(41.90802156724262, -87.62756284518915)",2014-11-04
226076,11/04/2014,Completed,11/04/2014,14-01902038,Street Lights - All/Out,5000 S KNOX AVE,60632.0,1146203.89596914,1871069.34648355,23.0,8.0,56.0,41.80219344869872,-87.73934165138567,"(41.802193448698716, -87.73934165138567)",2014-11-04
226077,11/04/2014,Completed,11/04/2014,14-01903089,Street Lights - All/Out,700 W ARMITAGE AVE,60614.0,1171283.47001389,1913536.51001487,43.0,18.0,7.0,41.91821424130797,-87.64611764936768,"(41.918214241307965, -87.64611764936767)",2014-11-04
226078,11/04/2014,Completed,11/04/2014,14-01905408,Street Lights - All/Out,2410 S STATE ST,60616.0,1176698.22823343,1888337.60000358,3.0,1.0,33.0,41.848946258136266,-87.62698571069943,"(41.848946258136266, -87.62698571069942)",2014-11-04
226079,11/04/2014,Completed,11/04/2014,14-01906514,Street Lights - All/Out,5000 W DIVISION ST,60651.0,1142812.5239806,1907526.80779078,37.0,25.0,25.0,41.902301367722785,-87.75087248569254,"(41.902301367722785, -87.75087248569255)",2014-11-04
226080,11/01/2014,Completed,11/04/2014,14-01887111,Street Lights - All/Out,11830 S LOWE AVE,60628.0,1174097.10699074,1826439.22102192,34.0,5.0,53.0,41.67914807622196,-87.6383673924812,"(41.679148076221956, -87.63836739248119)",2014-11-01
226081,11/01/2014,Completed,11/04/2014,14-01887389,Street Lights - All/Out,10900 S AVENUE O,60617.0,1200885.31877729,1833290.4218285999,10.0,4.0,52.0,41.69731365602428,-87.54008238661078,"(41.69731365602427, -87.54008238661078)",2014-11-01
226082,11/01/2014,Completed,11/04/2014,14-01887495,Street Lights - All/Out,2040 W 69TH ST,60636.0,1163947.84773036,1858894.85210107,17.0,7.0,67.0,41.76843013882235,-87.67460889402395,"(41.76843013882235, -87.67460889402395)",2014-11-01
226083,11/01/2014,Completed,11/04/2014,14-01887602,Street Lights - All/Out,2444 N SOUTHPORT AVE,60614.0,1166570.66680107,1916345.35330498,32.0,19.0,7.0,41.92602419361332,-87.66335208103966,"(41.92602419361332, -87.66335208103966)",2014-11-01
226084,11/02/2014,Completed - Dup,11/04/2014,14-01887805,Street Lights - All/Out,4800 S WOODLAWN AVE,60615.0,1185051.13810612,1873422.42809041,4.0,2.0,39.0,41.8078254584656,-87.59679951096541,"(41.8078254584656, -87.59679951096541)",2014-11-02
226085,11/02/2014,Completed - Dup,11/04/2014,14-01887806,Street Lights - All/Out,4900 S WOODLAWN AVE,60615.0,1185065.46481812,1872758.33999915,4.0,2.0,39.0,41.80600281487949,-87.59676783933621,"(41.80600281487949, -87.59676783933621)",2014-11-02
226086,11/02/2014,Completed,11/04/2014,14-01887804,Street Lights - All/Out,4700 S WOODLAWN AVE,60615.0,1185036.50856672,1874084.11629518,4.0,2.0,39.0,41.80964152314103,-87.59683236978952,"(41.809641523141025, -87.59683236978951)",2014-11-02
226087,11/02/2014,Completed,11/04/2014,14-01887829,Street Lights - All/Out,2640 N BOSWORTH AVE,60614.0,1165543.72000842,1917626.70922764,32.0,19.0,7.0,41.9295622638987,-87.66708901275591,"(41.9295622638987, -87.6670890127559)",2014-11-02
226088,11/02/2014,Completed,11/04/2014,14-01889480,Street Lights - All/Out,3600 W FIFTH AVE,60624.0,1152451.01990456,1897892.5287866,28.0,11.0,27.0,41.87567888845128,-87.71572323883494,"(41.875678888451276, -87.71572323883493)",2014-11-02
226089,11/02/2014,Completed,11/04/2014,14-01889482,Street Lights - All/Out,8505 S INGLESIDE AVE,60619.0,1184037.03783157,1848792.50161758,8.0,6.0,44.0,41.7402624627744,-87.60128785906817,"(41.7402624627744, -87.60128785906815)",2014-11-02
226090,11/02/2014,Completed,11/04/2014,14-01889582,Street Lights - All/Out,4044 N CLARK ST,60613.0,1166635.8995788,1927005.74137164,47.0,19.0,6.0,41.95527541741485,-87.66280597848728,"(41.95527541741485, -87.66280597848728)",2014-11-02
226091,11/02/2014,Completed,11/04/2014,14-01889591,Street Lights - All/Out,11361 S BISHOP ST,60643.0,1168591.91619122,1829301.04218999,34.0,22.0,75.0,41.687121485760045,-87.65843660381516,"(41.687121485760045, -87.65843660381515)",2014-11-02
226092,11/02/2014,Completed,11/04/2014,14-01889713,Street Lights - All/Out,12243 S PERRY AVE,60628.0,1177804.33660577,1823769.42537172,9.0,5.0,53.0,41.67173888854799,-87.62487781925961,"(41.671738888547985, -87.62487781925961)",2014-11-02
226093,11/02/2014,Completed,11/04/2014,14-01889745,Street Lights - All/Out,8015 S CALUMET AVE,60619.0,1179863.83461343,1851936.82508403,6.0,6.0,44.0,41.74898724718057,-87.6164818761796,"(41.748987247180565, -87.6164818761796)",2014-11-02
226094,11/02/2014,Completed,11/04/2014,14-01889821,Street Lights - All/Out,416 E 87TH PL,60619.0,1180551.98580115,1847065.62981004,6.0,6.0,44.0,41.735604365827506,-87.61410943694739,"(41.735604365827506, -87.61410943694739)",2014-11-02
226095,11/02/2014,Completed,11/04/2014,14-01889885,Street Lights - All/Out,9815 S COMMERCIAL AVE,60617.0,1197838.22081049,1840447.6929892,10.0,4.0,51.0,41.71703033870153,-87.55100082224287,"(41.717030338701534, -87.55100082224288)",2014-11-02
226096,11/02/2014,Completed,11/04/2014,14-01890376,Street Lights - All/Out,12258 S LA SALLE ST,60628.0,1177479.44383015,1823662.32892331,9.0,5.0,53.0,41.67145232281501,-87.62607013490343,"(41.67145232281501, -87.62607013490344)",2014-11-02
226097,11/03/2014,Completed - Dup,11/04/2014,14-01892399,Street Lights - All/Out,10900 S AVENUE O,60617.0,1200885.31877729,1833290.4218285999,10.0,4.0,52.0,41.69731365602428,-87.54008238661078,"(41.69731365602427, -87.54008238661078)",2014-11-03
226098,11/03/2014,Completed - Dup,11/04/2014,14-01896292,Street Lights - All/Out,2200 E 69TH ST,60649.0,1192068.70468675,1859645.92192949,5.0,3.0,43.0,41.76985389730714,-87.57150912734024,"(41.76985389730714, -87.57150912734025)",2014-11-03
226099,11/03/2014,Completed - Dup,11/04/2014,14-01897146,Street Lights - All/Out,2200 N KILDARE AVE,60639.0,1147358.42226758,1914276.00350678,31.0,25.0,20.0,41.92073592740649,-87.73400130157215,"(41.92073592740649, -87.73400130157216)",2014-11-03
226100,11/03/2014,Completed - Dup,11/04/2014,14-01898202,Street Lights - All/Out,9800 S COMMERCIAL AVE,60617.0,1197836.12081049,1840549.7929891997,10.0,4.0,51.0,41.717310562407796,-87.55100511553326,"(41.7173105624078, -87.55100511553326)",2014-11-03
226101,11/03/2014,Completed - Dup,11/04/2014,14-01898605,Street Lights - All/Out,3600 W FIFTH AVE,60624.0,1152451.01990456,1897892.5287866,28.0,11.0,27.0,41.87567888845128,-87.71572323883494,"(41.875678888451276, -87.71572323883493)",2014-11-03
226102,11/03/2014,Completed - Dup,11/04/2014,14-01898612,Street Lights - All/Out,500 S MILLARD AVE,60624.0,1152063.39952212,1897747.76130701,28.0,11.0,27.0,41.875289275712014,-87.71715026182757,"(41.875289275712014, -87.71715026182756)",2014-11-03
226103,11/03/2014,Completed,11/04/2014,14-01891081,Street Lights - All/Out,3154 W LOGAN BLVD,60647.0,1154695.47998267,1916965.33868417,35.0,14.0,22.0,41.92797180503237,-87.70697107086332,"(41.92797180503237, -87.70697107086333)",2014-11-03
226104,11/03/2014,Completed,11/04/2014,14-01891102,Street Lights - All/Out,5934 N BROADWAY,60660.0,1167227.23261279,1939665.62038737,48.0,20.0,77.0,41.99000181163486,-87.66026648697736,"(41.99000181163486, -87.66026648697736)",2014-11-03
226105,11/03/2014,Completed,11/04/2014,14-01891117,Street Lights - All/Out,1335 W ALTGELD ST,60614.0,1166943.87997058,1916723.79057942,32.0,19.0,7.0,41.927054636066345,-87.66196982231996,"(41.927054636066345, -87.66196982231997)",2014-11-03
226106,11/03/2014,Completed,11/04/2014,14-01891764,Street Lights - All/Out,6225 N CALDWELL AVE,60646.0,1139969.66049956,1941070.74069458,45.0,16.0,12.0,41.994401626904256,-87.76049140713106,"(41.99440162690426, -87.76049140713106)",2014-11-03
226107,11/03/2014,Completed,11/04/2014,14-01892858,Street Lights - All/Out,11132 S PEORIA ST,60643.0,1172304.50159594,1831012.96799876,34.0,22.0,75.0,41.6917386632976,-87.64479524901805,"(41.69173866329759, -87.64479524901805)",2014-11-03
226108,11/03/2014,Completed,11/04/2014,14-01893850,Street Lights - All/Out,2138 W DICKENS AVE,60647.0,1161766.66499002,1913826.78481588,32.0,14.0,22.0,41.919214717098654,-87.68107481716244,"(41.919214717098654, -87.68107481716244)",2014-11-03
226109,11/03/2014,Completed,11/04/2014,14-01894840,Street Lights - All/Out,3251 W 62ND ST,60629.0,1155777.94731066,1863333.68732619,15.0,8.0,66.0,41.78077877178139,-87.70443680941376,"(41.78077877178139, -87.70443680941376)",2014-11-03
226110,11/03/2014,Completed,11/04/2014,14-01896724,Street Lights - All/Out,1634 N CENTRAL AVE,60639.0,1138765.09129328,1910307.19641319,29.0,25.0,25.0,41.91000553072581,-87.76567195642653,"(41.91000553072581, -87.76567195642653)",2014-11-03
226111,11/03/2014,Completed,11/04/2014,14-01897166,Street Lights - All/Out,2200 N KILDARE AVE,60639.0,1147358.42226758,1914276.00350678,31.0,25.0,20.0,41.92073592740649,-87.73400130157215,"(41.92073592740649, -87.73400130157216)",2014-11-03
226112,11/03/2014,Completed,11/04/2014,14-01897175,Street Lights - All/Out,2200 N LOWELL AVE,60639.0,1147024.9100326,1914267.92112886,31.0,25.0,20.0,41.92072013813294,-87.7352269146858,"(41.92072013813294, -87.7352269146858)",2014-11-03
226113,11/03/2014,Completed,11/04/2014,14-01897530,Street Lights - All/Out,2112 N LOREL AVE,60639.0,1140376.55510771,1913548.81002467,37.0,25.0,19.0,41.91887146201467,-87.75967235389837,"(41.91887146201467, -87.75967235389837)",2014-11-03
226114,11/03/2014,Completed,11/04/2014,14-01897702,Street Lights - All/Out,7222 S VERNON AVE,60619.0,1180496.82846621,1857230.87398026,6.0,3.0,69.0,41.76350019685602,-87.61400016129095,"(41.76350019685602, -87.61400016129096)",2014-11-03
226115,11/03/2014,Completed,11/04/2014,14-01897787,Street Lights - All/Out,12331 S PRINCETON AVE,60628.0,1176511.14969941,1823158.56303163,34.0,5.0,53.0,41.670091663108266,-87.6296291073502,"(41.670091663108266, -87.6296291073502)",2014-11-03
226116,11/03/2014,Completed,11/04/2014,14-01898349,Street Lights - All/Out,4700 W BERENICE AVE,60641.0,1144382.01350966,1925176.35007479,38.0,17.0,15.0,41.950704064629505,-87.74466236604002,"(41.95070406462951, -87.74466236604002)",2014-11-03
226117,11/03/2014,Completed,11/04/2014,14-01898560,Street Lights - All/Out,8000 S PULASKI RD,60652.0,1151116.45293412,1851177.51457381,13.0,8.0,70.0,41.74751251507586,-87.72184375983795,"(41.74751251507586, -87.72184375983795)",2014-11-03
226118,11/03/2014,Completed,11/04/2014,14-01898614,Street Lights - All/Out,3400 W VAN BUREN ST,60624.0,1153785.05892477,1897819.44556786,28.0,11.0,27.0,41.875451894431315,-87.71082706238519,"(41.87545189443131, -87.7108270623852)",2014-11-03
226119,11/03/2014,Completed,11/04/2014,14-01898617,Street Lights - All/Out,399 S TRUMBULL AVE,60624.0,1153486.69278562,1897812.51002128,28.0,11.0,27.0,41.87543879544714,-87.71192273839445,"(41.87543879544714, -87.71192273839446)",2014-11-03
226156,11/05/2014,Completed - Dup,11/05/2014,14-01907560,Street Lights - All/Out,6300 S CENTRAL AVE,60638.0,1140162.21721054,1862231.49851589,13.0,8.0,64.0,41.77805330895573,-87.76171488691016,"(41.77805330895573, -87.76171488691016)",2014-11-05
226157,11/05/2014,Completed - Dup,11/05/2014,14-01907561,Street Lights - All/Out,4900 S LARAMIE AVE,,1142520.65988192,1871645.46638356,0.0,0.0,0.0,41.80384346829811,-87.75283555957623,"(41.80384346829811, -87.75283555957624)",2014-11-05
226158,11/05/2014,Completed - Dup,11/05/2014,14-01907667,Street Lights - All/Out,2518 N DRAKE AVE,60647.0,1152286.65101849,1916588.19942055,26.0,14.0,22.0,41.92698484889024,-87.71583264613407,"(41.92698484889024, -87.71583264613407)",2014-11-05
226159,11/05/2014,Completed - Dup,11/05/2014,14-01907786,Street Lights - All/Out,2600 N CENTRAL AVE,60639.0,1138600.99446998,1916727.91699681,30.0,25.0,19.0,41.92762768923589,-87.76611878276744,"(41.92762768923589, -87.76611878276744)",2014-11-05
226160,11/05/2014,Completed - Dup,11/05/2014,14-01909529,Street Lights - All/Out,11300 S EGGLESTON AVE,60628.0,1175311.33036577,1829975.35869416,34.0,22.0,49.0,41.688824823882506,-87.6338177531196,"(41.688824823882506, -87.63381775311959)",2014-11-05
226161,11/05/2014,Completed - Dup,11/05/2014,14-01913510,Street Lights - All/Out,2100 E 75TH ST,60649.0,1191513.63170445,1855651.28910066,5.0,3.0,43.0,41.758905780786705,-87.57367306349859,"(41.7589057807867, -87.57367306349859)",2014-11-05
226162,11/05/2014,Completed - Dup,11/05/2014,14-01914104,Street Lights - All/Out,3500 N OSCEOLA AVE,60634.0,1125795.41908901,1922367.10479784,36.0,16.0,17.0,41.9433251445763,-87.81304945309603,"(41.9433251445763, -87.81304945309603)",2014-11-05
226163,11/05/2014,Completed,11/05/2014,14-01907522,Street Lights - All/Out,7500 S SOUTH SHORE DR,60649.0,1196008.01530303,1856304.70707258,7.0,4.0,43.0,41.76058871710122,-87.55718013549729,"(41.76058871710122, -87.55718013549728)",2014-11-05
226164,11/05/2014,Completed,11/05/2014,14-01907523,Street Lights - All/Out,7500 S OGLESBY AVE,60649.0,1193172.83922432,1855690.92621779,7.0,4.0,43.0,41.75897418106104,-87.56759098353628,"(41.758974181061035, -87.56759098353628)",2014-11-05
226165,11/05/2014,Completed,11/05/2014,14-01907525,Street Lights - All/Out,7700 S MARQUETTE AVE,60649.0,1195660.16657408,1854431.84317922,7.0,4.0,43.0,41.755458047396715,-87.5585168093938,"(41.75545804739671, -87.55851680939378)",2014-11-05
226166,11/05/2014,Completed,11/05/2014,14-01907584,Street Lights - All/Out,4130 W MADISON ST,60624.0,1148859.60022554,1899692.03088263,28.0,11.0,26.0,41.88068708486271,-87.7288631688199,"(41.88068708486271, -87.7288631688199)",2014-11-05
226167,11/05/2014,Completed,11/05/2014,14-01908809,Street Lights - All/Out,11331 S EGGLESTON AVE,60628.0,1175318.53036577,1829767.95869416,34.0,22.0,49.0,41.688255526170586,-87.6337975600497,"(41.688255526170586, -87.63379756004971)",2014-11-05
226168,11/05/2014,Completed,11/05/2014,14-01909651,Street Lights - All/Out,3930 S RACINE AVE,60609.0,1168999.00292388,1878591.14741542,11.0,9.0,61.0,41.82237137340535,-87.65552468565485,"(41.822371373405346, -87.65552468565484)",2014-11-05
226169,11/05/2014,Completed,11/05/2014,14-01911971,Street Lights - All/Out,1450 N ASHLAND AVE,60622.0,1165456.73309389,1909928.23011522,1.0,14.0,24.0,41.9084390180345,-87.66762826498237,"(41.9084390180345, -87.66762826498238)",2014-11-05
226170,11/05/2014,Completed,11/05/2014,14-01912531,Street Lights - All/Out,5200 W DIVERSEY AVE,60639.0,1141230.92521316,1918119.96737271,31.0,25.0,19.0,41.93139947152263,-87.75642027000774,"(41.93139947152263, -87.75642027000774)",2014-11-05
226171,11/04/2014,Completed,11/05/2014,14-01902506,Street Lights - All/Out,3546 N NEVA AVE,60634.0,1127782.189108,1922739.23697619,36.0,16.0,17.0,41.94431299591359,-87.80573848512086,"(41.94431299591359, -87.80573848512084)",2014-11-04
226172,11/04/2014,Completed,11/05/2014,14-01902972,Street Lights - All/Out,3343 N OPAL AVE,60634.0,1123170.01588144,1921229.93870124,36.0,16.0,17.0,41.94024793914075,-87.82272427102045,"(41.94024793914075, -87.82272427102045)",2014-11-04
226173,11/04/2014,Completed,11/05/2014,14-01903415,Street Lights - All/Out,300 S CENTRAL PARK BLVD,60624.0,1152433.21660173,1898450.93066592,28.0,11.0,27.0,41.87721155495535,-87.71577385438705,"(41.87721155495535, -87.71577385438707)",2014-11-04
226174,11/04/2014,Completed,11/05/2014,14-01904026,Street Lights - All/Out,10510 S RHODES AVE,60628.0,1181772.21909348,1835348.27331718,9.0,5.0,49.0,41.70342242237617,-87.6099996821173,"(41.70342242237617, -87.60999968211732)",2014-11-04
226175,11/04/2014,Completed,11/05/2014,14-01904859,Street Lights - All/Out,5200 W STRONG ST,60630.0,1140811.23522982,1932421.44357096,45.0,16.0,11.0,41.97065179236368,-87.7576095341725,"(41.97065179236368, -87.7576095341725)",2014-11-04
226176,11/04/2014,Completed,11/05/2014,14-01905270,Street Lights - All/Out,2042 E 82ND ST,60617.0,1191332.54680061,1851007.90901138,8.0,4.0,46.0,41.746168333815454,-87.57448681373006,"(41.74616833381545, -87.57448681373006)",2014-11-04
226177,11/04/2014,Completed,11/05/2014,14-01905286,Street Lights - All/Out,5900 S ARTESIAN AVE,60629.0,1161047.89241659,1865473.99921758,16.0,8.0,66.0,41.78654468842617,-87.68505689799049,"(41.78654468842617, -87.68505689799048)",2014-11-04
226178,11/04/2014,Completed,11/05/2014,14-01905299,Street Lights - All/Out,2401 S FEDERAL ST,60616.0,1176078.08158242,1888423.19003387,3.0,1.0,33.0,41.84919509817089,-87.6292591092041,"(41.84919509817089, -87.6292591092041)",2014-11-04
226179,11/04/2014,Completed,11/05/2014,14-01905619,Street Lights - All/Out,9357 S OGLESBY AVE,60617.0,1193475.02999976,1843377.04042843,7.0,4.0,48.0,41.72517643486591,-87.56688544007126,"(41.72517643486591, -87.56688544007126)",2014-11-04
226180,11/04/2014,Completed,11/05/2014,14-01906489,Street Lights - All/Out,8100 S CHAPPEL AVE,60617.0,1191268.37691738,1851669.247995,8.0,4.0,46.0,41.74798465923871,-87.57470057700175,"(41.74798465923871, -87.57470057700175)",2014-11-04
226181,11/04/2014,Completed - Dup,11/05/2014,14-01906115,Street Lights - All/Out,8147 S CHAPPEL AVE,60617.0,1191275.27691738,1851354.647995,8.0,4.0,46.0,41.74712120211312,-87.57468545761208,"(41.747121202113114, -87.57468545761208)",2014-11-04
226182,11/04/2014,Completed,11/05/2014,14-01899314,Street Lights - All/Out,7500 S YATES BLVD,60649.0,1193505.07422481,1855698.86579289,7.0,4.0,43.0,41.758987846182855,-87.56637312405917,"(41.758987846182855, -87.56637312405915)",2014-11-04
226183,11/04/2014,Completed,11/05/2014,14-01899318,Street Lights - All/Out,2400 W FARGO AVE,60645.0,1159015.37999768,1949375.15999165,50.0,24.0,2.0,42.016818237281775,-87.69020296880417,"(42.016818237281775, -87.69020296880417)",2014-11-04
226184,11/04/2014,Completed,11/05/2014,14-01899423,Street Lights - All/Out,7000 N ASHLAND BLVD,60626.0,1164507.3697779,1946585.63597033,49.0,24.0,1.0,42.009048723675505,-87.67007346425244,"(42.009048723675505, -87.67007346425243)",2014-11-04
226185,11/04/2014,Completed,11/05/2014,14-01899425,Street Lights - All/Out,2000 W GRANVILLE AVE,60659.0,1161870.58987249,1941176.92269214,50.0,24.0,2.0,41.994262706328506,-87.67992679006777,"(41.99426270632851, -87.67992679006777)",2014-11-04
226186,11/04/2014,Completed,11/05/2014,14-01899554,Street Lights - All/Out,900 W 115TH ST,60643.0,1172364.84689315,1828575.83331732,34.0,22.0,75.0,41.68504945421721,-87.64464565013559,"(41.68504945421721, -87.64464565013559)",2014-11-04
226187,11/04/2014,Completed,11/05/2014,14-01899568,Street Lights - All/Out,5532 S SHORE DR,60637.0,1189550.34011877,1868678.14530749,5.0,2.0,41.0,41.79469984069722,-87.5804503167818,"(41.79469984069722, -87.58045031678182)",2014-11-04
226188,11/04/2014,Completed,11/05/2014,14-01899632,Street Lights - All/Out,2419 S MILLARD AVE,60623.0,1152420.61067239,1887685.68789573,22.0,10.0,30.0,41.84767074328517,-87.71610431537357,"(41.847670743285164, -87.71610431537358)",2014-11-04
226189,11/04/2014,Completed,11/05/2014,14-01899635,Street Lights - All/Out,10700 S KEDZIE AVE,60655.0,1156912.08429144,1833494.18946836,19.0,22.0,74.0,41.698871415899184,-87.7010825314617,"(41.69887141589918, -87.70108253146171)",2014-11-04
226190,11/04/2014,Completed,11/05/2014,14-01899637,Street Lights - All/Out,2500 S SACRAMENTO AVE,60623.0,1156758.38677899,1887252.36620366,12.0,10.0,30.0,41.846395002853185,-87.70019622160282,"(41.846395002853185, -87.70019622160282)",2014-11-04
226191,11/04/2014,Completed,11/05/2014,14-01900094,Street Lights - All/Out,7005 W FOSTER AVE,60656.0,1128566.15201872,1934120.89809794,41.0,16.0,10.0,41.97553224445308,-87.80259780991875,"(41.97553224445308, -87.80259780991875)",2014-11-04
226192,11/04/2014,Completed,11/05/2014,14-01900396,Street Lights - All/Out,100 S PULASKI RD,60624.0,1149740.49601598,1899361.02220854,28.0,11.0,26.0,41.87976168925944,-87.72563717401627,"(41.87976168925944, -87.72563717401626)",2014-11-04
226193,11/04/2014,Completed,11/05/2014,14-01901070,Street Lights - All/Out,1548 N DAMEN AVE,60622.0,1162778.14402794,1910308.05013343,1.0,14.0,24.0,41.909537895015006,-87.67745738870485,"(41.90953789501501, -87.67745738870485)",2014-11-04
226194,11/04/2014,Completed,11/05/2014,14-01902269,Street Lights - All/Out,3408 N NAGLE AVE,60634.0,1132769.21236558,1921972.37537153,36.0,16.0,17.0,41.94212294777257,-87.78742595317,"(41.94212294777257, -87.78742595317)",2014-11-04
226195,11/04/2014,Completed,11/05/2014,14-01902358,Street Lights - All/Out,1019 N HOYNE AVE,60622.0,1162216.99937712,1906851.78588771,32.0,12.0,24.0,41.90006540263171,-87.67961554836809,"(41.90006540263171, -87.67961554836809)",2014-11-04
226196,11/04/2014,Completed,11/05/2014,14-01902489,Street Lights - All/Out,1523 W CULLERTON ST,60608.0,1166528.89761513,1890501.15490254,25.0,12.0,31.0,41.85510671926504,-87.66424606869093,"(41.85510671926504, -87.66424606869093)",2014-11-04
226206,11/01/2014,Completed - Dup,11/05/2014,14-01887362,Street Lights - All/Out,2222 E 75TH ST,60649.0,1192413.29581099,1855673.10427084,7.0,3.0,43.0,41.758943795250175,-87.57037519706911,"(41.75894379525018, -87.57037519706911)",2014-11-01
226207,11/01/2014,Completed,11/05/2014,14-01887360,Street Lights - All/Out,2111 E 75TH ST,60649.0,1191630.93170445,1855654.08910066,8.0,4.0,43.0,41.75891062097926,-87.57324308267374,"(41.75891062097926, -87.57324308267373)",2014-11-01
226208,11/01/2014,Completed,11/05/2014,14-01887571,Street Lights - All/Out,600 S WESTERN AVE,60612.0,1160486.90362248,1897300.23448657,2.0,11.0,28.0,41.87389111412114,-87.68623479286053,"(41.87389111412114, -87.68623479286053)",2014-11-01
226209,11/02/2014,Completed,11/05/2014,14-01889223,Street Lights - All/Out,3000 N AVERS AVE,60618.0,1150202.00070448,1919664.38091922,30.0,25.0,21.0,41.93546709476011,-87.7234124805277,"(41.935467094760114, -87.7234124805277)",2014-11-02
226210,11/02/2014,Completed,11/05/2014,14-01889398,Street Lights - All/Out,11755 S VINCENNES AVE,60643.0,1165432.60218364,1826891.09147789,34.0,22.0,75.0,41.68057549636402,-87.67007038107107,"(41.68057549636402, -87.67007038107108)",2014-11-02
226211,11/03/2014,Completed - Dup,11/05/2014,14-01891429,Street Lights - All/Out,2200 E 75TH ST,60649.0,1192175.77862798,1855667.38738051,7.0,3.0,43.0,41.75893388488915,-87.57124585414603,"(41.75893388488915, -87.57124585414601)",2014-11-03
226212,11/03/2014,Completed - Dup,11/05/2014,14-01892997,Street Lights - All/Out,618 S CAMPBELL AVE,60612.0,1159828.08000096,1897201.41996685,2.0,11.0,28.0,41.87363356178491,-87.68865640792019,"(41.87363356178491, -87.68865640792018)",2014-11-03
226213,11/03/2014,Completed - Dup,11/05/2014,14-01897819,Street Lights - All/Out,10751 S ROCKWELL ST,60655.0,1160999.33487612,1833243.00016937,19.0,22.0,75.0,41.69809879716344,-87.68612373383509,"(41.69809879716344, -87.6861237338351)",2014-11-03
226214,11/03/2014,Completed,11/05/2014,14-01891084,Street Lights - All/Out,3032 W VAN BUREN ST,60612.0,1156107.86102919,1898004.62101049,28.0,11.0,27.0,41.87591348926694,-87.70229359283249,"(41.875913489266935, -87.70229359283248)",2014-11-03
226215,11/03/2014,Completed,11/05/2014,14-01891455,Street Lights - All/Out,9325 S STONY ISLAND AVE,60617.0,1188524.12237421,1843463.45198183,8.0,4.0,48.0,41.7255330904039,-87.58501769442276,"(41.7255330904039, -87.58501769442276)",2014-11-03
226216,11/03/2014,Completed,11/05/2014,14-01892545,Street Lights - All/Out,3000 W DEVON AVE,60659.0,1155178.1488748998,1942297.70777692,50.0,24.0,2.0,41.99747567645454,-87.7045142986438,"(41.99747567645454, -87.70451429864379)",2014-11-03
226217,11/03/2014,Completed,11/05/2014,14-01895195,Street Lights - All/Out,8700 S LONGWOOD DR,60643.0,1163622.93100897,1846933.94708144,19.0,22.0,72.0,41.73561448872456,-87.67613476856198,"(41.73561448872456, -87.67613476856197)",2014-11-03
226218,11/03/2014,Completed,11/05/2014,14-01897547,Street Lights - All/Out,2400 W FLOURNOY ST,60612.0,1160495.10861932,1896975.62831177,2.0,11.0,28.0,41.87300019463768,-87.68621365317681,"(41.87300019463768, -87.68621365317682)",2014-11-03
226219,11/03/2014,Completed,11/05/2014,14-01897903,Street Lights - All/Out,5292 N LIND AVE,60630.0,1139146.00798469,1934955.82599875,45.0,16.0,11.0,41.97763689667911,-87.76367082242052,"(41.97763689667911, -87.76367082242052)",2014-11-03
226220,11/03/2014,Completed,11/05/2014,14-01898039,Street Lights - All/Out,5500 S PERRY AVE,60621.0,1176639.79001844,1868407.2302026001,3.0,2.0,40.0,41.79425694378524,-87.62780081501836,"(41.79425694378524, -87.62780081501836)",2014-11-03
226221,11/03/2014,Completed,11/05/2014,14-01898139,Street Lights - All/Out,6300 S WASHTENAW AVE,60629.0,1159458.51072316,1862768.34660671,15.0,8.0,66.0,41.779152737106656,-87.69095854547977,"(41.77915273710666, -87.69095854547977)",2014-11-03
226222,11/03/2014,Completed,11/05/2014,14-01898254,Street Lights - All/Out,11300 S WESTERN AVE,60643.0,1162414.73613123,1829634.50992117,19.0,22.0,75.0,41.688167156629135,-87.68104128344368,"(41.68816715662913, -87.68104128344368)",2014-11-03
226223,11/03/2014,Completed,11/05/2014,14-01898717,Street Lights - All/Out,6018 S HAMLIN AVE,60629.0,1152073.10071587,1864358.0451959,13.0,8.0,65.0,41.7836633198142,-87.71799275972458,"(41.7836633198142, -87.71799275972458)",2014-11-03
226224,11/03/2014,Completed,11/05/2014,14-01898836,Street Lights - All/Out,10703 S ROCKWELL ST,60655.0,1160989.03980637,1833566.45488075,19.0,22.0,75.0,41.69898662657207,-87.68615253007124,"(41.698986626572065, -87.68615253007124)",2014-11-03
226250,11/06/2014,Completed - Dup,11/06/2014,14-01921582,Street Lights - All/Out,5713 N CENTRAL PARK AVE,60659.0,1151351.19478141,1937723.08012352,39.0,17.0,13.0,41.98499890453518,-87.71871307342585,"(41.98499890453518, -87.71871307342585)",2014-11-06
226251,11/06/2014,Completed - Dup,11/06/2014,14-01921804,Street Lights - All/Out,9400 S FOREST AVE,60619.0,1179905.76397694,1842713.7322246998,6.0,6.0,49.0,41.72367701938659,-87.61660968561367,"(41.72367701938659, -87.61660968561367)",2014-11-06
226252,11/06/2014,Completed,11/06/2014,14-01917585,Street Lights - All/Out,8200 S BISHOP ST,60620.0,1168093.27172384,1850369.83152916,21.0,6.0,71.0,41.7449482057459,-87.65965857238884,"(41.7449482057459, -87.65965857238885)",2014-11-06
226253,11/06/2014,Completed,11/06/2014,14-01918271,Street Lights - All/Out,1545 W 91ST ST,60620.0,1167536.8876018,1844380.16001974,21.0,22.0,73.0,41.728523609700616,-87.66186848043594,"(41.72852360970062, -87.66186848043596)",2014-11-06
226254,11/05/2014,Completed - Dup,11/06/2014,14-01913078,Street Lights - All/Out,8250 S LAFLIN ST,60620.0,1167762.26008819,1850360.34971115,21.0,6.0,71.0,41.74492929123906,-87.66087172141864,"(41.74492929123906, -87.66087172141864)",2014-11-05
226255,11/05/2014,Completed - Dup,11/06/2014,14-01913574,Street Lights - All/Out,3342 N OVERHILL AVE,60634.0,1124168.1734079,1921255.98800747,36.0,16.0,17.0,41.94030304807502,-87.81905504949648,"(41.94030304807502, -87.81905504949648)",2014-11-05
226256,11/05/2014,Completed - Dup,11/06/2014,14-01913776,Street Lights - All/Out,2600 E 79TH ST,60649.0,1194889.1925343,1853089.98988943,7.0,4.0,43.0,41.751794917915454,-87.56138629771725,"(41.75179491791545, -87.56138629771725)",2014-11-05
226257,11/05/2014,Completed - Dup,11/06/2014,14-01914129,Street Lights - All/Out,344 E 75TH ST,60619.0,1179789.99181477,1855359.16262918,6.0,3.0,69.0,41.75838021033275,-87.61664799556051,"(41.75838021033275, -87.61664799556051)",2014-11-05
226258,11/05/2014,Completed,11/06/2014,14-01907145,Street Lights - All/Out,1600 N ELSTON AVE,60642.0,1166938.46533072,1910765.96671356,32.0,14.0,24.0,41.91070613506768,-87.66216105566532,"(41.91070613506768, -87.66216105566532)",2014-11-05
226259,11/05/2014,Completed,11/06/2014,14-01907487,Street Lights - All/Out,830 W 98TH ST,60643.0,1172385.48570775,1839818.76387475,21.0,22.0,73.0,41.715901324683145,-87.64424079004685,"(41.71590132468314, -87.64424079004684)",2014-11-05
226260,11/05/2014,Completed,11/06/2014,14-01907673,Street Lights - All/Out,4846 N WESTERN AVE,60625.0,1159486.12571123,1932254.28990284,47.0,20.0,4.0,41.96982820915756,-87.6889448157232,"(41.96982820915756, -87.6889448157232)",2014-11-05
226261,11/05/2014,Completed,11/06/2014,14-01907677,Street Lights - All/Out,2000 W GRANVILLE AVE,60659.0,1161870.58987249,1941176.92269214,50.0,24.0,2.0,41.994262706328506,-87.67992679006777,"(41.99426270632851, -87.67992679006777)",2014-11-05
226262,11/05/2014,Completed,11/06/2014,14-01907769,Street Lights - All/Out,7810 W BELMONT AVE,60634.0,1123423.10641961,1920351.18461521,36.0,16.0,17.0,41.93783238489413,-87.82181332879213,"(41.937832384894136, -87.82181332879213)",2014-11-05
226263,11/05/2014,Completed,11/06/2014,14-01909635,Street Lights - All/Out,2037 W HUNT AVE,60643.0,1164207.77110216,1845955.39087415,19.0,22.0,72.0,41.73291690513104,-87.67401959183141,"(41.73291690513104, -87.67401959183142)",2014-11-05
226264,11/05/2014,Completed,11/06/2014,14-01910669,Street Lights - All/Out,3900 S INDIANA AVE,60653.0,1178241.06498938,1879177.48891129,3.0,2.0,38.0,41.82377526745292,-87.6216019773609,"(41.82377526745292, -87.62160197736091)",2014-11-05
226265,11/05/2014,Completed,11/06/2014,14-01911105,Street Lights - All/Out,1922 N MOZART ST,60647.0,1157117.25940769,1912645.28397367,35.0,14.0,22.0,41.91606835229649,-87.69818948690668,"(41.916068352296485, -87.69818948690668)",2014-11-05
226266,11/05/2014,Completed,11/06/2014,14-01912055,Street Lights - All/Out,1300 N PULASKI RD,60651.0,1149482.39117937,1908358.60942597,27.0,25.0,23.0,41.9044570318914,-87.72635119213419,"(41.9044570318914, -87.72635119213419)",2014-11-05
226267,11/05/2014,Completed,11/06/2014,14-01912073,Street Lights - All/Out,3755 W NORTH AVE,60647.0,1150982.79990077,1910368.76227593,26.0,25.0,23.0,41.909943818507536,-87.72078700605013,"(41.90994381850754, -87.72078700605012)",2014-11-05
226268,11/05/2014,Completed,11/06/2014,14-01912091,Street Lights - All/Out,1200 N LUIS MUNOZ MARIN DR,60622.0,1155154.75359821,1907812.13933203,26.0,14.0,24.0,41.90284544045171,-87.70552961429628,"(41.90284544045171, -87.70552961429628)",2014-11-05
226269,11/05/2014,Completed,11/06/2014,14-01913704,Street Lights - All/Out,5148 W DAKIN ST,60641.0,1141333.39652292,1925761.47510147,45.0,16.0,15.0,41.952366614060175,-87.75585452308945,"(41.95236661406017, -87.75585452308943)",2014-11-05
226270,11/05/2014,Completed,11/06/2014,14-01913769,Street Lights - All/Out,8601 S DORCHESTER AVE,60619.0,1187035.58647798,1848233.05991504,8.0,4.0,45.0,41.73865677768857,-87.59031937056538,"(41.73865677768857, -87.59031937056538)",2014-11-05
226271,11/05/2014,Completed,11/06/2014,14-01914127,Street Lights - All/Out,300 S HOMAN AVE,60624.0,1153764.16231857,1898484.48919117,28.0,11.0,27.0,41.87727726006245,-87.71088607888541,"(41.87727726006245, -87.71088607888541)",2014-11-05
226272,11/05/2014,Completed,11/06/2014,14-01914528,Street Lights - All/Out,7946 W ROSCOE ST,60634.0,1122419.29890542,1921563.94772447,36.0,16.0,17.0,41.94117674033843,-87.82547619957056,"(41.94117674033843, -87.82547619957056)",2014-11-05
226273,11/05/2014,Completed,11/06/2014,14-01914640,Street Lights - All/Out,5503 S MOODY AVE,60638.0,1136308.50001275,1867439.35998029,23.0,8.0,56.0,41.792414050469056,-87.77571923614752,"(41.792414050469056, -87.77571923614752)",2014-11-05
226274,11/04/2014,Completed - Dup,11/06/2014,14-01902046,Street Lights - All/Out,8847 S PARNELL AVE,60620.0,1174183.48721023,1846251.12800901,21.0,22.0,71.0,41.73351293872808,-87.63746519397883,"(41.73351293872808, -87.63746519397883)",2014-11-04
226275,11/04/2014,Completed,11/06/2014,14-01899432,Street Lights - All/Out,2500 N DRAKE AVE,60647.0,1152292.05101849,1916386.19942055,26.0,14.0,22.0,41.92643043725319,-87.7158181489277,"(41.92643043725319, -87.71581814892768)",2014-11-04
226276,11/04/2014,Completed,11/06/2014,14-01899634,Street Lights - All/Out,3614 W 68TH PL,60629.0,1153412.40002931,1858945.90013325,13.0,8.0,65.0,41.7687851510228,-87.71322544159489,"(41.768785151022804, -87.71322544159489)",2014-11-04
226277,11/04/2014,Completed,11/06/2014,14-01899638,Street Lights - All/Out,3400 W ADDISON ST,60618.0,1153083.8737191001,1923730.00968966,35.0,17.0,16.0,41.9465667371135,-87.71271319625868,"(41.9465667371135, -87.71271319625868)",2014-11-04
226278,11/04/2014,Completed,11/06/2014,14-01900879,Street Lights - All/Out,5759 S PARKSIDE AVE,60638.0,1139694.84886796,1865838.99061005,23.0,8.0,56.0,41.787961415785475,-87.76334064046654,"(41.787961415785475, -87.76334064046654)",2014-11-04
226279,11/04/2014,Completed,11/06/2014,14-01902065,Street Lights - All/Out,8847 S PARNELL AVE,60620.0,1174183.48721023,1846251.12800901,21.0,22.0,71.0,41.73351293872808,-87.63746519397883,"(41.73351293872808, -87.63746519397883)",2014-11-04
226280,11/04/2014,Completed,11/06/2014,14-01905064,Street Lights - All/Out,8900 S EGGLESTON AVE,60620.0,1174856.7231982,1845925.11706647,21.0,22.0,71.0,41.7326033584546,-87.63500849449333,"(41.73260335845459, -87.63500849449333)",2014-11-04
226281,11/04/2014,Completed,11/06/2014,14-01905792,Street Lights - All/Out,1100 N RIDGEWAY AVE,60651.0,1151178.24529245,1907073.88663337,27.0,11.0,23.0,41.90089853045409,-87.72015553654488,"(41.900898530454086, -87.72015553654488)",2014-11-04
226282,11/04/2014,Completed,11/06/2014,14-01906194,Street Lights - All/Out,4600 N CENTRAL PARK AVE,60625.0,1151559.09607718,1930331.04682405,33.0,17.0,14.0,41.96471061165311,-87.71814366782979,"(41.96471061165311, -87.71814366782979)",2014-11-04
226283,11/04/2014,Completed,11/06/2014,14-01906283,Street Lights - All/Out,1200 W MONROE ST,60607.0,1168403.37807353,1899707.63338192,27.0,12.0,28.0,41.88032974788622,-87.65709971820806,"(41.880329747886215, -87.65709971820806)",2014-11-04
226284,11/04/2014,Completed,11/06/2014,14-01906558,Street Lights - All/Out,100 E 75TH ST,60619.0,1178456.74478172,1855316.06922499,6.0,3.0,69.0,41.75829233289217,-87.6215355012234,"(41.75829233289217, -87.6215355012234)",2014-11-04
226285,11/02/2014,Completed,11/06/2014,14-01889552,Street Lights - All/Out,11520 S ARTESIAN AVE,60655.0,1162124.23009797,1828170.79757266,19.0,22.0,75.0,41.68415649622924,-87.68214531504442,"(41.684156496229235, -87.68214531504442)",2014-11-02
226286,11/02/2014,Completed,11/06/2014,14-01889964,Street Lights - All/Out,8743 S SANGAMON ST,60620.0,1171504.01462863,1846854.97059827,21.0,22.0,71.0,41.73522899521422,-87.64726378526596,"(41.73522899521422, -87.64726378526595)",2014-11-02
226287,11/03/2014,Completed - Dup,11/06/2014,14-01892389,Street Lights - All/Out,5300 N NASHVILLE AVE,60656.0,1131586.44548588,1934840.04942231,41.0,16.0,10.0,41.977453780094955,-87.79147415787708,"(41.97745378009495, -87.79147415787708)",2014-11-03
226288,11/03/2014,Completed - Dup,11/06/2014,14-01893066,Street Lights - All/Out,8748 S EAST END AVE,60617.0,1189082.80998033,1847224.57012751,8.0,4.0,48.0,41.7358406350781,-87.58285110421524,"(41.735840635078105, -87.58285110421525)",2014-11-03
226289,11/03/2014,Completed,11/06/2014,14-01891408,Street Lights - All/Out,2400 E 75TH ST,60649.0,1193505.07422481,1855698.86579289,7.0,3.0,43.0,41.758987846182855,-87.56637312405917,"(41.758987846182855, -87.56637312405915)",2014-11-03
226290,11/03/2014,Completed,11/06/2014,14-01895256,Street Lights - All/Out,2139 W HOPKINS PL,60643.0,1163588.44739974,1845368.22980636,19.0,22.0,72.0,41.73131863987075,-87.67630489269413,"(41.73131863987075, -87.67630489269413)",2014-11-03
226291,11/03/2014,Completed,11/06/2014,14-01897473,Street Lights - All/Out,8800 S EAST END AVE,60617.0,1189089.190708,1846966.17870464,8.0,4.0,48.0,41.735131430684646,-87.5828359827806,"(41.73513143068465, -87.5828359827806)",2014-11-03
226292,11/03/2014,Completed,11/06/2014,14-01897845,Street Lights - All/Out,5300 N NASHVILLE AVE,60656.0,1131586.44548588,1934840.04942231,41.0,16.0,10.0,41.977453780094955,-87.79147415787708,"(41.97745378009495, -87.79147415787708)",2014-11-03
226293,11/03/2014,Completed,11/06/2014,14-01898369,Street Lights - All/Out,3344 N OVERHILL AVE,60634.0,1124167.7734078998,1921268.68800747,36.0,16.0,17.0,41.94033790506257,-87.81905623963475,"(41.94033790506257, -87.81905623963475)",2014-11-03
226305,11/07/2014,Completed,11/07/2014,14-01929262,Street Lights - All/Out,5499 S ELLSWORTH DR,60615.0,1180224.42079194,1868522.63017519,20.0,2.0,40.0,41.79449213016301,-87.61465269464745,"(41.79449213016301, -87.61465269464745)",2014-11-07
226306,11/07/2014,Completed,11/07/2014,14-01929284,Street Lights - All/Out,100 E 79TH ST,60619.0,1178519.62369523,1852661.80668589,6.0,6.0,69.0,41.751007306907184,-87.62138555602486,"(41.75100730690719, -87.62138555602486)",2014-11-07
226307,11/07/2014,Completed,11/07/2014,14-01930388,Street Lights - All/Out,1464 W 103RD ST,60643.0,1168263.5520978,1836446.04072727,19.0,22.0,72.0,41.706735582847706,-87.65943404579932,"(41.70673558284771, -87.65943404579932)",2014-11-07
226308,11/06/2014,Completed,11/07/2014,14-01915100,Street Lights - All/Out,3500 W BERTEAU AVE,60618.0,1152303.75237674,1927694.46779323,33.0,17.0,16.0,41.95746095799011,-87.71547564538606,"(41.95746095799011, -87.71547564538606)",2014-11-06
226309,11/06/2014,Completed,11/07/2014,14-01915104,Street Lights - All/Out,6208 N LEAVITT ST,60659.0,1160531.84499688,1941223.73662608,50.0,24.0,2.0,41.994419090189965,-87.68484997313233,"(41.99441909018997, -87.68484997313233)",2014-11-06
226310,11/06/2014,Completed,11/07/2014,14-01915179,Street Lights - All/Out,6500 S LOOMIS BLVD,60636.0,1168112.71998016,1861650.09002052,17.0,7.0,67.0,41.775902317367404,-87.65926343359078,"(41.77590231736741, -87.65926343359077)",2014-11-06
226311,11/06/2014,Completed,11/07/2014,14-01916143,Street Lights - All/Out,500 W FULLERTON PKWY,60614.0,1172518.05957867,1916226.75879607,43.0,19.0,7.0,41.92556916906402,-87.64150198242564,"(41.925569169064026, -87.64150198242562)",2014-11-06
226312,11/06/2014,Completed,11/07/2014,14-01917472,Street Lights - All/Out,3501 W EVERGREEN AVE,60651.0,1152778.67579905,1908759.7394064,26.0,14.0,23.0,41.90549312883678,-87.71423231311238,"(41.90549312883678, -87.71423231311238)",2014-11-06
226313,11/06/2014,Completed,11/07/2014,14-01918431,Street Lights - All/Out,4801 W PETERSON AVE,60646.0,1143278.90169109,1939452.2843835,45.0,16.0,12.0,41.989899080523465,-87.74835906039542,"(41.989899080523465, -87.7483590603954)",2014-11-06
226314,11/06/2014,Completed,11/07/2014,14-01918591,Street Lights - All/Out,10056 S LOWE AVE,60628.0,1173744.98487791,1838190.34151781,34.0,22.0,73.0,41.71140273299376,-87.63930971355329,"(41.71140273299376, -87.6393097135533)",2014-11-06
226315,11/06/2014,Completed,11/07/2014,14-01919883,Street Lights - All/Out,11500 S ARTESIAN AVE,60655.0,1162120.03009797,1828303.99757266,19.0,22.0,75.0,41.684522108396365,-87.68215700449726,"(41.684522108396365, -87.68215700449726)",2014-11-06
226316,11/06/2014,Completed,11/07/2014,14-01919885,Street Lights - All/Out,11500 S ARTESIAN AVE,60655.0,1162120.03009797,1828303.99757266,19.0,22.0,75.0,41.684522108396365,-87.68215700449726,"(41.684522108396365, -87.68215700449726)",2014-11-06
226317,11/06/2014,Completed,11/07/2014,14-01920227,Street Lights - All/Out,3500 S MICHIGAN AVE,60653.0,1177768.02372042,1881822.37199851,3.0,2.0,35.0,41.831043778089146,-87.62325718514387,"(41.831043778089146, -87.62325718514388)",2014-11-06
226318,11/06/2014,Completed,11/07/2014,14-01920323,Street Lights - All/Out,1050 N AVERS AVE,60651.0,1150536.69373212,1906396.34201112,27.0,11.0,23.0,41.89905183913158,-87.72252973818445,"(41.89905183913158, -87.72252973818445)",2014-11-06
226319,11/06/2014,Completed,11/07/2014,14-01920702,Street Lights - All/Out,5224 W DEMING PL,60639.0,1141126.80568652,1916466.38201468,31.0,25.0,19.0,41.92686378465481,-87.75684375292717,"(41.926863784654806, -87.75684375292717)",2014-11-06
226320,11/06/2014,Completed,11/07/2014,14-01921336,Street Lights - All/Out,11800 S LOWE AVE,60628.0,1174087.10699074,1826644.12102192,34.0,5.0,53.0,41.67971057589168,-87.63839794711946,"(41.67971057589169, -87.63839794711947)",2014-11-06
226321,11/06/2014,Completed,11/07/2014,14-01922108,Street Lights - All/Out,7500 S DR MARTIN LUTHER KING JR DR,60619.0,1180206.71096882,1855372.61611123,6.0,6.0,69.0,41.758407591309904,-87.61512035710994,"(41.75840759130991, -87.61512035710996)",2014-11-06
226322,11/06/2014,Completed,11/07/2014,14-01922702,Street Lights - All/Out,1891 N POE ST,60614.0,1168977.75891674,1912799.28107373,32.0,18.0,7.0,41.91624163224163,-87.65461036522389,"(41.91624163224163, -87.65461036522389)",2014-11-06
226323,11/07/2014,Completed - Dup,11/07/2014,14-01923042,Street Lights - All/Out,4300 N DRAKE AVE,60618.0,1151950.71287201,1928349.77120326,33.0,17.0,16.0,41.95926613327365,-87.71675620533945,"(41.95926613327365, -87.71675620533945)",2014-11-07
226324,11/07/2014,Completed - Dup,11/07/2014,14-01923185,Street Lights - All/Out,4900 S LARAMIE AVE,,1142520.65988192,1871645.46638356,0.0,0.0,0.0,41.80384346829811,-87.75283555957623,"(41.80384346829811, -87.75283555957624)",2014-11-07
226325,11/07/2014,Completed - Dup,11/07/2014,14-01926090,Street Lights - All/Out,3400 W ARMITAGE AVE,60647.0,1153380.90207205,1913082.1504272998,26.0,14.0,22.0,41.917342261613115,-87.71190508394835,"(41.91734226161311, -87.71190508394834)",2014-11-07
226326,11/07/2014,Completed - Dup,11/07/2014,14-01926129,Street Lights - All/Out,3500 W ARMITAGE AVE,60647.0,1152941.14956671,1913071.9258003999,26.0,14.0,22.0,41.91732293688982,-87.71352102216316,"(41.91732293688982, -87.71352102216315)",2014-11-07
226327,11/07/2014,Completed - Dup,11/07/2014,14-01927169,Street Lights - All/Out,4200 N DRAKE AVE,60618.0,1151971.20642018,1927686.50362546,33.0,17.0,16.0,41.957445676586154,-87.7166984087734,"(41.95744567658616, -87.7166984087734)",2014-11-07
226328,11/07/2014,Completed,11/07/2014,14-01923036,Street Lights - All/Out,1909 S MILLER ST,60608.0,1169766.47002643,1891044.12002031,25.0,12.0,31.0,41.85652681741009,-87.6523469775733,"(41.85652681741009, -87.65234697757329)",2014-11-07
226329,11/07/2014,Completed,11/07/2014,14-01923112,Street Lights - All/Out,2900 S WALLACE ST,60616.0,1172765.58970447,1885683.24652908,11.0,9.0,60.0,41.841750351133896,-87.64149722456814,"(41.8417503511339, -87.64149722456814)",2014-11-07
226330,11/07/2014,Completed,11/07/2014,14-01923127,Street Lights - All/Out,3051 S MICHIGAN AVE,60616.0,1177687.28849804,1884694.97140489,2.0,1.0,35.0,41.83892824130053,-87.62346630460794,"(41.83892824130052, -87.62346630460794)",2014-11-07
226331,11/07/2014,Completed,11/07/2014,14-01923137,Street Lights - All/Out,3800 S LAKE PARK AVE,60653.0,1182733.57892497,1880356.21529365,4.0,2.0,36.0,41.826906469557855,-87.60508406481094,"(41.826906469557855, -87.60508406481094)",2014-11-07
226332,11/07/2014,Completed,11/07/2014,14-01923409,Street Lights - All/Out,2001 N HARLEM AVE,60707.0,1127772.70139733,1912490.40247034,36.0,25.0,25.0,41.91618907042832,-87.80600504560446,"(41.916189070428324, -87.80600504560446)",2014-11-07
226333,11/07/2014,Completed,11/07/2014,14-01925693,Street Lights - All/Out,3100 S CALUMET AVE,60616.0,1179105.20991366,1884517.57492853,2.0,2.0,35.0,41.838409177816345,-87.61826869233988,"(41.83840917781634, -87.61826869233988)",2014-11-07
226334,11/07/2014,Completed,11/07/2014,14-01925770,Street Lights - All/Out,2300 S CANAL ST,60616.0,1173560.12359207,1889018.36013029,25.0,9.0,34.0,41.850884569635134,-87.63848253564747,"(41.850884569635134, -87.63848253564747)",2014-11-07
226335,11/07/2014,Completed,11/07/2014,14-01926576,Street Lights - All/Out,6423 S KEELER AVE,60629.0,1149475.98048556,1861676.22507079,13.0,8.0,65.0,41.776354584109214,-87.7275841138495,"(41.77635458410921, -87.7275841138495)",2014-11-07
226336,11/07/2014,Completed,11/07/2014,14-01929209,Street Lights - All/Out,2300 W 107TH PL,60643.0,1162923.9278001,1833166.95029335,19.0,22.0,75.0,41.697850200082016,-87.67907893581949,"(41.697850200082016, -87.67907893581949)",2014-11-07
226337,11/05/2014,Completed - Dup,11/07/2014,14-01907520,Street Lights - All/Out,200 E 87TH ST,60619.0,1179112.42707044,1847354.85850078,6.0,6.0,44.0,41.736430935418454,-87.6193745990082,"(41.736430935418454, -87.61937459900821)",2014-11-05
226338,11/05/2014,Completed - Dup,11/07/2014,14-01907771,Street Lights - All/Out,7202 N OSCEOLA AVE,60631.0,1125730.80002013,1947243.64411724,41.0,16.0,9.0,42.011590075190895,-87.81273127522333,"(42.01159007519089, -87.81273127522333)",2014-11-05
226339,11/05/2014,Completed - Dup,11/07/2014,14-01907808,Street Lights - All/Out,4200 N DRAKE AVE,60618.0,1151971.20642018,1927686.50362546,33.0,17.0,16.0,41.957445676586154,-87.7166984087734,"(41.95744567658616, -87.7166984087734)",2014-11-05
226340,11/05/2014,Completed - Dup,11/07/2014,14-01907817,Street Lights - All/Out,4300 N DRAKE AVE,60618.0,1151950.71287201,1928349.77120326,33.0,17.0,16.0,41.95926613327365,-87.71675620533945,"(41.95926613327365, -87.71675620533945)",2014-11-05
226341,11/05/2014,Completed - Dup,11/07/2014,14-01909250,Street Lights - All/Out,3100 S MICHIGAN AVE,60616.0,1177695.48849804,1884482.47140489,3.0,2.0,35.0,41.83834493946701,-87.62344265957378,"(41.83834493946701, -87.62344265957378)",2014-11-05
226342,11/05/2014,Completed - Dup,11/07/2014,14-01912945,Street Lights - All/Out,6550 W IRVING PARK RD,60634.0,1131796.2600331001,1925872.14002702,38.0,16.0,17.0,41.952841279495686,-87.79091133871113,"(41.952841279495686, -87.79091133871113)",2014-11-05
226343,11/05/2014,Completed - Dup,11/07/2014,14-01913305,Street Lights - All/Out,1002 N RUSH ST,60611.0,1176392.57762751,1907236.67969373,42.0,18.0,8.0,41.90081335752494,-87.62753710777515,"(41.90081335752494, -87.62753710777515)",2014-11-05
226344,11/05/2014,Completed - Dup,11/07/2014,14-01913314,Street Lights - All/Out,1001 N RUSH ST,60611.0,1176396.17762751,1907226.57969373,42.0,18.0,8.0,41.90078556137364,-87.62752419009983,"(41.90078556137364, -87.62752419009983)",2014-11-05
226345,11/05/2014,Completed,11/07/2014,14-01907518,Street Lights - All/Out,1 W GARFIELD BLVD,60621.0,1177214.89349025,1868427.75047893,3.0,2.0,40.0,41.794300282125505,-87.62569132898987,"(41.7943002821255, -87.62569132898986)",2014-11-05
226346,11/05/2014,Completed,11/07/2014,14-01907521,Street Lights - All/Out,834 E 50TH ST,60615.0,1182637.3224895,1872039.03636799,4.0,2.0,39.0,41.80408574547464,-87.60569559300652,"(41.804085745474644, -87.60569559300652)",2014-11-05
226347,11/05/2014,Completed,11/07/2014,14-01907563,Street Lights - All/Out,6700 S LOOMIS BLVD,60636.0,1168149.60292478,1860323.9985663001,17.0,7.0,67.0,41.772262561547365,-87.65916633242321,"(41.77226256154737, -87.65916633242321)",2014-11-05
226348,11/05/2014,Completed,11/07/2014,14-01907683,Street Lights - All/Out,2640 N SHEFFIELD AVE,60614.0,1169170.32437943,1917720.56430567,32.0,19.0,7.0,41.92974170475785,-87.65375960659763,"(41.92974170475785, -87.65375960659762)",2014-11-05
226349,11/05/2014,Completed,11/07/2014,14-01907775,Street Lights - All/Out,3450 N OSCEOLA AVE,60634.0,1125819.19951311,1921674.96742187,36.0,16.0,17.0,41.941425438672034,-87.81297748907518,"(41.941425438672034, -87.81297748907518)",2014-11-05
226350,11/05/2014,Completed,11/07/2014,14-01907794,Street Lights - All/Out,3124 N KOLMAR AVE,60641.0,1145442.93570273,1920383.03852484,31.0,25.0,20.0,41.937530733245616,-87.7408842310419,"(41.93753073324562, -87.7408842310419)",2014-11-05
226351,11/05/2014,Completed,11/07/2014,14-01912951,Street Lights - All/Out,5750 W EDDY ST,60634.0,1137732.26091148,1923029.64499745,38.0,16.0,15.0,41.94493602190443,-87.76915869612722,"(41.94493602190443, -87.76915869612722)",2014-11-05
226352,11/05/2014,Completed,11/07/2014,14-01912954,Street Lights - All/Out,5750 W EDDY ST,60634.0,1137732.26091148,1923029.64499745,38.0,16.0,15.0,41.94493602190443,-87.76915869612722,"(41.94493602190443, -87.76915869612722)",2014-11-05
226353,11/05/2014,Completed,11/07/2014,14-01913767,Street Lights - All/Out,5000 N WOLCOTT AVE,60640.0,1162915.15882511,1933233.81692708,47.0,20.0,4.0,41.97244460715449,-87.67630854592095,"(41.97244460715449, -87.67630854592096)",2014-11-05
226354,11/05/2014,Completed,11/07/2014,14-01913953,Street Lights - All/Out,4417 S MAPLEWOOD AVE,60632.0,1160100.34452826,1875295.29391191,12.0,9.0,58.0,41.813515150511996,-87.68826088018761,"(41.81351515051199, -87.68826088018761)",2014-11-05
226355,11/05/2014,Completed,11/07/2014,14-01914247,Street Lights - All/Out,3600 W WILSON AVE,60625.0,1151559.09607718,1930331.04682405,33.0,17.0,14.0,41.96471061165311,-87.71814366782979,"(41.96471061165311, -87.71814366782979)",2014-11-05
226356,11/05/2014,Completed,11/07/2014,14-01914376,Street Lights - All/Out,3300 W ARMITAGE AVE,60647.0,1153824.13881468,1913091.97592273,35.0,14.0,22.0,41.917360398876774,-87.71027635447548,"(41.917360398876774, -87.71027635447548)",2014-11-05
226357,11/06/2014,Completed - Dup,11/07/2014,14-01915101,Street Lights - All/Out,3500 W ARMITAGE AVE,60647.0,1152941.14956671,1913071.9258003999,26.0,14.0,22.0,41.91732293688982,-87.71352102216316,"(41.91732293688982, -87.71352102216315)",2014-11-06
226358,11/06/2014,Completed - Dup,11/07/2014,14-01916725,Street Lights - All/Out,2200 W 81ST PL,60620.0,1162700.56000811,1850901.87109835,18.0,8.0,70.0,41.74652235902326,-87.6794035357023,"(41.74652235902326, -87.67940353570229)",2014-11-06
226359,11/06/2014,Completed - Dup,11/07/2014,14-01919470,Street Lights - All/Out,8700 S COMMERCIAL AVE,60617.0,1197653.53186934,1847861.26031366,10.0,4.0,46.0,41.737378387037026,-87.55143060186874,"(41.73737838703703, -87.55143060186874)",2014-11-06
226360,11/06/2014,Completed - Dup,11/07/2014,14-01920346,Street Lights - All/Out,3500 S MICHIGAN AVE,60653.0,1177768.02372042,1881822.37199851,3.0,2.0,35.0,41.831043778089146,-87.62325718514387,"(41.831043778089146, -87.62325718514388)",2014-11-06
226361,11/06/2014,Completed - Dup,11/07/2014,14-01920482,Street Lights - All/Out,400 E 75TH ST,60619.0,1180206.71096882,1855372.61611123,6.0,3.0,69.0,41.758407591309904,-87.61512035710994,"(41.75840759130991, -87.61512035710996)",2014-11-06
226362,11/06/2014,Completed - Dup,11/07/2014,14-01920558,Street Lights - All/Out,2300 W 81ST ST,60620.0,1162433.72863093,1850895.4783816002,18.0,8.0,70.0,41.74651037695737,-87.68038145239805,"(41.74651037695737, -87.68038145239804)",2014-11-06
226363,11/06/2014,Completed - Dup,11/07/2014,14-01922354,Street Lights - All/Out,3300 W ARMITAGE AVE,60647.0,1153824.13881468,1913091.97592273,35.0,14.0,22.0,41.917360398876774,-87.71027635447548,"(41.917360398876774, -87.71027635447548)",2014-11-06
226364,11/06/2014,Completed,11/07/2014,14-01915099,Street Lights - All/Out,2500 N DRAKE AVE,60647.0,1152292.05101849,1916386.19942055,26.0,14.0,22.0,41.92643043725319,-87.7158181489277,"(41.92643043725319, -87.71581814892768)",2014-11-06
226365,11/03/2014,Completed,11/07/2014,14-01891091,Street Lights - All/Out,2152 N WESTERN AVE,60647.0,1160007.75643197,1914464.28986991,1.0,14.0,22.0,41.92100060498471,-87.68751962681759,"(41.92100060498471, -87.6875196268176)",2014-11-03
226366,11/03/2014,Completed,11/07/2014,14-01891225,Street Lights - All/Out,12700 S WENTWORTH AVE,60628.0,1177253.42021728,1820721.62592514,9.0,5.0,53.0,41.663387654544465,-87.62698558606165,"(41.66338765454447, -87.62698558606165)",2014-11-03
226367,11/03/2014,Completed,11/07/2014,14-01891406,Street Lights - All/Out,8700 S COMMERCIAL AVE,60617.0,1197653.53186934,1847861.26031366,10.0,4.0,46.0,41.737378387037026,-87.55143060186874,"(41.73737838703703, -87.55143060186874)",2014-11-03
226368,11/03/2014,Completed,11/07/2014,14-01891707,Street Lights - All/Out,1400 N ELSTON AVE,60642.0,1167536.81149446,1909498.43957125,32.0,14.0,24.0,41.907215092829574,-87.65999951348093,"(41.90721509282957, -87.65999951348093)",2014-11-03
226369,11/03/2014,Completed,11/07/2014,14-01893760,Street Lights - All/Out,2500 N NEW ENGLAND AVE,60707.0,1130002.76860329,1915859.70697977,36.0,25.0,18.0,41.92539694804906,-87.79773440601791,"(41.92539694804906, -87.7977344060179)",2014-11-03
226370,11/03/2014,Completed,11/07/2014,14-01898030,Street Lights - All/Out,2300 W 81ST PL,60620.0,1162434.81456613,1850523.34263331,18.0,8.0,70.0,41.74548915745369,-87.68038782047155,"(41.74548915745369, -87.68038782047157)",2014-11-03
226371,11/03/2014,Completed,11/07/2014,14-01898038,Street Lights - All/Out,9546 S AVENUE M,60617.0,1201449.94000535,1842357.85116702,10.0,4.0,52.0,41.722181141369326,-87.53770835484809,"(41.722181141369326, -87.53770835484809)",2014-11-03
226372,11/03/2014,Completed,11/07/2014,14-01898106,Street Lights - All/Out,5100 S INGLESIDE AVE,60615.0,1183409.04990972,1871394.24246611,4.0,2.0,41.0,41.802298417016594,-87.60288539767313,"(41.802298417016594, -87.60288539767312)",2014-11-03
226373,11/03/2014,Completed,11/07/2014,14-01898444,Street Lights - All/Out,2700 N CENTRAL AVE,60639.0,1138579.46747854,1917392.8072086999,30.0,25.0,19.0,41.92945261045665,-87.7661817262389,"(41.92945261045665, -87.76618172623891)",2014-11-03
226374,11/04/2014,Completed - Dup,11/07/2014,14-01899547,Street Lights - All/Out,1400 N ELSTON AVE,60642.0,1167536.81149446,1909498.43957125,32.0,14.0,24.0,41.907215092829574,-87.65999951348093,"(41.90721509282957, -87.65999951348093)",2014-11-04
226375,11/04/2014,Completed - Dup,11/07/2014,14-01899566,Street Lights - All/Out,5116 S INGLESIDE AVE,60615.0,1183411.14990972,1871309.14246611,4.0,2.0,41.0,41.80206484686062,-87.60288034845881,"(41.80206484686062, -87.6028803484588)",2014-11-04
226376,11/04/2014,Completed - Dup,11/07/2014,14-01899642,Street Lights - All/Out,2200 W 81ST ST,60620.0,1163040.87779984,1850919.10870086,18.0,8.0,70.0,41.74656255761587,-87.67815604306038,"(41.74656255761587, -87.67815604306038)",2014-11-04
226377,11/04/2014,Completed - Dup,11/07/2014,14-01900066,Street Lights - All/Out,4207 W 18TH ST,60623.0,1148621.91150355,1891047.16866726,24.0,10.0,29.0,41.85696914738434,-87.72995906952444,"(41.85696914738434, -87.72995906952443)",2014-11-04
226378,11/04/2014,Completed - Dup,11/07/2014,14-01901923,Street Lights - All/Out,2200 W 81ST PL,60620.0,1162700.56000811,1850901.87109835,18.0,8.0,70.0,41.74652235902326,-87.6794035357023,"(41.74652235902326, -87.67940353570229)",2014-11-04
226379,11/04/2014,Completed - Dup,11/07/2014,14-01903807,Street Lights - All/Out,10600 S AVENUE E,60617.0,1203827.97261303,1835281.09136755,10.0,4.0,52.0,41.70270133946266,-87.52924027206639,"(41.702701339462664, -87.52924027206639)",2014-11-04
226380,11/04/2014,Completed,11/07/2014,14-01899181,Street Lights - All/Out,1800 N ASHLAND AVE,60622.0,1165393.43242089,1912057.74402065,32.0,14.0,22.0,41.91428389120718,-87.6678000993858,"(41.91428389120718, -87.66780009938579)",2014-11-04
226381,11/04/2014,Completed,11/07/2014,14-01899315,Street Lights - All/Out,4220 W 18TH ST,60623.0,1148533.51150355,1891044.86866726,24.0,10.0,29.0,41.85696454010881,-87.73028360903582,"(41.85696454010881, -87.73028360903581)",2014-11-04
226382,11/04/2014,Completed,11/07/2014,14-01899419,Street Lights - All/Out,329 W 18TH ST,60616.0,1174197.15359607,1891512.61340613,25.0,12.0,31.0,41.857714818042226,-87.63607018735323,"(41.857714818042226, -87.63607018735324)",2014-11-04
226383,11/04/2014,Completed,11/07/2014,14-01899421,Street Lights - All/Out,1051 W LAKE ST,60607.0,1169331.41300462,1901620.14647493,27.0,12.0,28.0,41.885557703269775,-87.6536364721595,"(41.885557703269775, -87.6536364721595)",2014-11-04
226384,11/04/2014,Completed,11/07/2014,14-01899422,Street Lights - All/Out,2720 N SHEFFIELD AVE,60614.0,1169152.53216683,1918248.47010061,32.0,19.0,7.0,41.9311906907014,-87.65380961304047,"(41.9311906907014, -87.65380961304047)",2014-11-04
226385,11/04/2014,Completed,11/07/2014,14-01899550,Street Lights - All/Out,5500 S STATE ST,60621.0,1177214.89349025,1868427.75047893,3.0,2.0,40.0,41.794300282125505,-87.62569132898987,"(41.7943002821255, -87.62569132898986)",2014-11-04
226386,11/04/2014,Completed,11/07/2014,14-01899557,Street Lights - All/Out,7500 S MICHIGAN AVE,60619.0,1178456.74478172,1855316.06922499,6.0,6.0,69.0,41.75829233289217,-87.6215355012234,"(41.75829233289217, -87.6215355012234)",2014-11-04
226387,11/04/2014,Completed,11/07/2014,14-01899563,Street Lights - All/Out,800 E 133RD ST,60827.0,1184039.11999922,1817538.00999785,9.0,5.0,54.0,41.654496049272716,-87.60225222861456,"(41.65449604927272, -87.60225222861456)",2014-11-04
226388,11/04/2014,Completed,11/07/2014,14-01899645,Street Lights - All/Out,8140 S OAKLEY AVE,60620.0,1162434.51456613,1850513.74263331,18.0,8.0,70.0,41.74546281984321,-87.68038918665142,"(41.745462819843205, -87.68038918665142)",2014-11-04
226389,11/04/2014,Completed,11/07/2014,14-01899694,Street Lights - All/Out,725 W 120TH ST,60628.0,1173521.85937982,1825290.96162674,34.0,5.0,53.0,41.67600978003337,-87.64050682726547,"(41.67600978003337, -87.64050682726547)",2014-11-04
226390,11/04/2014,Completed,11/07/2014,14-01899732,Street Lights - All/Out,5313 S WOOD ST,60609.0,1165249.71888866,1869460.27238217,16.0,9.0,61.0,41.79739554427557,-87.66953791901476,"(41.79739554427557, -87.66953791901477)",2014-11-04
226391,11/04/2014,Completed,11/07/2014,14-01900095,Street Lights - All/Out,2600 N NEW ENGLAND AVE,60707.0,1129982.72302751,1916522.50426579,36.0,25.0,18.0,41.92721608925713,-87.79779285356949,"(41.92721608925713, -87.79779285356949)",2014-11-04
226392,11/04/2014,Completed,11/07/2014,14-01900099,Street Lights - All/Out,4640 N ELSTON AVE,60630.0,1146643.88059364,1930550.89072535,45.0,17.0,16.0,41.96540929754104,-87.73621014662115,"(41.965409297541036, -87.73621014662115)",2014-11-04
226393,11/04/2014,Completed,11/07/2014,14-01900117,Street Lights - All/Out,2210 N LOWELL AVE,60639.0,1147022.9100326,1914335.32112886,31.0,25.0,20.0,41.92090512851338,-87.73523253599083,"(41.92090512851338, -87.73523253599083)",2014-11-04
226394,11/04/2014,Completed,11/07/2014,14-01902232,Street Lights - All/Out,6425 W IRVING PARK RD,60634.0,1132813.24728762,1925902.27459172,38.0,16.0,17.0,41.952906248336575,-87.7871720620262,"(41.952906248336575, -87.7871720620262)",2014-11-04
226395,11/04/2014,Completed,11/07/2014,14-01905761,Street Lights - All/Out,7328 N OSCEOLA AVE,60631.0,1125732.04129256,1948080.55619304,41.0,16.0,9.0,42.013886615445436,-87.8127079794079,"(42.013886615445436, -87.8127079794079)",2014-11-04
226396,11/04/2014,Completed,11/07/2014,14-01905845,Street Lights - All/Out,5200 W NEWPORT AVE,60641.0,1141089.47030438,1922442.48801686,38.0,16.0,15.0,41.94326350773522,-87.75683327848957,"(41.94326350773522, -87.75683327848958)",2014-11-04
226397,11/04/2014,Completed,11/07/2014,14-01905955,Street Lights - All/Out,400 E 75TH ST,60619.0,1180206.71096882,1855372.61611123,6.0,3.0,69.0,41.758407591309904,-87.61512035710994,"(41.75840759130991, -87.61512035710996)",2014-11-04
226406,11/01/2014,Completed,11/07/2014,14-01887237,Street Lights - All/Out,1600 S MICHIGAN AVE,60616.0,1177481.06010756,1892455.63003404,2.0,1.0,33.0,41.86022870477807,-87.62398782078535,"(41.860228704778066, -87.62398782078535)",2014-11-01
226407,11/01/2014,Completed,11/07/2014,14-01887245,Street Lights - All/Out,2600 W 47TH ST,60632.0,1159824.72590644,1873414.56553101,12.0,9.0,58.0,41.808359869229776,-87.68932356854197,"(41.80835986922977, -87.68932356854197)",2014-11-01
226408,11/01/2014,Completed,11/07/2014,14-01887396,Street Lights - All/Out,946 W 18TH PL,60608.0,1170422.38718715,1891362.02942615,25.0,12.0,31.0,41.85738488622912,-87.64993014064667,"(41.85738488622912, -87.64993014064667)",2014-11-01
226409,11/01/2014,Completed,11/07/2014,14-01887438,Street Lights - All/Out,100 E 31ST ST,60616.0,1177695.48849804,1884482.47140489,2.0,1.0,35.0,41.83834493946701,-87.62344265957378,"(41.83834493946701, -87.62344265957378)",2014-11-01
226410,11/01/2014,Completed,11/07/2014,14-01887448,Street Lights - All/Out,1700 S KILDARE AVE,60623.0,1147992.82948474,1891363.38732736,24.0,10.0,29.0,41.857848998789436,-87.7322600471966,"(41.85784899878944, -87.7322600471966)",2014-11-01
226411,11/02/2014,Completed,11/07/2014,14-01887815,Street Lights - All/Out,331 E 87TH ST,60619.0,1179887.75997184,1847377.12491107,6.0,6.0,44.0,41.73647435193431,-87.61653338202974,"(41.73647435193431, -87.61653338202974)",2014-11-02
226412,11/02/2014,Completed,11/07/2014,14-01889590,Street Lights - All/Out,4399 N DRAKE AVE,60618.0,1151931.5839071001,1929011.94382166,33.0,17.0,16.0,41.96108355779379,-87.71680901658077,"(41.96108355779379, -87.71680901658077)",2014-11-02
226413,11/02/2014,Completed,11/07/2014,14-01889829,Street Lights - All/Out,10643 S AVENUE E,60617.0,1203830.37261303,1834994.29136755,10.0,4.0,52.0,41.701914275756586,-87.52924128937384,"(41.701914275756586, -87.52924128937384)",2014-11-02
226414,11/03/2014,Completed - Dup,11/07/2014,14-01896790,Street Lights - All/Out,11015 S WALLACE ST,60628.0,1174268.79410141,1831837.77672307,34.0,22.0,49.0,41.69395875282164,-87.63757935402224,"(41.69395875282164, -87.63757935402224)",2014-11-03
226429,11/07/2014,Completed - Dup,11/08/2014,14-01929969,Street Lights - All/Out,7010 S DAMEN AVE,60636.0,1164236.62811171,1858128.63622161,17.0,7.0,67.0,41.766321463030394,-87.6735719129804,"(41.76632146303039, -87.6735719129804)",2014-11-07
226430,11/04/2014,Completed,11/08/2014,14-01899639,Street Lights - All/Out,6900 S DAMEN AVE,60636.0,1164216.24773036,1858900.85210107,17.0,7.0,67.0,41.76844095861192,-87.67362490525043,"(41.76844095861192, -87.67362490525043)",2014-11-04
226431,11/07/2014,Completed - Dup,11/09/2014,14-01922757,Street Lights - All/Out,8400 S BLACKSTONE AVE,60619.0,1187663.23489174,1849583.55051489,8.0,4.0,45.0,41.74234776586457,-87.58797697584161,"(41.74234776586457, -87.58797697584161)",2014-11-07
226432,11/07/2014,Completed - Dup,11/09/2014,14-01923133,Street Lights - All/Out,8400 S BLACKSTONE AVE,60619.0,1187663.23489174,1849583.55051489,8.0,4.0,45.0,41.74234776586457,-87.58797697584161,"(41.74234776586457, -87.58797697584161)",2014-11-07
226433,11/07/2014,Completed - Dup,11/09/2014,14-01929908,Street Lights - All/Out,8750 S EAST END AVE,60617.0,1189083.10998033,1847214.47012751,8.0,4.0,48.0,41.73581291249865,-87.58285032780383,"(41.735812912498645, -87.58285032780383)",2014-11-07
226434,11/07/2014,Completed - Dup,11/09/2014,14-01929918,Street Lights - All/Out,1540 E 84TH PL,60619.0,1188110.32137101,1849263.39648266,8.0,4.0,45.0,41.74145859355054,-87.58634905690893,"(41.74145859355054, -87.58634905690894)",2014-11-07
226435,11/07/2014,Completed - Dup,11/09/2014,14-01929926,Street Lights - All/Out,8400 S BLACKSTONE AVE,60619.0,1187663.23489174,1849583.55051489,8.0,4.0,45.0,41.74234776586457,-87.58797697584161,"(41.74234776586457, -87.58797697584161)",2014-11-07
226436,11/07/2014,Completed - Dup,11/09/2014,14-01929964,Street Lights - All/Out,8400 S BLACKSTONE AVE,60619.0,1187663.23489174,1849583.55051489,8.0,4.0,45.0,41.74234776586457,-87.58797697584161,"(41.74234776586457, -87.58797697584161)",2014-11-07
226437,11/07/2014,Completed,11/09/2014,14-01923132,Street Lights - All/Out,8748 S EAST END AVE,60617.0,1189082.80998033,1847224.57012751,8.0,4.0,48.0,41.7358406350781,-87.58285110421524,"(41.735840635078105, -87.58285110421525)",2014-11-07
226438,11/08/2014,Completed,11/09/2014,14-01932918,Street Lights - All/Out,8600 S ASHLAND AVE,60620.0,1167171.95683011,1847689.59609833,18.0,6.0,71.0,41.73761299682692,-87.66311089964957,"(41.73761299682692, -87.66311089964957)",2014-11-08
226439,11/06/2014,Completed,11/09/2014,14-01922037,Street Lights - All/Out,1500 E 84TH PL,60619.0,1187672.03527922,1849252.29508802,8.0,4.0,45.0,41.74143855887786,-87.58795524449556,"(41.74143855887786, -87.58795524449556)",2014-11-06
226441,11/09/2014,Completed,11/10/2014,14-01934921,Street Lights - All/Out,1157 N KEDVALE AVE,60651.0,1148504.45010045,1907396.70519825,37.0,11.0,23.0,41.90183640046693,-87.72996832319728,"(41.90183640046692, -87.7299683231973)",2014-11-09
226442,11/09/2014,Completed,11/10/2014,14-01935033,Street Lights - All/Out,1514 N LONG AVE,60651.0,1140073.63379553,1909541.63151117,37.0,25.0,25.0,41.907880867953956,-87.76088360066689,"(41.90788086795395, -87.76088360066689)",2014-11-09
226443,11/09/2014,Completed,11/10/2014,14-01935342,Street Lights - All/Out,3300 N OCONTO AVE,60634.0,1127171.79697581,1921086.81619472,36.0,16.0,17.0,41.939788841837135,-87.80801929073016,"(41.939788841837135, -87.80801929073016)",2014-11-09
226444,11/10/2014,Completed - Dup,11/10/2014,14-01940953,Street Lights - All/Out,2400 S FRANCISCO AVE,60623.0,1157414.53997947,1887664.41007067,12.0,10.0,30.0,41.84751239796786,-87.697776971725,"(41.84751239796786, -87.697776971725)",2014-11-10
226445,11/10/2014,Completed,11/10/2014,14-01943269,Street Lights - All/Out,1459 W 21ST ST,60608.0,1166958.98552524,1890182.95012858,25.0,12.0,31.0,41.85422432946854,-87.66267658073423,"(41.85422432946854, -87.66267658073424)",2014-11-10
226446,11/07/2014,Completed,11/10/2014,14-01923199,Street Lights - All/Out,5915 S ELIZABETH ST,60636.0,1169001.16852224,1865552.79836557,16.0,7.0,67.0,41.78659266554183,-87.65589374500168,"(41.78659266554183, -87.65589374500168)",2014-11-07
226447,11/07/2014,Completed,11/10/2014,14-01923304,Street Lights - All/Out,8143 S ELIZABETH ST,60620.0,1169407.35422924,1850781.20128594,21.0,6.0,71.0,41.74604872876322,-87.65483169101142,"(41.74604872876322, -87.65483169101144)",2014-11-07
226448,11/07/2014,Completed,11/10/2014,14-01923458,Street Lights - All/Out,4500 N PULASKI RD,60630.0,1148918.92842095,1929543.95999701,39.0,17.0,14.0,41.96260239493631,-87.72787139272249,"(41.962602394936305, -87.7278713927225)",2014-11-07
226449,11/07/2014,Completed,11/10/2014,14-01925033,Street Lights - All/Out,9553 S INDIANA AVE,60628.0,1179267.87492531,1841672.45949879,6.0,5.0,49.0,41.720834184107275,-87.61897786672691,"(41.72083418410727, -87.61897786672691)",2014-11-07
226450,11/07/2014,Completed,11/10/2014,14-01927517,Street Lights - All/Out,6037 S RHODES AVE,60637.0,1180953.7898782,1865101.40213404,20.0,3.0,42.0,41.78508720485162,-87.61208339041842,"(41.785087204851614, -87.61208339041842)",2014-11-07
226451,11/07/2014,Completed,11/10/2014,14-01928694,Street Lights - All/Out,1749 E 83RD ST,60617.0,1189441.89987555,1850295.59422775,8.0,4.0,45.0,41.74425922059449,-87.58143725037304,"(41.74425922059449, -87.58143725037303)",2014-11-07
226452,11/07/2014,Completed,11/10/2014,14-01930345,Street Lights - All/Out,1000 S RACINE AVE,60607.0,1168528.61277242,1895731.22482459,2.0,12.0,28.0,41.869415469550546,-87.65675496533855,"(41.86941546955055, -87.65675496533856)",2014-11-07
226453,11/07/2014,Completed,11/10/2014,14-01930746,Street Lights - All/Out,21 W 19TH ST,60616.0,1176383.56003156,1891134.28998226,3.0,1.0,33.0,41.856627669486734,-87.62805625757784,"(41.856627669486734, -87.62805625757785)",2014-11-07
226454,11/08/2014,Completed - Dup,11/10/2014,14-01933449,Street Lights - All/Out,1500 N LONG AVE,60651.0,1140076.53379553,1909448.43151117,37.0,25.0,25.0,41.90762506329719,-87.76087523234457,"(41.90762506329719, -87.76087523234456)",2014-11-08
226455,11/08/2014,Completed,11/10/2014,14-01931517,Street Lights - All/Out,8251 S BLACKSTONE AVE,60619.0,1187598.0498870001,1850568.30249418,8.0,4.0,45.0,41.74505157155056,-87.58818456647431,"(41.74505157155056, -87.5881845664743)",2014-11-08
226456,11/08/2014,Completed,11/10/2014,14-01931856,Street Lights - All/Out,830 S LOOMIS ST,60607.0,1167179.02501094,1896316.65252112,25.0,12.0,28.0,41.871051013301866,-87.66169282638063,"(41.87105101330187, -87.66169282638064)",2014-11-08
226457,11/08/2014,Completed,11/10/2014,14-01932910,Street Lights - All/Out,2745 S CHRISTIANA AVE,60623.0,1154475.5415253001,1885565.50811935,22.0,10.0,30.0,41.841811940366824,-87.70861922565297,"(41.84181194036682, -87.70861922565295)",2014-11-08
226458,11/08/2014,Completed,11/10/2014,14-01932928,Street Lights - All/Out,9800 S AVENUE J,60617.0,1202456.12177543,1840759.88363204,10.0,4.0,52.0,41.71777062145276,-87.53407729438108,"(41.71777062145276, -87.53407729438109)",2014-11-08
226459,11/08/2014,Completed,11/10/2014,14-01933188,Street Lights - All/Out,4662 W 83RD ST,60652.0,1146967.17331135,1849130.98149948,13.0,8.0,70.0,41.74197636799878,-87.73710013799149,"(41.74197636799878, -87.73710013799148)",2014-11-08
226460,11/08/2014,Completed,11/10/2014,14-01933362,Street Lights - All/Out,1439 N LOREL AVE,60651.0,1140425.4100233999,1909056.60007653,37.0,25.0,25.0,41.90654343649257,-87.75960325919313,"(41.90654343649257, -87.75960325919314)",2014-11-08
226461,11/06/2014,Completed - Dup,11/10/2014,14-01920261,Street Lights - All/Out,9050 S EMERALD AVE,60620.0,1172897.77999606,1844849.5700279998,21.0,22.0,71.0,41.72969530045612,-87.64221659635044,"(41.72969530045612, -87.64221659635044)",2014-11-06
226462,11/06/2014,Completed - Dup,11/10/2014,14-01920960,Street Lights - All/Out,7300 N SHERIDAN RD,60626.0,1166123.02457275,1948382.71083114,49.0,24.0,1.0,42.013945422424534,-87.66407733466897,"(42.013945422424534, -87.66407733466899)",2014-11-06
226463,11/06/2014,Completed - Dup,11/10/2014,14-01921857,Street Lights - All/Out,7900 S KINGSTON AVE,60617.0,1194558.7995731002,1853081.2030727002,7.0,4.0,46.0,41.75177893432133,-87.56259729917866,"(41.75177893432133, -87.56259729917865)",2014-11-06
226464,11/06/2014,Completed,11/10/2014,14-01915107,Street Lights - All/Out,2105 N SOUTHPORT AVE,60614.0,1166637.47072968,1914256.01988538,43.0,18.0,7.0,41.92028951089338,-87.66316660981283,"(41.92028951089338, -87.66316660981283)",2014-11-06
226465,11/06/2014,Completed,11/10/2014,14-01915837,Street Lights - All/Out,5952 S MOBILE AVE,60638.0,1135422.25998566,1864254.23002099,23.0,8.0,64.0,41.783689204685594,-87.77904431908762,"(41.78368920468559, -87.77904431908762)",2014-11-06
226466,11/06/2014,Completed,11/10/2014,14-01919503,Street Lights - All/Out,9700 S COMMERCIAL AVE,60617.0,1197823.2418284,1841207.4289141998,10.0,4.0,51.0,41.71911549380294,-87.55103039860475,"(41.71911549380294, -87.55103039860475)",2014-11-06
226467,11/06/2014,Completed,11/10/2014,14-01922312,Street Lights - All/Out,7900 S KINGSTON AVE,60617.0,1194558.7995731002,1853081.2030727002,7.0,4.0,46.0,41.75177893432133,-87.56259729917866,"(41.75177893432133, -87.56259729917865)",2014-11-06
226468,11/06/2014,Completed,11/10/2014,14-01922446,Street Lights - All/Out,2300 E 93RD ST,60617.0,1193210.4901216002,1843752.25661564,7.0,4.0,48.0,41.726212522846815,-87.56784221570425,"(41.72621252284682, -87.56784221570425)",2014-11-06
226469,11/06/2014,Completed,11/10/2014,14-01922449,Street Lights - All/Out,2300 E 92ND ST,60617.0,1193148.03997804,1844415.85988906,7.0,4.0,48.0,41.7280350362471,-87.56804936044273,"(41.7280350362471, -87.56804936044274)",2014-11-06
226470,11/07/2014,Completed - Dup,11/10/2014,14-01923130,Street Lights - All/Out,2230 E 93RD ST,60617.0,1192785.86660298,1843741.15409541,7.0,4.0,48.0,41.72619240790026,-87.56939797912989,"(41.72619240790026, -87.56939797912989)",2014-11-07
226471,11/07/2014,Completed,11/10/2014,14-01923037,Street Lights - All/Out,1517 W HARRISON ST,60607.0,1166366.46736918,1897457.19458788,25.0,12.0,28.0,41.87419816218205,-87.66464338810202,"(41.87419816218205, -87.66464338810202)",2014-11-07
226472,11/07/2014,Completed,11/10/2014,14-01923039,Street Lights - All/Out,2353 W 18TH PL,60608.0,1160972.62598511,1891021.12989439,25.0,12.0,31.0,41.85665058194347,-87.68462565621697,"(41.85665058194347, -87.68462565621697)",2014-11-07
226473,11/07/2014,Completed,11/10/2014,14-01923040,Street Lights - All/Out,3400 N WESTERN AVE,60618.0,1159774.66170342,1922515.2088898,47.0,19.0,5.0,41.94309767709479,-87.68815346944058,"(41.94309767709479, -87.68815346944058)",2014-11-07
226474,11/07/2014,Completed,11/10/2014,14-01923043,Street Lights - All/Out,4814 N DRAKE AVE,60625.0,1151849.13212396,1931758.15408128,39.0,17.0,14.0,41.96862096783081,-87.71703953224491,"(41.968620967830816, -87.71703953224491)",2014-11-07
226475,11/07/2014,Completed,11/10/2014,14-01923093,Street Lights - All/Out,2800 S ARCHER AVE,60608.0,1169319.26577119,1886291.01802346,11.0,9.0,60.0,41.8434936131048,-87.65412643570117,"(41.8434936131048, -87.65412643570117)",2014-11-07
226476,11/07/2014,Completed,11/10/2014,14-01923190,Street Lights - All/Out,3500 W COLUMBUS AVE,60652.0,1154473.55568989,1850317.8767215,18.0,8.0,70.0,41.745087397868595,-87.70956503703233,"(41.74508739786859, -87.70956503703235)",2014-11-07
226477,11/03/2014,Completed - Dup,11/10/2014,14-01897458,Street Lights - All/Out,9553 S INDIANA AVE,60628.0,1179267.87492531,1841672.45949879,6.0,5.0,49.0,41.720834184107275,-87.61897786672691,"(41.72083418410727, -87.61897786672691)",2014-11-03
226478,11/03/2014,Completed,11/10/2014,14-01890755,Street Lights - All/Out,8040 S CARPENTER ST,60620.0,1170711.73901368,1851500.32231258,21.0,6.0,71.0,41.747993769549886,-87.65003122710516,"(41.747993769549886, -87.65003122710516)",2014-11-03
226479,11/03/2014,Completed,11/10/2014,14-01891094,Street Lights - All/Out,2002 W HARRISON ST,60612.0,1163136.11887619,1897375.23010526,2.0,12.0,28.0,41.87404169068487,-87.67650603160732,"(41.87404169068487, -87.67650603160733)",2014-11-03
226480,11/03/2014,Completed,11/10/2014,14-01891104,Street Lights - All/Out,1900 N CLARK ST,60614.0,1174328.56630891,1912965.25030177,43.0,18.0,7.0,41.91657917622082,-87.63494696261625,"(41.91657917622082, -87.63494696261625)",2014-11-03
226481,11/03/2014,Completed,11/10/2014,14-01891793,Street Lights - All/Out,3547 W CHICAGO AVE,60651.0,1152496.0563818,1905105.23140791,27.0,11.0,23.0,41.895470400230025,-87.71536717472216,"(41.89547040023002, -87.71536717472215)",2014-11-03
226482,11/03/2014,Completed,11/10/2014,14-01898535,Street Lights - All/Out,3644 W 69TH ST,60629.0,1153229.49487159,1858603.44338727,13.0,8.0,65.0,41.767849012108336,-87.71390492957786,"(41.767849012108336, -87.71390492957788)",2014-11-03
226483,11/04/2014,Completed - Dup,11/10/2014,14-01902452,Street Lights - All/Out,5800 W EDDY ST,60634.0,1137069.67559087,1923015.94302196,38.0,16.0,15.0,41.94491036368794,-87.77159446360955,"(41.94491036368794, -87.77159446360955)",2014-11-04
226484,11/04/2014,Completed,11/10/2014,14-01899702,Street Lights - All/Out,5250 S WOOD ST,60609.0,1165227.82902458,1870211.66467857,16.0,9.0,61.0,41.799457919086215,-87.66959691607944,"(41.79945791908622, -87.66959691607943)",2014-11-04
226485,11/04/2014,Completed,11/10/2014,14-01899737,Street Lights - All/Out,6339 S CARPENTER ST,60621.0,1170401.59491693,1862776.95658733,16.0,7.0,68.0,41.7789450362881,-87.6508398398915,"(41.7789450362881, -87.65083983989152)",2014-11-04
226486,11/04/2014,Completed,11/10/2014,14-01903346,Street Lights - All/Out,4955 S LARAMIE AVE,60638.0,1142530.5664015,1871278.39232402,23.0,8.0,56.0,41.802835974194586,-87.75280831945179,"(41.802835974194586, -87.7528083194518)",2014-11-04
226487,11/05/2014,Completed,11/10/2014,14-01907410,Street Lights - All/Out,3200 W 110TH ST,60655.0,1156978.95389972,1831498.50013125,19.0,22.0,74.0,41.6933935248858,-87.7008913395133,"(41.6933935248858, -87.70089133951329)",2014-11-05
226488,11/05/2014,Completed,11/10/2014,14-01907679,Street Lights - All/Out,7300 N SHERIDAN RD,60626.0,1166123.02457275,1948382.71083114,49.0,24.0,1.0,42.013945422424534,-87.66407733466897,"(42.013945422424534, -87.66407733466899)",2014-11-05
226489,11/05/2014,Completed,11/10/2014,14-01909603,Street Lights - All/Out,715 N SAWYER AVE,60624.0,1154578.91258324,1904580.87912463,27.0,11.0,23.0,41.89399010620429,-87.70773134347776,"(41.89399010620429, -87.70773134347776)",2014-11-05
226500,11/11/2014,Completed - Dup,11/11/2014,14-01945201,Street Lights - All/Out,2719 N MONT CLARE AVE,60707.0,1128288.500705,1917277.3116948002,36.0,25.0,18.0,41.929316243850685,-87.80400142249219,"(41.92931624385069, -87.8040014224922)",2014-11-11
226501,11/11/2014,Completed,11/11/2014,14-01944945,Street Lights - All/Out,8200 S HALSTED ST,60620.0,1172397.8831858,1850491.6508089001,21.0,6.0,71.0,41.74518893258979,-87.64388227786438,"(41.74518893258979, -87.64388227786438)",2014-11-11
226502,11/07/2014,Completed - Dup,11/11/2014,14-01930319,Street Lights - All/Out,7729 S CORNELL AVE,60649.0,1188577.84817263,1854058.8647034,8.0,4.0,43.0,41.75460666150476,-87.58448317213373,"(41.75460666150476, -87.58448317213373)",2014-11-07
226503,11/07/2014,Completed,11/11/2014,14-01929182,Street Lights - All/Out,4600 S LAKE PARK AVE,60653.0,1185640.67671813,1874765.73703212,4.0,2.0,39.0,41.811497709257075,-87.59459491941391,"(41.811497709257075, -87.5945949194139)",2014-11-07
226504,11/07/2014,Completed,11/11/2014,14-01930174,Street Lights - All/Out,12400 S LOWE AVE,60628.0,1174228.44809815,1822653.43459349,34.0,5.0,53.0,41.66875635641328,-87.63799845346844,"(41.66875635641328, -87.63799845346843)",2014-11-07
226505,11/07/2014,Completed,11/11/2014,14-01930348,Street Lights - All/Out,3000 N KEDZIE AVE,60618.0,1154523.17081833,1919779.85170769,35.0,14.0,21.0,41.935698497843326,-87.70752875561594,"(41.93569849784333, -87.70752875561594)",2014-11-07
226506,11/07/2014,Completed,11/11/2014,14-01930867,Street Lights - All/Out,9401 S RACINE AVE,60620.0,1169975.36250524,1842439.25757736,21.0,22.0,73.0,41.723144944129366,-87.65299201205247,"(41.723144944129366, -87.65299201205245)",2014-11-07
226507,11/08/2014,Completed,11/11/2014,14-01931327,Street Lights - All/Out,10116 S LOWE AVE,60628.0,1173756.18487791,1837795.24151781,34.0,22.0,73.0,41.71031827349596,-87.63928035951305,"(41.71031827349596, -87.63928035951307)",2014-11-08
226508,11/09/2014,Completed,11/11/2014,14-01935845,Street Lights - All/Out,11531 S OAKLEY AVE,60643.0,1162952.99987977,1828077.04346644,19.0,22.0,75.0,41.683881987566146,-87.67911402954901,"(41.68388198756615, -87.679114029549)",2014-11-09
226509,11/09/2014,Completed,11/11/2014,14-01935867,Street Lights - All/Out,10930 S HOYNE AVE,60643.0,1164407.83791944,1832002.72309142,19.0,22.0,75.0,41.694624299735395,-87.67367826112014,"(41.6946242997354, -87.67367826112016)",2014-11-09
226510,11/09/2014,Completed,11/11/2014,14-01935872,Street Lights - All/Out,9227 S THROOP ST,60620.0,1169281.49953246,1843578.62069055,21.0,22.0,73.0,41.726286544765394,-87.65550070821602,"(41.72628654476539, -87.65550070821602)",2014-11-09
226511,11/10/2014,Completed - Dup,11/11/2014,14-01938621,Street Lights - All/Out,3300 S CALUMET AVE,60616.0,1179136.75962412,1883186.15568222,2.0,2.0,35.0,41.834754946089966,-87.61819359829036,"(41.83475494608997, -87.61819359829036)",2014-11-10
226512,11/10/2014,Completed - Dup,11/11/2014,14-01944353,Street Lights - All/Out,4600 S LAKE PARK AVE,60653.0,1185640.67671813,1874765.73703212,4.0,2.0,39.0,41.811497709257075,-87.59459491941391,"(41.811497709257075, -87.5945949194139)",2014-11-10
226513,11/10/2014,Completed,11/11/2014,14-01938722,Street Lights - All/Out,2861 W WARREN BLVD,60612.0,1157308.5018661998,1900223.54529477,2.0,12.0,27.0,41.88197812564857,-87.69782492965712,"(41.88197812564857, -87.69782492965713)",2014-11-10
226514,11/10/2014,Completed,11/11/2014,14-01940021,Street Lights - All/Out,2400 S FRANCISCO AVE,60623.0,1157414.53997947,1887664.41007067,12.0,10.0,30.0,41.84751239796786,-87.697776971725,"(41.84751239796786, -87.697776971725)",2014-11-10
226515,11/10/2014,Completed,11/11/2014,14-01940332,Street Lights - All/Out,3537 W 64TH PL,60629.0,1153942.71730369,1861615.32443355,15.0,8.0,66.0,41.77609995747053,-87.71121075811178,"(41.77609995747053, -87.71121075811178)",2014-11-10
226516,11/10/2014,Completed,11/11/2014,14-01941492,Street Lights - All/Out,3346 N OPAL AVE,60634.0,1123169.41588144,1921249.13870124,36.0,16.0,17.0,41.94030063620121,-87.82272605594143,"(41.94030063620121, -87.82272605594143)",2014-11-10
226517,11/10/2014,Completed,11/11/2014,14-01941610,Street Lights - All/Out,3100 S CALUMET AVE,60616.0,1179105.20991366,1884517.57492853,2.0,2.0,35.0,41.838409177816345,-87.61826869233988,"(41.83840917781634, -87.61826869233988)",2014-11-10
226518,11/10/2014,Completed,11/11/2014,14-01942445,Street Lights - All/Out,1730 W 115TH ST,60643.0,1166818.41171189,1828425.48398145,34.0,22.0,75.0,41.68475674793493,-87.66495404610176,"(41.684756747934934, -87.66495404610176)",2014-11-10
226519,11/10/2014,Completed,11/11/2014,14-01942458,Street Lights - All/Out,3418 W 84TH ST,60652.0,1155060.44201653,1848680.19799656,18.0,8.0,70.0,41.74058163842436,-87.70745821456558,"(41.74058163842436, -87.70745821456558)",2014-11-10
226520,11/10/2014,Completed,11/11/2014,14-01943070,Street Lights - All/Out,4105 N SPRINGFIELD AVE,60618.0,1149657.19336994,1926998.2171323001,39.0,17.0,16.0,41.955602343695105,-87.72522347658804,"(41.9556023436951, -87.72522347658804)",2014-11-10
226521,11/10/2014,Completed,11/11/2014,14-01943994,Street Lights - All/Out,6924 W BRYN MAWR AVE,60631.0,1128949.51437343,1936774.46822039,41.0,16.0,10.0,41.982807379267626,-87.80112739029055,"(41.982807379267626, -87.80112739029055)",2014-11-10
226522,11/10/2014,Completed,11/11/2014,14-01944138,Street Lights - All/Out,1 W ROOSEVELT RD,60605.0,1176524.93563115,1895066.0859994,2.0,1.0,33.0,41.86741358879579,-87.62741867640027,"(41.86741358879579, -87.62741867640027)",2014-11-10
226523,11/10/2014,Completed,11/11/2014,14-01944216,Street Lights - All/Out,3606 W 68TH PL,60629.0,1153461.90002931,1858947.10013325,13.0,8.0,65.0,41.768787464531286,-87.7130439652544,"(41.768787464531286, -87.71304396525441)",2014-11-10
226524,11/02/2014,Completed,11/11/2014,14-01889729,Street Lights - All/Out,3366 S CALUMET AVE,60616.0,1179147.08407497,1882723.02562893,2.0,2.0,35.0,41.8334838472351,-87.61816986340588,"(41.8334838472351, -87.61816986340588)",2014-11-02
226525,11/03/2014,Completed - Dup,11/11/2014,14-01898604,Street Lights - All/Out,300 S CENTRAL PARK BLVD,60624.0,1152433.21660173,1898450.93066592,28.0,11.0,27.0,41.87721155495535,-87.71577385438705,"(41.87721155495535, -87.71577385438707)",2014-11-03
226526,11/03/2014,Completed,11/11/2014,14-01891502,Street Lights - All/Out,6000 S STONY ISLAND AVE,60637.0,1187901.74302049,1865545.29013346,5.0,3.0,42.0,41.78614251149255,-87.58659538218899,"(41.78614251149255, -87.58659538218899)",2014-11-03
226527,11/04/2014,Completed - Dup,11/11/2014,14-01905375,Street Lights - All/Out,3300 S CALUMET AVE,60616.0,1179136.75962412,1883186.15568222,2.0,2.0,35.0,41.834754946089966,-87.61819359829036,"(41.83475494608997, -87.61819359829036)",2014-11-04
226528,11/04/2014,Completed,11/11/2014,14-01899429,Street Lights - All/Out,7500 N SEELEY AVE,60645.0,1161338.42637553,1949799.35697808,49.0,24.0,1.0,42.017934029576224,-87.68164288762131,"(42.01793402957623, -87.68164288762131)",2014-11-04
226529,11/05/2014,Completed - Dup,11/11/2014,14-01912362,Street Lights - All/Out,9645 S MORGAN ST,60643.0,1171352.47986952,1840756.34271842,21.0,22.0,73.0,41.71849680461202,-87.64799683273499,"(41.71849680461202, -87.64799683273499)",2014-11-05
226530,11/05/2014,Completed,11/11/2014,14-01914376,Street Lights - All/Out,3300 W ARMITAGE AVE,60647.0,1153824.13881468,1913091.97592273,35.0,14.0,22.0,41.917360398876774,-87.71027635447548,"(41.917360398876774, -87.71027635447548)",2014-11-05
226531,11/06/2014,Completed - Dup,11/11/2014,14-01915108,Street Lights - All/Out,1239 W HENDERSON ST,60657.0,1167341.66999804,1922374.52999403,44.0,19.0,6.0,41.942551991322865,-87.6603451248978,"(41.94255199132287, -87.6603451248978)",2014-11-06
226532,11/06/2014,Completed - Dup,11/11/2014,14-01922096,Street Lights - All/Out,3300 S CALUMET AVE,60616.0,1179136.75962412,1883186.15568222,2.0,2.0,35.0,41.834754946089966,-87.61819359829036,"(41.83475494608997, -87.61819359829036)",2014-11-06
226533,11/06/2014,Completed,11/11/2014,14-01922447,Street Lights - All/Out,2200 E 92ND ST,60617.0,1192443.30218209,1844398.37139087,7.0,4.0,48.0,41.72800421059443,-87.57063146703241,"(41.72800421059443, -87.5706314670324)",2014-11-06
226564,11/11/2014,Completed,11/12/2014,14-01945145,Street Lights - All/Out,2929 N HONORE ST,60657.0,1163603.27010142,1919625.48631031,32.0,19.0,5.0,41.93508817987526,-87.67416312930159,"(41.93508817987526, -87.67416312930159)",2014-11-11
226565,11/11/2014,Completed,11/12/2014,14-01948769,Street Lights - All/Out,4600 N KEDZIE AVE,60625.0,1154221.24687054,1930345.98242855,33.0,17.0,14.0,41.96469872882229,-87.70835519058569,"(41.964698728822285, -87.70835519058569)",2014-11-11
226566,11/11/2014,Completed,11/12/2014,14-01948956,Street Lights - All/Out,3500 W 65TH PL,60629.0,1154195.69887403,1860961.76216641,15.0,8.0,66.0,41.7743014564053,-87.71030069481674,"(41.774301456405304, -87.71030069481674)",2014-11-11
226567,11/11/2014,Completed,11/12/2014,14-01948970,Street Lights - All/Out,7103 S FRANCISCO AVE,60629.0,1158266.9698998001,1857398.9532174,18.0,8.0,66.0,41.76444267322715,-87.69547287718456,"(41.76444267322715, -87.69547287718456)",2014-11-11
226568,11/11/2014,Completed,11/12/2014,14-01949539,Street Lights - All/Out,138 E 124TH ST,60628.0,1179470.69503215,1822773.43380891,9.0,5.0,53.0,41.66896797978446,-87.61880922576105,"(41.66896797978446, -87.61880922576105)",2014-11-11
226569,11/11/2014,Completed,11/12/2014,14-01950236,Street Lights - All/Out,5528 W LUNT AVE,60646.0,1138449.61000231,1945971.00601396,41.0,16.0,12.0,42.00787607897111,-87.76596346649282,"(42.00787607897111, -87.76596346649283)",2014-11-11
226570,11/11/2014,Completed,11/12/2014,14-01950792,Street Lights - All/Out,4901 S INDIANA AVE,60615.0,1178427.5699727,1872574.31822949,3.0,2.0,38.0,41.80565136635692,-87.62111853838701,"(41.80565136635692, -87.62111853838701)",2014-11-11
226571,11/12/2014,Completed - Dup,11/12/2014,14-01951541,Street Lights - All/Out,2600 W ROOSEVELT RD,60608.0,1159043.25058158,1894616.2410968998,28.0,11.0,29.0,41.86655571661245,-87.69160887905024,"(41.866555716612446, -87.69160887905024)",2014-11-12
226572,11/12/2014,Completed - Dup,11/12/2014,14-01952072,Street Lights - All/Out,5400 W CHICAGO AVE,60651.0,1140170.76450705,1904808.33061858,37.0,15.0,25.0,41.89489035132936,-87.76064286340969,"(41.89489035132936, -87.76064286340969)",2014-11-12
226573,11/12/2014,Completed - Dup,11/12/2014,14-01955197,Street Lights - All/Out,4600 N KEDZIE AVE,60625.0,1154221.24687054,1930345.98242855,33.0,17.0,14.0,41.96469872882229,-87.70835519058569,"(41.964698728822285, -87.70835519058569)",2014-11-12
226574,11/12/2014,Completed,11/12/2014,14-01954497,Street Lights - All/Out,2600 W ROOSEVELT RD,60608.0,1159043.25058158,1894616.2410968998,28.0,11.0,29.0,41.86655571661245,-87.69160887905024,"(41.866555716612446, -87.69160887905024)",2014-11-12
226575,11/12/2014,Completed,11/12/2014,14-01959201,Street Lights - All/Out,2600 N KOSTNER AVE,60639.0,1146594.16016706,1917158.81999822,31.0,25.0,20.0,41.92866127351552,-87.73673569440069,"(41.928661273515516, -87.73673569440069)",2014-11-12
226576,11/10/2014,Completed - Dup,11/12/2014,14-01944149,Street Lights - All/Out,3000 N LOWELL AVE,60641.0,1146802.58780801,1919598.50969073,31.0,25.0,20.0,41.93535202304875,-87.73590731497694,"(41.93535202304875, -87.73590731497693)",2014-11-10
226577,11/10/2014,Completed,11/12/2014,14-01936807,Street Lights - All/Out,1148 S WASHTENAW AVE,60612.0,1158538.04587029,1894937.3624811,28.0,11.0,29.0,41.867447254290774,-87.69345475548509,"(41.86744725429077, -87.6934547554851)",2014-11-10
226578,11/10/2014,Completed,11/12/2014,14-01936812,Street Lights - All/Out,2200 N DAMEN AVE,60647.0,1162664.81218404,1914629.18092335,32.0,14.0,22.0,41.92139775288409,-87.67775237988502,"(41.92139775288409, -87.67775237988502)",2014-11-10
226579,11/10/2014,Completed,11/12/2014,14-01936814,Street Lights - All/Out,1628 N BOSWORTH AVE,60642.0,1165730.69470773,1910920.90867687,1.0,14.0,24.0,41.9111571540548,-87.66659352304487,"(41.9111571540548, -87.66659352304487)",2014-11-10
226580,11/10/2014,Completed,11/12/2014,14-01936944,Street Lights - All/Out,7331 W PALATINE AVE,60631.0,1126083.00998719,1941356.72632386,41.0,16.0,10.0,41.99542994269663,-87.81156731539625,"(41.99542994269663, -87.81156731539625)",2014-11-10
226581,11/10/2014,Completed,11/12/2014,14-01936949,Street Lights - All/Out,7301 W PALATINE AVE,60631.0,1126407.25257465,1941355.12260973,41.0,16.0,10.0,41.99542011440939,-87.81037459692541,"(41.99542011440939, -87.8103745969254)",2014-11-10
226582,11/10/2014,Completed,11/12/2014,14-01936962,Street Lights - All/Out,1970 W LAWRENCE AVE,60640.0,1162547.96007277,1931894.03789477,47.0,20.0,4.0,41.968775916447385,-87.67769650280121,"(41.96877591644738, -87.6776965028012)",2014-11-10
226583,11/10/2014,Completed,11/12/2014,14-01942356,Street Lights - All/Out,6913 S VERNON AVE,60637.0,1180442.07991513,1859279.752585,6.0,3.0,69.0,41.76912378853285,-87.61413803377228,"(41.769123788532845, -87.61413803377228)",2014-11-10
226584,11/10/2014,Completed,11/12/2014,14-01942954,Street Lights - All/Out,2700 N DAYTON ST,60614.0,1170146.99142947,1918142.10001896,43.0,19.0,7.0,41.93087712037408,-87.65015830295131,"(41.93087712037408, -87.65015830295131)",2014-11-10
226585,11/10/2014,Completed,11/12/2014,14-01943621,Street Lights - All/Out,8932 S EGGLESTON AVE,60620.0,1174860.2231982,1845721.01706647,21.0,22.0,71.0,41.732043203102016,-87.6350017389878,"(41.732043203102016, -87.63500173898778)",2014-11-10
226586,11/10/2014,Completed,11/12/2014,14-01943713,Street Lights - All/Out,7721 W FOREST PRESERVE AVE,60634.0,1123774.22908673,1923834.93151087,36.0,16.0,17.0,41.947386467907954,-87.82044624623241,"(41.94738646790795, -87.8204462462324)",2014-11-10
226587,11/10/2014,Completed,11/12/2014,14-01943806,Street Lights - All/Out,3630 N PAGE AVE,60634.0,1121761.75006949,1923152.56742687,36.0,16.0,17.0,41.945546781494926,-87.82785857335266,"(41.94554678149492, -87.82785857335266)",2014-11-10
226588,11/10/2014,Completed,11/12/2014,14-01943814,Street Lights - All/Out,1098 N MILWAUKEE AVE,60642.0,1166536.71001778,1907439.82998841,27.0,12.0,24.0,41.901587615165184,-87.66373233413137,"(41.90158761516519, -87.66373233413138)",2014-11-10
226589,11/10/2014,Completed,11/12/2014,14-01943816,Street Lights - All/Out,3344 N ODELL AVE,60634.0,1126504.97337856,1921345.81801899,36.0,16.0,17.0,41.940510761542285,-87.81046431904812,"(41.94051076154229, -87.81046431904812)",2014-11-10
226590,11/10/2014,Completed,11/12/2014,14-01943892,Street Lights - All/Out,7900 S COLES AVE,60617.0,1198194.37010382,1853180.05541532,7.0,4.0,46.0,41.75196005001249,-87.54927161431625,"(41.751960050012485, -87.54927161431625)",2014-11-10
226591,11/10/2014,Completed,11/12/2014,14-01944318,Street Lights - All/Out,11600 S CAMPBELL AVE,60655.0,1161806.53760613,1827635.33889558,19.0,22.0,75.0,41.68269368328488,-87.6833230871195,"(41.682693683284874, -87.6833230871195)",2014-11-10
