,Creation Date,Status,Completion Date,Service Request Number,Type of Service Request,License Plate,Vehicle Make/Model,Vehicle Color,Current Activity,Most Recent Action,How Many Days Has the Vehicle Been Reported as Parked?,Street Address,ZIP Code,X Coordinate,Y Coordinate,Ward,Police District,Community Area,SSA,Latitude,Longitude,Location,date
2266,05/12/2011,Completed,06/14/2011,11-01665131,Abandoned Vehicle Complaint,,,,,,,400 E LOWER WACKER DR,60601.0,1179182.06297533,1902386.82172984,42.0,1.0,32.0,,41.88755113170046,-87.61735600828747,"(41.88755113170046, -87.61735600828747)",2011-05-12
14236,05/15/2011,Completed,06/10/2011,11-01763565,Abandoned Vehicle Complaint,6600,Buick,Red,FVI - Outcome,Need Vehicle Tow Report,11.0,5541 N LUNA AVE,60630.0,,,45.0,16.0,11.0,,41.982345475462715,-87.76698759044075,"(41.98234547546272, -87.76698759044075)",2011-05-15
20966,05/01/2011,Completed - Dup,05/12/2011,11-01302269,Abandoned Vehicle Complaint,L205967,Saturn,Black,FVI - Outcome,Create Work Order,15.0,4132 W ROSCOE ST,60641.0,1148099.59997368,1922279.85797066,30.0,17.0,16.0,,41.94279349347368,-87.73116660510233,"(41.94279349347368, -87.73116660510233)",2011-05-01
20967,05/01/2011,Completed,05/02/2011,11-01301408,Abandoned Vehicle Complaint,K551987,Pontiac,Black,FVI - Outcome,Vehicle was moved from original address requested,30.0,205 N FRANCISCO AVE,60612.0,,,2.0,13.0,27.0,,41.884349546590975,-87.69869164248676,"(41.88434954659098, -87.69869164248676)",2011-05-01
20968,05/01/2011,Completed,05/02/2011,11-01302129,Abandoned Vehicle Complaint,8921665,Jaguar,Gold,FVI - Outcome,Return to Owner - Vehicle,30.0,4836 S KEELER AVE,60632.0,,,23.0,8.0,57.0,,41.804865457809576,-87.72854378751158,"(41.804865457809576, -87.72854378751158)",2011-05-01
20969,05/01/2011,Completed,05/02/2011,11-01302823,Abandoned Vehicle Complaint,"NONE-  TRAILER, NO PLATES , NO STICKER",Factory Outlet Trailers,Black,FVI - Outcome,Vehicle was moved from original address requested,,6024 S AUSTIN AVE,60638.0,,,23.0,8.0,64.0,,41.7825897568508,-87.77182283166718,"(41.782589756850804, -87.77182283166717)",2011-05-01
20970,05/01/2011,Completed,05/02/2011,11-01304734,Abandoned Vehicle Complaint,K596298,General Motors Corp.,White,FVI - Outcome,Vehicle was moved from original address requested,21.0,6745 S KEELER AVE,60629.0,,,13.0,8.0,65.0,,41.769982253331506,-87.72727195349295,"(41.76998225333151, -87.72727195349293)",2011-05-01
20971,05/01/2011,Completed,05/02/2011,11-01310414,Abandoned Vehicle Complaint,9708391,Toyota,Green,FVI - Outcome,Vehicle was moved from original address requested,90.0,3800 W BERTEAU AVE,60618.0,,,39.0,17.0,16.0,,41.95747400389646,-87.72288363783375,"(41.95747400389646, -87.72288363783375)",2011-05-01
20972,05/01/2011,Completed,05/02/2011,11-01311218,Abandoned Vehicle Complaint,UNKNOWN,Dodge,Red,FVI - Outcome,Vehicle was moved from original address requested,7.0,7159 S LAWNDALE AVE,60629.0,,,13.0,8.0,65.0,,41.76247092067774,-87.71484623681131,"(41.76247092067774, -87.71484623681131)",2011-05-01
20973,05/01/2011,Completed,05/02/2011,11-01315321,Abandoned Vehicle Complaint,254-800,Cadillac,Silver,FVI - Outcome,Vehicle was moved from original address requested,,1250 S MICHIGAN AVE,60605.0,,,2.0,1.0,33.0,,41.86607358683167,-87.62426767322485,"(41.86607358683167, -87.62426767322484)",2011-05-01
20974,05/01/2011,Completed,05/03/2011,11-01301356,Abandoned Vehicle Complaint,TEM PLATES ON REAR,Chevrolet,Green,FVI - Outcome,Vehicle was moved from original address requested,30.0,4951 W FULTON ST,60644.0,,,28.0,15.0,25.0,,41.88557965661784,-87.74993755841473,"(41.885579656617836, -87.74993755841474)",2011-05-01
20975,05/01/2011,Completed,05/03/2011,11-01308971,Abandoned Vehicle Complaint,X531664,Toyota,Gold,FVI - Outcome,Vehicle was moved from original address requested,21.0,2614 N HAMLIN AVE,60647.0,,,35.0,25.0,22.0,,41.928689535719,-87.72214958657585,"(41.928689535718995, -87.72214958657584)",2011-05-01
20976,05/01/2011,Completed,05/04/2011,11-01309588,Abandoned Vehicle Complaint,NO PLATE,Chevrolet,Green,FVI - Outcome,Vehicle was moved from original address requested,7.0,7325 W ADDISON ST,60634.0,,,36.0,16.0,17.0,,41.94508586587814,-87.8105036160261,"(41.94508586587814, -87.8105036160261)",2011-05-01
20977,05/01/2011,Completed,05/06/2011,11-01291295,Abandoned Vehicle Complaint,K125622,Pontiac,Black,FVI - Outcome,Vehicle was moved from original address requested,1.0,4050 S CAMPBELL AVE,60632.0,,,12.0,9.0,58.0,,41.819657729770825,-87.68736324801255,"(41.81965772977082, -87.68736324801255)",2011-05-01
20978,05/01/2011,Completed,05/06/2011,11-01299626,Abandoned Vehicle Complaint,X708952,Saturn,Black,FVI - Outcome,Vehicle was moved from original address requested,7.0,1710 W OHIO ST,60622.0,,,1.0,13.0,24.0,,41.89249110681387,-87.67009996794863,"(41.89249110681387, -87.67009996794863)",2011-05-01
20979,05/01/2011,Completed,05/06/2011,11-01301000,Abandoned Vehicle Complaint,5784,Ford,Black,FVI - Outcome,Vehicle was moved from original address requested,7.0,3112 N WASHTENAW AVE,60618.0,,,1.0,14.0,21.0,,41.93817987937333,-87.6954080232755,"(41.93817987937333, -87.6954080232755)",2011-05-01
20980,05/01/2011,Completed,05/06/2011,11-01313303,Abandoned Vehicle Complaint,L306595,Oldsmobile,Gray,FVI - Outcome,Vehicle was moved from original address requested,111.0,5606 W THOMAS ST,60651.0,,,29.0,15.0,25.0,,41.900423313361046,-87.76592591976765,"(41.900423313361046, -87.76592591976765)",2011-05-01
20981,05/01/2011,Completed,05/09/2011,11-01304027,Abandoned Vehicle Complaint,0,Buick,Green,FVI - Outcome,Vehicle was moved from original address requested,60.0,4035 W JACKSON BLVD,60624.0,,,28.0,11.0,26.0,,41.87696012765674,-87.72695998882946,"(41.876960127656744, -87.72695998882945)",2011-05-01
20982,05/01/2011,Completed,05/09/2011,11-01309059,Abandoned Vehicle Complaint,2158010,Toyota,Beige,FVI - Outcome,Return to Owner - Vehicle,60.0,700 W QUINCY ST,60661.0,,,2.0,1.0,28.0,,41.87873138983826,-87.64407404327898,"(41.87873138983826, -87.64407404327899)",2011-05-01
20983,05/01/2011,Completed,05/09/2011,11-01310164,Abandoned Vehicle Complaint,G652571,Pontiac,White,FVI - Outcome,Return to Owner - Vehicle,30.0,1737 N HERMITAGE AVE,60622.0,,,32.0,14.0,24.0,,41.91345363033326,-87.67127988389298,"(41.91345363033326, -87.67127988389299)",2011-05-01
20984,05/01/2011,Completed,05/11/2011,11-01304019,Abandoned Vehicle Complaint,NO PLATES,Ford,White,FVI - Outcome,Vehicle was moved from original address requested,80.0,3065 N ELSTON AVE,60618.0,,,1.0,14.0,21.0,,41.9370402160104,-87.694678226798,"(41.937040216010395, -87.694678226798)",2011-05-01
20985,05/01/2011,Completed,05/12/2011,11-01311796,Abandoned Vehicle Complaint,438L196,Cadillac,Green,FVI - Outcome,Need Vehicle Tow Report,14.0,5476 S RIDGEWOOD CT,60615.0,,,4.0,21.0,41.0,,41.795930927664585,-87.59271334263903,"(41.795930927664585, -87.59271334263903)",2011-05-01
20986,05/01/2011,Completed,05/12/2011,11-01312415,Abandoned Vehicle Complaint,74256S,Ford,White,FVI - Outcome,Need Vehicle Tow Report,14.0,7817 S MORGAN ST,60620.0,,,17.0,6.0,71.0,32.0,41.75184892118578,-87.6487780924062,"(41.75184892118578, -87.64877809240619)",2011-05-01
20987,05/01/2011,Completed,05/13/2011,11-01309012,Abandoned Vehicle Complaint,H410946,Buick,Beige,FVI - Outcome,Vehicle was moved from original address requested,90.0,7236 S PAXTON AVE,60649.0,,,5.0,3.0,43.0,42.0,41.76327662759428,-87.5714644510406,"(41.76327662759428, -87.5714644510406)",2011-05-01
20988,05/01/2011,Completed,05/18/2011,11-01311185,Abandoned Vehicle Complaint,150M340,Dodge,Black,FVI - Outcome,Need Vehicle Tow Report,30.0,1720 W 77TH ST,60620.0,,,17.0,6.0,71.0,,41.75406100115114,-87.66686068667507,"(41.75406100115114, -87.66686068667508)",2011-05-01
20989,05/01/2011,Completed,05/19/2011,11-01316078,Abandoned Vehicle Complaint,X674707,Mercedes,Silver,FVI - Outcome,Vehicle was moved from original address requested,33.0,3904 N NEWCASTLE AVE,60634.0,,,38.0,16.0,17.0,,41.95110556657344,-87.79756750680889,"(41.95110556657344, -87.79756750680889)",2011-05-01
20990,05/01/2011,Completed,05/25/2011,11-01300705,Abandoned Vehicle Complaint,K517299,Chevrolet,Black,FVI - Outcome,Vehicle was moved from original address requested,,257 W 115TH ST,60628.0,,,34.0,5.0,53.0,,41.68512554030242,-87.62994335803069,"(41.68512554030242, -87.62994335803069)",2011-05-01
20991,05/01/2011,Completed,06/14/2011,11-01300944,Abandoned Vehicle Complaint,K144302,Oldsmobile,Red,FVI - Outcome,Need Vehicle Tow Report,30.0,5421 W GIDDINGS ST,60630.0,,,45.0,16.0,15.0,,41.966353690800545,-87.76337968985226,"(41.96635369080055, -87.76337968985227)",2011-05-01
20992,05/01/2011,Completed,06/14/2011,11-01307557,Abandoned Vehicle Complaint,G574524,Kia Motors Corp,Tan,FVI - Outcome,Need Vehicle Tow Report,90.0,5338 W AGATITE AVE,60630.0,,,45.0,16.0,15.0,,41.96157411151075,-87.76145954478817,"(41.96157411151075, -87.76145954478817)",2011-05-01
20993,05/01/2011,Completed,06/16/2011,11-01308208,Abandoned Vehicle Complaint,6311629,Chevrolet,Blue,FVI - Outcome,Vehicle was moved from original address requested,7.0,7800 S EUCLID AVE,60649.0,1190556.13782269,1853639.66047497,8.0,4.0,43.0,50.0,41.75331611013649,-87.57739145755154,"(41.753316110136495, -87.57739145755153)",2011-05-01
21064,05/02/2011,Completed - Dup,05/10/2011,11-01326982,Abandoned Vehicle Complaint,3720957,Honda,Green,FVI - Outcome,Create Work Order,15.0,3019 N LOWELL AVE,60641.0,1146795.7454292,1919815.65993013,31.0,25.0,20.0,,41.93592656219753,-87.73577898353778,"(41.93592656219753, -87.7357789835378)",2011-05-02
21065,05/02/2011,Completed - Dup,05/10/2011,11-01341167,Abandoned Vehicle Complaint,X831456,Ford,Tan,FVI - Outcome,Create Work Order,30.0,2922 N LOWELL AVE,60641.0,1146818.50992032,1919078.34389432,31.0,25.0,20.0,,41.93423227004645,-87.73601898889984,"(41.93423227004645, -87.73601898889984)",2011-05-02
21066,05/02/2011,Completed - Dup,05/12/2011,11-01326351,Abandoned Vehicle Complaint,L205967,Saturn,Black,FVI - Outcome,Create Work Order,15.0,4132 W ROSCOE ST,60641.0,1148099.59997368,1922279.85797066,30.0,17.0,16.0,,41.94279349347368,-87.73116660510233,"(41.94279349347368, -87.73116660510233)",2011-05-02
21067,05/02/2011,Completed - Dup,05/12/2011,11-01339448,Abandoned Vehicle Complaint,9711913,Dodge,Blue,FVI - Outcome,Create Work Order,21.0,8221 S LA SALLE ST,60620.0,1176707.93562673,1850468.27318495,21.0,6.0,44.0,,41.744762110103544,-87.62793517175331,"(41.74476211010354, -87.62793517175331)",2011-05-02
21068,05/02/2011,Completed - Dup,05/12/2011,11-01340144,Abandoned Vehicle Complaint,9711913,Dodge,Blue,FVI - Outcome,Create Work Order,21.0,8221 S LA SALLE ST,60620.0,1176707.93562673,1850468.27318495,21.0,6.0,44.0,,41.744762110103544,-87.62793517175331,"(41.74476211010354, -87.62793517175331)",2011-05-02
21069,05/02/2011,Completed - Dup,05/17/2011,11-01325632,Abandoned Vehicle Complaint,6410388,Buick,Tan,FVI - Outcome,Create Work Order,21.0,4439 S UNION AVE,60609.0,1172374.53000789,1875345.58000409,11.0,9.0,61.0,,41.81319327772178,-87.64308364027092,"(41.81319327772178, -87.64308364027092)",2011-05-02
21070,05/02/2011,Completed - Dup,05/17/2011,11-01343927,Abandoned Vehicle Complaint,A501220,Suzuki,Black,FVI - Outcome,Create Work Order,,1947 W CORNELIA AVE,60657.0,1162740.75161541,1923249.45100715,32.0,19.0,5.0,,41.94493194068843,-87.67792903560286,"(41.944931940688434, -87.67792903560286)",2011-05-02
21071,05/02/2011,Completed,05/03/2011,11-01331602,Abandoned Vehicle Complaint,HAS PLATES,Ford,Blue,FVI - Outcome,Vehicle was moved from original address requested,30.0,6000 N CENTRAL PARK AVE,60659.0,,,50.0,17.0,13.0,,41.99034632286377,-87.71901118895231,"(41.99034632286377, -87.71901118895232)",2011-05-02
21072,05/02/2011,Completed,05/03/2011,11-01332081,Abandoned Vehicle Complaint,A977596,Dodge,White,FVI - Outcome,Vehicle was moved from original address requested,90.0,3100 N TROY ST,60618.0,,,35.0,14.0,21.0,,41.93752457106734,-87.70649510904612,"(41.93752457106734, -87.70649510904613)",2011-05-02
21073,05/02/2011,Completed,05/03/2011,11-01334722,Abandoned Vehicle Complaint,K730098,Pontiac,Green,FVI - Outcome,Vehicle was moved from original address requested,2.0,2400 S CHRISTIANA AVE,60623.0,,,22.0,10.0,30.0,,41.84799738699449,-87.70894155411763,"(41.847997386994486, -87.70894155411763)",2011-05-02
21074,05/02/2011,Completed,05/03/2011,11-01335440,Abandoned Vehicle Complaint,X873451,Ford,Black,FVI - Outcome,Return to Owner - Vehicle,60.0,4711 S WABASH AVE,60615.0,,,3.0,2.0,38.0,56.0,41.808890497015796,-87.62429885767028,"(41.8088904970158, -87.62429885767028)",2011-05-02
21075,05/02/2011,Completed,05/03/2011,11-01336098,Abandoned Vehicle Complaint,113811TW,Ford,Black,FVI - Outcome,Vehicle was moved from original address requested,7.0,5000 W 50TH ST,60638.0,,,23.0,8.0,56.0,,41.80219065221611,-87.74796070328264,"(41.80219065221612, -87.74796070328264)",2011-05-02
21076,05/02/2011,Completed,05/03/2011,11-01338075,Abandoned Vehicle Complaint,7881875,Mitsubishi,White,FVI - Outcome,Vehicle was moved from original address requested,180.0,1936 W GRACE ST,60613.0,,,47.0,19.0,5.0,38.0,41.9506317139565,-87.67771418170545,"(41.950631713956504, -87.67771418170545)",2011-05-02
21077,05/02/2011,Completed,05/03/2011,11-01340373,Abandoned Vehicle Complaint,???????,Legacy Unknown,White,FVI - Outcome,Vehicle was moved from original address requested,365.0,5749 S DAMEN AVE,60636.0,,,15.0,7.0,67.0,,41.78882747202591,-87.67401063852175,"(41.78882747202591, -87.67401063852175)",2011-05-02
21078,05/02/2011,Completed,05/03/2011,11-01343939,Abandoned Vehicle Complaint,1 17057 WYOMING,Chevrolet,Tan,FVI - Outcome,Vehicle was moved from original address requested,,4753 N MAPLEWOOD AVE,60625.0,,,47.0,19.0,4.0,21.0,41.96827271191764,-87.69241587628224,"(41.96827271191764, -87.69241587628223)",2011-05-02
21079,05/02/2011,Completed,05/03/2011,11-01344406,Abandoned Vehicle Complaint,1691888,(Unlisted Make),Blue,FVI - Outcome,Return to Owner - Vehicle,14.0,6000 S AUSTIN AVE,60638.0,,,23.0,8.0,64.0,,41.7832722415265,-87.77184869817046,"(41.7832722415265, -87.77184869817046)",2011-05-02
21080,05/02/2011,Completed,05/04/2011,11-01332611,Abandoned Vehicle Complaint,X775707,Pontiac,Tan,FVI - Outcome,Vehicle was moved from original address requested,150.0,10900 S AVENUE J,60617.0,,,10.0,4.0,52.0,,41.69719663387749,-87.53422242684535,"(41.697196633877496, -87.53422242684535)",2011-05-02
21081,05/02/2011,Completed,05/04/2011,11-01336200,Abandoned Vehicle Complaint,6719446,Honda,Silver,FVI - Outcome,Vehicle was moved from original address requested,7.0,4959 W STRONG ST,60630.0,,,45.0,16.0,12.0,,41.970593917356226,-87.75267065501232,"(41.97059391735623, -87.75267065501232)",2011-05-02
21082,05/02/2011,Completed,05/05/2011,11-01334316,Abandoned Vehicle Complaint,K116382,Oldsmobile,Gold,FVI - Outcome,Vehicle was moved from original address requested,10.0,2921 S QUINN ST,60608.0,,,11.0,9.0,60.0,,41.84043833662447,-87.65000508690547,"(41.84043833662447, -87.65000508690547)",2011-05-02
21083,05/02/2011,Completed,05/05/2011,11-01334466,Abandoned Vehicle Complaint,G29 6943,Ford,Green,FVI - Outcome,Vehicle was moved from original address requested,,5369 S BLACKSTONE AVE,60615.0,,,4.0,21.0,41.0,61.0,41.798137462338474,-87.59025962971414,"(41.79813746233848, -87.59025962971414)",2011-05-02
21084,05/02/2011,Completed,05/05/2011,11-01336305,Abandoned Vehicle Complaint,',Chevrolet,Brown,FVI - Outcome,Vehicle was moved from original address requested,25.0,3644 S WINCHESTER AVE,60609.0,,,11.0,9.0,59.0,,41.827238312786534,-87.6741402523605,"(41.82723831278653, -87.6741402523605)",2011-05-02
21085,05/02/2011,Completed,05/05/2011,11-01338190,Abandoned Vehicle Complaint,K814608,Dodge,Green,FVI - Outcome,Vehicle was moved from original address requested,10.0,3432 S NORMAL AVE,60616.0,,,11.0,9.0,60.0,,41.83163591019085,-87.63896538443691,"(41.83163591019085, -87.6389653844369)",2011-05-02
21086,05/02/2011,Completed,05/05/2011,11-01339281,Abandoned Vehicle Complaint,1217128,Chevrolet,Blue,FVI - Outcome,Vehicle was moved from original address requested,14.0,442 W 43RD PL,60609.0,,,11.0,9.0,61.0,,41.81551345469304,-87.63769560291739,"(41.81551345469304, -87.63769560291739)",2011-05-02
21087,05/02/2011,Completed,05/06/2011,11-01330444,Abandoned Vehicle Complaint,H801729,Cadillac,Black,FVI - Outcome,Vehicle was moved from original address requested,14.0,3040 W ADDISON ST,60618.0,,,33.0,17.0,16.0,,41.94675887618046,-87.70460404020233,"(41.94675887618046, -87.70460404020233)",2011-05-02
21088,05/02/2011,Completed,05/06/2011,11-01331577,Abandoned Vehicle Complaint,A489848 ILLINOIS,Nissan,Maroon,FVI - Outcome,Return to Owner - Vehicle,7.0,5201 N HOYNE AVE,60625.0,,,40.0,20.0,4.0,,41.97604503343423,-87.68169983858189,"(41.976045033434225, -87.68169983858189)",2011-05-02
21089,05/02/2011,Completed,05/06/2011,11-01336963,Abandoned Vehicle Complaint,H948391,Oldsmobile,Maroon,FVI - Outcome,Vehicle was moved from original address requested,110410.0,2057 W ERIE ST,60612.0,,,26.0,13.0,24.0,29.0,41.89303195150745,-87.67922416801485,"(41.89303195150745, -87.67922416801485)",2011-05-02
21090,05/02/2011,Completed,05/06/2011,11-01340302,Abandoned Vehicle Complaint,L31 0895,Volvo,Black,FVI - Outcome,Vehicle was moved from original address requested,,2724 W 38TH PL,60632.0,,,12.0,9.0,58.0,,41.823836919898405,-87.69322117522766,"(41.82383691989841, -87.69322117522765)",2011-05-02
21091,05/02/2011,Completed,05/06/2011,11-01341172,Abandoned Vehicle Complaint,K550177,Honda,Black,FVI - Outcome,Vehicle was moved from original address requested,30.0,3337 W POLK ST,60624.0,,,24.0,11.0,27.0,,41.87080664004288,-87.70973715783288,"(41.87080664004288, -87.70973715783288)",2011-05-02
21093,05/02/2011,Completed,05/06/2011,11-01341946,Abandoned Vehicle Complaint,NONE,Ford,Red,FVI - Outcome,Vehicle was moved from original address requested,5.0,3325 W WARNER AVE,60618.0,,,33.0,17.0,16.0,,41.956523452711956,-87.71157900072916,"(41.956523452711956, -87.71157900072915)",2011-05-02
21094,05/02/2011,Completed,05/06/2011,11-01342468,Abandoned Vehicle Complaint,--------,Oldsmobile,Black,FVI - Outcome,Return to Owner - Vehicle,180.0,2723 W POPE JOHN PAUL II DR,60632.0,,,12.0,9.0,58.0,,41.815456181470644,-87.69296722511848,"(41.81545618147064, -87.69296722511848)",2011-05-02
21095,05/02/2011,Completed,05/06/2011,11-01342471,Abandoned Vehicle Complaint,-------,Chevrolet,Black,FVI - Outcome,Return to Owner - Vehicle,180.0,2723 W POPE JOHN PAUL II DR,60632.0,,,12.0,9.0,58.0,,41.815456181470644,-87.69296722511848,"(41.81545618147064, -87.69296722511848)",2011-05-02
21096,05/02/2011,Completed,05/09/2011,11-01328031,Abandoned Vehicle Complaint,NLP,Chrysler,Green,FVI - Outcome,Vehicle was moved from original address requested,7.0,2560 W 118TH PL,60655.0,,,19.0,22.0,75.0,,41.678236758046324,-87.68556942978992,"(41.678236758046324, -87.68556942978992)",2011-05-02
21097,05/02/2011,Completed,05/09/2011,11-01336032,Abandoned Vehicle Complaint,H816886,Chevrolet,Blue,FVI - Outcome,Vehicle was moved from original address requested,22.0,2109 N SAWYER AVE,60647.0,,,26.0,14.0,22.0,,41.9195257950843,-87.70884600500187,"(41.9195257950843, -87.70884600500187)",2011-05-02
21098,05/02/2011,Completed,05/09/2011,11-01343957,Abandoned Vehicle Complaint,K749614,Dodge,Gray,FVI - Outcome,Vehicle was moved from original address requested,30.0,1525 N SPRINGFIELD AVE,60651.0,,,30.0,25.0,23.0,,41.908866537746064,-87.72391101361298,"(41.90886653774606, -87.72391101361299)",2011-05-02
21099,05/02/2011,Completed,05/10/2011,11-01331564,Abandoned Vehicle Complaint,63017FF,Chevrolet,Red,FVI - Outcome,Vehicle was moved from original address requested,,3057 N LOWELL AVE,60641.0,,,31.0,25.0,20.0,,41.937064906590216,-87.73581533298542,"(41.937064906590216, -87.73581533298542)",2011-05-02
21100,05/02/2011,Completed,05/11/2011,11-01327277,Abandoned Vehicle Complaint,46-9482,Chevrolet,White,FVI - Outcome,Vehicle was moved from original address requested,144.0,3253 W POTOMAC AVE,60651.0,,,26.0,14.0,23.0,,41.9045326501861,-87.70893940827688,"(41.90453265018609, -87.70893940827688)",2011-05-02
21101,05/02/2011,Completed,05/11/2011,11-01328860,Abandoned Vehicle Complaint,DGB891,Ford,Blue,FVI - Outcome,Return to Owner - Vehicle,7.0,2118 W PIERCE AVE,60622.0,,,32.0,14.0,24.0,33.0,41.90942053080779,-87.68068390809161,"(41.9094205308078, -87.6806839080916)",2011-05-02
21102,05/02/2011,Completed,05/11/2011,11-01335991,Abandoned Vehicle Complaint,L61 6649,Pontiac,Green,FVI - Outcome,Vehicle was moved from original address requested,10.0,520 S LOCKWOOD AVE,60644.0,,,29.0,15.0,25.0,,41.87321849257345,-87.75757443410265,"(41.87321849257345, -87.75757443410266)",2011-05-02
21103,05/02/2011,Completed,05/11/2011,11-01338467,Abandoned Vehicle Complaint,NO PLATES,Chevrolet,Maroon,FVI - Outcome,Vehicle was moved from original address requested,14.0,1119 N AVERS AVE,60651.0,,,27.0,11.0,23.0,,41.901481232374394,-87.72246036589712,"(41.901481232374394, -87.72246036589713)",2011-05-02
21104,05/02/2011,Completed,05/12/2011,11-01333116,Abandoned Vehicle Complaint,K536216,Ford,Black,FVI - Outcome,Vehicle was moved from original address requested,21.0,955 W ROSCOE ST,60657.0,,,44.0,19.0,6.0,17.0,41.943464037214326,-87.65400398287899,"(41.94346403721433, -87.65400398287899)",2011-05-02
21105,05/02/2011,Completed,05/12/2011,11-01334760,Abandoned Vehicle Complaint,911 XDY,Hyundai,Blue,FVI - Outcome,Need Vehicle Tow Report,7.0,6969 N RAVENSWOOD AVE,60626.0,,,49.0,24.0,1.0,24.0,42.00855801348172,-87.67518202595814,"(42.00855801348172, -87.67518202595814)",2011-05-02
21106,05/02/2011,Completed,05/12/2011,11-01336331,Abandoned Vehicle Complaint,U29735,Chevrolet,Burgundy,FVI - Outcome,Need Vehicle Tow Report,14.0,2604 W 82ND PL,60652.0,,,18.0,8.0,70.0,,41.74375518689563,-87.68796874938954,"(41.74375518689563, -87.68796874938953)",2011-05-02
21107,05/02/2011,Completed,05/13/2011,11-01327201,Abandoned Vehicle Complaint,9708391,Toyota,Green,FVI - Outcome,Need Vehicle Tow Report,7.0,3829 W BERTEAU AVE,60618.0,,,39.0,17.0,16.0,,41.9572409465338,-87.72398813428184,"(41.9572409465338, -87.72398813428185)",2011-05-02
21108,05/02/2011,Completed,05/13/2011,11-01328168,Abandoned Vehicle Complaint,3529778,Lincoln,Red,FVI - Outcome,Need Vehicle Tow Report,7.0,3837 N KILPATRICK AVE,60641.0,,,38.0,17.0,15.0,28.0,41.95092404816194,-87.74452486672541,"(41.95092404816194, -87.7445248667254)",2011-05-02
21109,05/02/2011,Completed,05/13/2011,11-01337232,Abandoned Vehicle Complaint,1705326,Mazda,Blue,FVI - Outcome,Vehicle was moved from original address requested,33.0,3616 N HARDING AVE,60618.0,,,30.0,17.0,16.0,,41.94693051297421,-87.72633071769064,"(41.946930512974205, -87.72633071769064)",2011-05-02
21110,05/02/2011,Completed,05/13/2011,11-01338336,Abandoned Vehicle Complaint,K48 4483,Chevrolet,White,FVI - Outcome,Need Vehicle Tow Report,7.0,6153 N RICHMOND ST,60659.0,,,50.0,24.0,2.0,,41.99368532682374,-87.70300146456465,"(41.993685326823744, -87.70300146456466)",2011-05-02
21111,05/02/2011,Completed,05/13/2011,11-01348408,Abandoned Vehicle Complaint,K726246,Chrysler,Blue,FVI - Outcome,Vehicle was moved from original address requested,60.0,4800 W MELROSE ST,60641.0,,,30.0,16.0,15.0,,41.93984679782272,-87.74701735120141,"(41.93984679782272, -87.7470173512014)",2011-05-02
21112,05/02/2011,Completed,05/16/2011,11-01330963,Abandoned Vehicle Complaint,H821925,Cadillac,Red,FVI - Outcome,Vehicle was moved from original address requested,10.0,3338 N RAVENSWOOD AVE,60657.0,,,32.0,19.0,5.0,,41.942594385992976,-87.67411488932032,"(41.94259438599298, -87.67411488932031)",2011-05-02
21113,05/02/2011,Completed,05/17/2011,11-01339397,Abandoned Vehicle Complaint,1295188,Chevrolet,White,FVI - Outcome,Vehicle was moved from original address requested,365.0,764 E 104TH PL,60628.0,,,9.0,5.0,50.0,,41.70482027191253,-87.60461257780041,"(41.70482027191253, -87.6046125778004)",2011-05-02
21114,05/02/2011,Completed,05/18/2011,11-01335685,Abandoned Vehicle Complaint,D528536,Chevrolet,Black,FVI - Outcome,Need Vehicle Tow Report,30.0,6545 S WHIPPLE ST,60629.0,,,15.0,8.0,66.0,,41.77404886499113,-87.69920781094811,"(41.774048864991144, -87.69920781094811)",2011-05-02
21115,05/02/2011,Completed,05/18/2011,11-01337977,Abandoned Vehicle Complaint,H672310,Plymouth,Green,FVI - Outcome,Need Vehicle Tow Report,90.0,6542 S EBERHART AVE,60637.0,,,20.0,3.0,42.0,,41.775371170146705,-87.61325352426282,"(41.7753711701467, -87.61325352426282)",2011-05-02
21116,05/02/2011,Completed,05/18/2011,11-01346213,Abandoned Vehicle Complaint,L313024,Hyundai,White,FVI - Outcome,Need Vehicle Tow Report,7.0,6059 S RHODES AVE,60637.0,,,20.0,3.0,42.0,,41.78403748161894,-87.6118988316753,"(41.78403748161894, -87.6118988316753)",2011-05-02
21117,05/02/2011,Completed,05/18/2011,11-01347769,Abandoned Vehicle Complaint,3292109,Dodge,White,FVI - Outcome,Need Vehicle Tow Report,10.0,5745 N MAPLEWOOD AVE,60659.0,,,40.0,20.0,2.0,,41.98630712042974,-87.69303767926978,"(41.98630712042974, -87.69303767926976)",2011-05-02
21118,05/02/2011,Completed,05/19/2011,11-01326524,Abandoned Vehicle Complaint,,,,,,,1608 N NATCHEZ AVE,60707.0,,,36.0,25.0,25.0,,41.90942005393351,-87.7884207387662,"(41.90942005393351, -87.7884207387662)",2011-05-02
21119,05/02/2011,Completed,05/19/2011,11-01331843,Abandoned Vehicle Complaint,CALLER CAN'T SEE,Jeep/Cherokee,Red,FVI - Outcome,Vehicle was moved from original address requested,8.0,6342 W PATTERSON AVE,60634.0,,,38.0,16.0,17.0,,41.94669463619853,-87.7855610600086,"(41.946694636198536, -87.7855610600086)",2011-05-02
21120,05/02/2011,Completed,05/19/2011,11-01342323,Abandoned Vehicle Complaint,NONE,Dodge,White,FVI - Outcome,Vehicle was moved from original address requested,7.0,7932 S LOOMIS BLVD,60620.0,,,21.0,6.0,71.0,32.0,41.749394859868744,-87.65870928332535,"(41.74939485986874, -87.65870928332535)",2011-05-02
21121,05/02/2011,Completed,05/23/2011,11-01331230,Abandoned Vehicle Complaint,,,,,,,3626 W 73RD ST,60629.0,1153311.83571793,1855937.14731607,13.0,8.0,65.0,,41.76063696089194,-87.71365710505056,"(41.760636960891944, -87.71365710505056)",2011-05-02
21122,05/02/2011,Completed,05/23/2011,11-01337059,Abandoned Vehicle Complaint,X774987,Chevrolet,Burgundy,FVI - Outcome,Need Vehicle Tow Report,120.0,6612 S HOYNE AVE,60636.0,,,15.0,7.0,67.0,,41.77342941747861,-87.67633067024722,"(41.77342941747861, -87.67633067024724)",2011-05-02
21123,05/02/2011,Completed,05/24/2011,11-01339475,Abandoned Vehicle Complaint,703M401,Buick,Blue,FVI - Outcome,Vehicle was moved from original address requested,25.0,12540 S UNION AVE,60628.0,,,34.0,5.0,53.0,,41.665699329240944,-87.63924125985895,"(41.665699329240944, -87.63924125985895)",2011-05-02
21124,05/02/2011,Completed,05/24/2011,11-01341881,Abandoned Vehicle Complaint,A761490,Cadillac,White,FVI - Outcome,Vehicle was moved from original address requested,14.0,1800 W 34TH PL,60608.0,,,11.0,9.0,59.0,,41.831472129073774,-87.67054543848595,"(41.83147212907377, -87.67054543848595)",2011-05-02
21125,05/02/2011,Completed,05/25/2011,11-01335967,Abandoned Vehicle Complaint,CC5762,Honda,Black,FVI - Outcome,Need Vehicle Tow Report,14.0,902 W WRIGHTWOOD AVE,60614.0,,,43.0,19.0,7.0,,41.92915409772729,-87.65145670864005,"(41.92915409772729, -87.65145670864007)",2011-05-02
21126,05/02/2011,Completed,05/27/2011,11-01332661,Abandoned Vehicle Complaint,204DDM,Dodge,Maroon,FVI - Outcome,Return to Owner - Vehicle,10.0,10029 S PRINCETON AVE,60628.0,,,9.0,5.0,49.0,,41.71167462327157,-87.63068246176388,"(41.71167462327157, -87.63068246176387)",2011-05-02
21127,05/02/2011,Completed,06/02/2011,11-01333367,Abandoned Vehicle Complaint,H737355,Hyundai,Gold,FVI - Outcome,Vehicle was moved from original address requested,21.0,8153 S EXCHANGE AVE,60617.0,,,7.0,4.0,46.0,,41.74668805690335,-87.55265168909816,"(41.746688056903345, -87.55265168909814)",2011-05-02
21128,05/02/2011,Completed,06/07/2011,11-01334328,Abandoned Vehicle Complaint,L225954,Mazda,Black,FVI - Outcome,Vehicle was moved from original address requested,18.0,3641 N LINDER AVE,60641.0,,,38.0,16.0,15.0,,41.94713523416918,-87.76419137407335,"(41.94713523416918, -87.76419137407335)",2011-05-02
21129,05/02/2011,Completed,06/07/2011,11-01345449,Abandoned Vehicle Complaint,L607986,Ford,Red,FVI - Outcome,Need Vehicle Tow Report,21.0,2654 N ASHLAND AVE,60614.0,,,32.0,19.0,7.0,,41.93029489760751,-87.66847211231718,"(41.93029489760751, -87.66847211231718)",2011-05-02
21130,05/02/2011,Completed,06/13/2011,11-01334452,Abandoned Vehicle Complaint,K120772,Mitsubishi,Gray,FVI - Outcome,Need Vehicle Tow Report,7.0,3016 N NEENAH AVE,60634.0,,,36.0,25.0,19.0,,41.93515296887657,-87.78963942058895,"(41.935152968876565, -87.78963942058895)",2011-05-02
21131,05/02/2011,Completed,08/18/2011,11-01349883,Abandoned Vehicle Complaint,K68 7036,Mercury,Blue,FVI - Outcome,Need Vehicle Tow Report,7.0,5942 S TRIPP AVE,60629.0,,,13.0,8.0,65.0,,41.78459560856997,-87.72918338612128,"(41.784595608569965, -87.72918338612126)",2011-05-02
21200,05/03/2011,Completed - Dup,05/04/2011,11-01363994,Abandoned Vehicle Complaint,NO PLATES,Lincoln,Blue,FVI - Outcome,Create Work Order,60.0,7914 S TROY ST,60652.0,1156754.75000154,1851908.79997361,18.0,8.0,70.0,,41.74918575108277,-87.7013034069453,"(41.74918575108277, -87.70130340694529)",2011-05-03
21201,05/03/2011,Completed - Dup,05/05/2011,11-01367014,Abandoned Vehicle Complaint,2745939,Oldsmobile,White,FVI - Outcome,Create Work Order,60.0,8131 S HERMITAGE AVE,60620.0,1166093.76330386,1850772.86787657,18.0,6.0,71.0,,41.745730203178304,-87.66681728222343,"(41.745730203178304, -87.66681728222343)",2011-05-03
21202,05/03/2011,Completed - Dup,05/06/2011,11-01369643,Abandoned Vehicle Complaint,L306595,Oldsmobile,Gray,FVI - Outcome,Create Work Order,90.0,5606 W THOMAS ST,60651.0,1138747.1087171002,1906775.95222746,29.0,15.0,25.0,,41.900423313361046,-87.76592591976765,"(41.900423313361046, -87.76592591976765)",2011-05-03
21203,05/03/2011,Completed - Dup,05/12/2011,11-01361719,Abandoned Vehicle Complaint,86428X,Legacy Unknown,White,FVI - Outcome,Create Work Order,3.0,7155 W ARMITAGE AVE,60707.0,1128202.94487689,1912500.37576759,36.0,25.0,25.0,,41.916099529350795,-87.80448742980688,"(41.916099529350795, -87.80448742980688)",2011-05-03
21204,05/03/2011,Completed - Dup,05/12/2011,11-01362405,Abandoned Vehicle Complaint,K422352,Dodge,White,FVI - Outcome,Create Work Order,21.0,2711 N SACRAMENTO AVE,60647.0,1155911.64650552,1917872.80557358,35.0,14.0,22.0,,41.9306111872552,-87.70233549368643,"(41.930611187255195, -87.70233549368642)",2011-05-03
21205,05/03/2011,Completed - Dup,05/12/2011,11-01365128,Abandoned Vehicle Complaint,V908RU,Chevrolet,White,FVI - Outcome,Create Work Order,21.0,212 E 69TH PL,60637.0,1178848.36442704,1858984.81010831,6.0,3.0,69.0,,41.76846747565418,-87.61961690046938,"(41.76846747565418, -87.61961690046938)",2011-05-03
21206,05/03/2011,Completed - Dup,05/12/2011,11-01369994,Abandoned Vehicle Complaint,A984689,Mercury,Green,Place 7 Day Sticker,Follow on Activity was created,21.0,3708 N CENTRAL PARK AVE,60618.0,1151730.89316679,1924415.07568204,35.0,17.0,16.0,,41.948641148393015,-87.71782000581958,"(41.948641148393015, -87.71782000581958)",2011-05-03
21207,05/03/2011,Completed - Dup,05/12/2011,11-01380239,Abandoned Vehicle Complaint,X76 1582,Volkswagen,Blue,FVI - Outcome,Create Work Order,,3604 W DICKENS AVE,60647.0,1152009.48829612,1913717.5118288002,26.0,25.0,22.0,,41.91922028529842,-87.71710470853421,"(41.91922028529842, -87.71710470853421)",2011-05-03
21208,05/03/2011,Completed - Dup,05/13/2011,11-01362232,Abandoned Vehicle Complaint,H695505,Chevrolet,Black,FVI - Outcome,Create Work Order,30.0,4416 S MICHIGAN AVE,60653.0,1177894.92538934,1875781.62998676,3.0,2.0,38.0,,41.814177380270564,-87.62311518948107,"(41.81417738027056, -87.62311518948107)",2011-05-03
21209,05/03/2011,Completed - Dup,05/17/2011,11-01369965,Abandoned Vehicle Complaint,H238372,,Black,FVI - Outcome,Create Work Order,250.0,3915 W IRVING PARK RD,60618.0,1149519.09250157,1926294.88898157,39.0,17.0,16.0,,41.9535655929478,-87.72572930532968,"(41.9535655929478, -87.72572930532968)",2011-05-03
21210,05/03/2011,Completed - Dup,05/25/2011,11-01361888,Abandoned Vehicle Complaint,H939331,Nissan,White,FVI - Outcome,Create Work Order,28.0,3605 E 102ND ST,60617.0,1201876.88821974,1837938.60137314,10.0,4.0,52.0,,41.70993396697546,-87.536261140507,"(41.70993396697546, -87.53626114050698)",2011-05-03
21211,05/03/2011,Completed - Dup,05/25/2011,11-01367940,Abandoned Vehicle Complaint,6550506,Honda,Black,FVI - Outcome,Create Work Order,30.0,4507 W BYRON ST,60641.0,1145385.29837778,1925540.30996849,38.0,17.0,16.0,,41.951570431000704,-87.7412816395765,"(41.951570431000704, -87.7412816395765)",2011-05-03
21212,05/03/2011,Completed - Dup,05/26/2011,11-01361444,Abandoned Vehicle Complaint,K587058,Toyota,Blue,FVI - Outcome,Create Work Order,15.0,1752 W NELSON ST,60657.0,1164120.79157561,1920294.86000505,32.0,19.0,6.0,,41.93701350868356,-87.67303511186697,"(41.93701350868356, -87.67303511186697)",2011-05-03
21213,05/03/2011,Completed - Dup,06/07/2011,11-01364722,Abandoned Vehicle Complaint,L225954,Mazda,Black,FVI - Outcome,Create Work Order,30.0,3641 N LINDER AVE,60641.0,1139043.67969811,1923668.1295166,38.0,16.0,15.0,,41.94713523416918,-87.76419137407335,"(41.94713523416918, -87.76419137407335)",2011-05-03
21214,05/03/2011,Completed,05/04/2011,11-01353823,Abandoned Vehicle Complaint,4984849,Ford,Red,FVI - Outcome,Return to Owner - Vehicle,30.0,4631 S FRANCISCO AVE,60632.0,,,14.0,9.0,58.0,,41.80912160048895,-87.69653225340628,"(41.80912160048895, -87.69653225340628)",2011-05-03
21215,05/03/2011,Completed,05/04/2011,11-01361356,Abandoned Vehicle Complaint,AACG93,Chevrolet,Red,FVI - Outcome,Vehicle was moved from original address requested,10.0,3724 N PLAINFIELD AVE,60634.0,,,36.0,16.0,17.0,,41.947406109874116,-87.8342268530967,"(41.947406109874116, -87.83422685309671)",2011-05-03
21216,05/03/2011,Completed,05/04/2011,11-01361382,Abandoned Vehicle Complaint,9896709,Buick,White,FVI - Outcome,Vehicle was moved from original address requested,30.0,5300 S MORGAN ST,60609.0,,,16.0,9.0,61.0,,41.797724000558304,-87.65025135170059,"(41.797724000558304, -87.65025135170059)",2011-05-03
21217,05/03/2011,Completed,05/04/2011,11-01361791,Abandoned Vehicle Complaint,11760V,Cadillac,White,FVI - Outcome,Vehicle was moved from original address requested,3.0,7162 W ARMITAGE AVE,60707.0,,,36.0,25.0,25.0,,41.916315246593385,-87.80479174556733,"(41.916315246593385, -87.80479174556731)",2011-05-03
21218,05/03/2011,Completed,05/04/2011,11-01363945,Abandoned Vehicle Complaint,NO PLATES,Chevrolet,Green,FVI - Outcome,Vehicle was moved from original address requested,60.0,7914 S TROY ST,60652.0,,,18.0,8.0,70.0,,41.74918575108277,-87.7013034069453,"(41.74918575108277, -87.70130340694529)",2011-05-03
21219,05/03/2011,Completed,05/04/2011,11-01367022,Abandoned Vehicle Complaint,18ACS,Ford,White,FVI - Outcome,Vehicle was moved from original address requested,65.0,5030 S LAWNDALE AVE,60632.0,,,14.0,8.0,62.0,,41.801537715241494,-87.71617568737051,"(41.80153771524149, -87.71617568737051)",2011-05-03
21220,05/03/2011,Completed,05/04/2011,11-01367367,Abandoned Vehicle Complaint,113811TW,Ford,Black,FVI - Outcome,Vehicle was moved from original address requested,10.0,5000 W 50TH ST,60638.0,,,23.0,8.0,56.0,,41.80219065221611,-87.74796070328264,"(41.80219065221612, -87.74796070328264)",2011-05-03
21221,05/03/2011,Completed,05/04/2011,11-01372495,Abandoned Vehicle Complaint,QUARATA,Chrysler,Silver,FVI - Outcome,Vehicle was moved from original address requested,21.0,5500 N MONT CLARE AVE,60656.0,,,41.0,16.0,10.0,,41.981099957759255,-87.80480056032755,"(41.981099957759255, -87.80480056032754)",2011-05-03
21222,05/03/2011,Completed,05/04/2011,11-01374333,Abandoned Vehicle Complaint,L313024,,White,FVI - Outcome,Vehicle was moved from original address requested,,6057 S RHODES AVE,60637.0,,,20.0,3.0,42.0,,41.78409405539367,-87.61190048803087,"(41.784094055393666, -87.61190048803088)",2011-05-03
21223,05/03/2011,Completed,05/04/2011,11-01375913,Abandoned Vehicle Complaint,DUMPSTER WITH NO LIC PLATE,,Orange,FVI - Outcome,Vehicle was moved from original address requested,,6700 W TALCOTT AVE,60656.0,,,41.0,16.0,10.0,,41.97876695057925,-87.79546061337959,"(41.97876695057925, -87.79546061337959)",2011-05-03
21224,05/03/2011,Completed,05/05/2011,11-01359213,Abandoned Vehicle Complaint,UNKNOWN,Ford,Black,FVI - Outcome,Vehicle was moved from original address requested,30.0,400 S PEORIA ST,60607.0,,,2.0,12.0,28.0,,41.876594845361794,-87.64968320280742,"(41.8765948453618, -87.64968320280742)",2011-05-03
21225,05/03/2011,Completed,05/05/2011,11-01360938,Abandoned Vehicle Complaint,X822939,Mercury,Burgundy,FVI - Outcome,Vehicle was moved from original address requested,30.0,517 E 91ST ST,60619.0,,,6.0,6.0,44.0,,41.729139324582285,-87.6111888404845,"(41.72913932458228, -87.6111888404845)",2011-05-03
21226,05/03/2011,Completed,05/05/2011,11-01361259,Abandoned Vehicle Complaint,UNKNOWN,Buick,Burgundy,FVI - Outcome,Vehicle was moved from original address requested,45.0,5000 S ST LAWRENCE AVE,60615.0,,,4.0,2.0,38.0,,41.80395428826452,-87.61147406309088,"(41.80395428826452, -87.61147406309087)",2011-05-03
21227,05/03/2011,Completed,05/05/2011,11-01364056,Abandoned Vehicle Complaint,NONE,Jeep - Year Greater 1988,Blue,FVI - Outcome,Need Vehicle Tow Report,60.0,3735 N BERNARD ST,60618.0,,,35.0,17.0,16.0,,41.94943068220499,-87.71387128124832,"(41.94943068220499, -87.71387128124832)",2011-05-03
21228,05/03/2011,Completed,05/05/2011,11-01368616,Abandoned Vehicle Complaint,6135146,Mazda,Black,FVI - Outcome,Vehicle was moved from original address requested,60.0,2900 S THROOP ST,60608.0,,,11.0,9.0,60.0,,41.841338498834894,-87.65245294295998,"(41.84133849883489, -87.65245294295997)",2011-05-03
21229,05/03/2011,Completed,05/05/2011,11-01370013,Abandoned Vehicle Complaint,,Chevrolet,White,FVI - Outcome,Vehicle was moved from original address requested,,2217 S WOOD ST,60608.0,,,25.0,10.0,31.0,,41.85170139482489,-87.67077396141569,"(41.851701394824886, -87.67077396141568)",2011-05-03
21230,05/03/2011,Completed,05/05/2011,11-01372141,Abandoned Vehicle Complaint,K981012,Ford,Blue,FVI - Outcome,Vehicle was moved from original address requested,15.0,8100 S RHODES AVE,60619.0,,,6.0,6.0,44.0,,41.74742955756643,-87.6113374505661,"(41.74742955756643, -87.6113374505661)",2011-05-03
21231,05/03/2011,Completed,05/05/2011,11-01374338,Abandoned Vehicle Complaint,L968465,Chevrolet,Beige,FVI - Outcome,Return to Owner - Vehicle,14.0,5316 S RIDGEWAY AVE,60632.0,,,23.0,8.0,62.0,,41.796422432243745,-87.71726766166937,"(41.796422432243745, -87.71726766166938)",2011-05-03
21232,05/03/2011,Completed,05/06/2011,11-01362414,Abandoned Vehicle Complaint,H94 1534,Honda,Silver,FVI - Outcome,Vehicle was moved from original address requested,,3032 W 38TH ST,60632.0,,,12.0,9.0,58.0,,41.82459504985295,-87.70089622397013,"(41.824595049852945, -87.70089622397013)",2011-05-03
21233,05/03/2011,Completed,05/06/2011,11-01368059,Abandoned Vehicle Complaint,K402247,Ford,Brown,FVI - Outcome,Vehicle was moved from original address requested,150.0,5655 W 63RD PL,60638.0,,,13.0,8.0,64.0,,41.777002406880534,-87.76385811578785,"(41.77700240688053, -87.76385811578785)",2011-05-03
21234,05/03/2011,Completed,05/09/2011,11-01361473,Abandoned Vehicle Complaint,9042DL,Honda,Black,FVI - Outcome,Vehicle was moved from original address requested,7.0,4604 W DICKENS AVE,60639.0,,,31.0,25.0,19.0,,41.918920955623754,-87.74193768094057,"(41.918920955623754, -87.74193768094057)",2011-05-03
21235,05/03/2011,Completed,05/09/2011,11-01364037,Abandoned Vehicle Complaint,NO PLATES,Honda,Gray,FVI - Outcome,Need Vehicle Tow Report,60.0,7910 S ALBANY AVE,60652.0,,,18.0,8.0,70.0,,41.749370265941316,-87.70008814977993,"(41.74937026594132, -87.70008814977993)",2011-05-03
21236,05/03/2011,Completed,05/09/2011,11-01365368,Abandoned Vehicle Complaint,BUU2604,Chevrolet,Black,FVI - Outcome,Vehicle was moved from original address requested,30.0,656 W WRIGHTWOOD AVE,60614.0,1171576.07541636,1917596.63069242,43.0,19.0,7.0,23.0,41.929307547403056,-87.64502913270634,"(41.929307547403056, -87.64502913270634)",2011-05-03
21237,05/03/2011,Completed,05/09/2011,11-01366158,Abandoned Vehicle Complaint,3425211,Chevrolet,Black,FVI - Outcome,Vehicle was moved from original address requested,15.0,9159 S HARVARD AVE,60620.0,,,21.0,6.0,49.0,,41.72734346124126,-87.63196174301805,"(41.72734346124126, -87.63196174301807)",2011-05-03
21238,05/03/2011,Completed,05/09/2011,11-01371492,Abandoned Vehicle Complaint,TEM. PLATE (((( TWO TIRES MISSING)),Mercedes,Green,FVI - Outcome,Need Vehicle Tow Report,30.0,8723 S BUFFALO AVE,60617.0,,,10.0,4.0,46.0,,41.73675791592638,-87.54430963860433,"(41.73675791592638, -87.54430963860435)",2011-05-03
21239,05/03/2011,Completed,05/13/2011,11-01367272,Abandoned Vehicle Complaint,K980008,Honda,White,FVI - Outcome,Return to Owner - Vehicle,10.0,4855 W STRONG ST,60630.0,,,45.0,16.0,12.0,,41.970628665958785,-87.75003349456742,"(41.97062866595878, -87.75003349456742)",2011-05-03
21240,05/03/2011,Completed,05/10/2011,11-01361466,Abandoned Vehicle Complaint,NO PLATES,Chevrolet,Gray,FVI - Outcome,Vehicle was moved from original address requested,21.0,9560 S CONSTANCE AVE,60617.0,,,7.0,4.0,51.0,,41.72070128068542,-87.5790867206921,"(41.72070128068542, -87.57908672069209)",2011-05-03
21241,05/03/2011,Completed,05/10/2011,11-01375488,Abandoned Vehicle Complaint,6311629,Chevrolet,White,FVI - Outcome,Vehicle was moved from original address requested,7.0,1932 E 78TH ST,60649.0,,,8.0,4.0,43.0,,41.75351934292119,-87.5771882921072,"(41.75351934292119, -87.5771882921072)",2011-05-03
21242,05/03/2011,Completed,05/10/2011,11-01375924,Abandoned Vehicle Complaint,BLW6029,Ford,Black,FVI - Outcome,Vehicle was moved from original address requested,90.0,1511 N NORTH PARK AVE,60610.0,,,27.0,18.0,8.0,48.0,41.909733285765206,-87.63647268441143,"(41.909733285765206, -87.63647268441142)",2011-05-03
21243,05/03/2011,Completed,05/10/2011,11-01375927,Abandoned Vehicle Complaint,9222871,Honda,Silver,FVI - Outcome,Vehicle was moved from original address requested,30.0,1513 N NORTH PARK AVE,60610.0,,,27.0,18.0,8.0,48.0,41.90978839366521,-87.63647429668009,"(41.90978839366521, -87.6364742966801)",2011-05-03
21244,05/03/2011,Completed,05/11/2011,11-01367510,Abandoned Vehicle Complaint,NONE,Dodge,Blue,FVI - Outcome,Need Vehicle Tow Report,16.0,6227 N NORDICA AVE,60631.0,,,41.0,16.0,10.0,,41.99519692484633,-87.80218979256344,"(41.995196924846326, -87.80218979256344)",2011-05-03
21245,05/03/2011,Completed,05/11/2011,11-01367675,Abandoned Vehicle Complaint,9398591,Acura,Green,FVI - Outcome,Vehicle was moved from original address requested,21.0,5121 W MEDILL AVE,60639.0,,,31.0,25.0,19.0,,41.923105904796635,-87.75453812588627,"(41.92310590479664, -87.75453812588626)",2011-05-03
21246,05/03/2011,Completed,05/11/2011,11-01376687,Abandoned Vehicle Complaint,139 6740,Chevrolet,Burgundy,FVI - Outcome,Vehicle was moved from original address requested,,2038 N LATROBE AVE,60639.0,,,37.0,25.0,19.0,,41.91787757888522,-87.75733853095676,"(41.91787757888522, -87.75733853095677)",2011-05-03
21247,05/03/2011,Completed,05/12/2011,11-01357759,Abandoned Vehicle Complaint,X531664,Toyota,Tan,FVI - Outcome,Return to Owner - Vehicle,30.0,2614 N HAMLIN AVE,60647.0,,,35.0,25.0,22.0,,41.928689535719,-87.72214958657585,"(41.928689535718995, -87.72214958657584)",2011-05-03
21248,05/03/2011,Completed,05/12/2011,11-01360352,Abandoned Vehicle Complaint,90533PV,Jeep/Cherokee,Beige,FVI - Outcome,Need Vehicle Tow Report,60.0,5247 S MICHIGAN AVE,60615.0,,,3.0,2.0,40.0,,41.798641491837145,-87.62242031216907,"(41.79864149183715, -87.62242031216908)",2011-05-03
21249,05/03/2011,Completed,05/12/2011,11-01360446,Abandoned Vehicle Complaint,5949102,Bmw,Red,FVI - Outcome,Need Vehicle Tow Report,20.0,2207 S TRUMBULL AVE,60623.0,,,22.0,10.0,30.0,,41.85146873153721,-87.71122712887173,"(41.85146873153721, -87.71122712887174)",2011-05-03
21250,05/03/2011,Completed,05/12/2011,11-01361866,Abandoned Vehicle Complaint,36376US,Honda,Green,FVI - Outcome,Need Vehicle Tow Report,30.0,3251 S WALLACE ST,60616.0,,,11.0,9.0,60.0,,41.834783145981376,-87.64118296399441,"(41.834783145981376, -87.6411829639944)",2011-05-03
21251,05/03/2011,Completed,05/12/2011,11-01365046,Abandoned Vehicle Complaint,133948,Chrysler,White,FVI - Outcome,Vehicle was moved from original address requested,8.0,847 N LAWLER AVE,60651.0,,,37.0,15.0,25.0,,41.896397723076014,-87.75181747522787,"(41.896397723076014, -87.75181747522787)",2011-05-03
21252,05/03/2011,Completed,05/12/2011,11-01368713,Abandoned Vehicle Complaint,9275458,Jeep - Year Greater 1988,Black,FVI - Outcome,Vehicle was moved from original address requested,10.0,1226 W WELLINGTON AVE,60657.0,,,32.0,19.0,6.0,27.0,41.93628932446088,-87.65993740830177,"(41.93628932446088, -87.65993740830177)",2011-05-03
21253,05/03/2011,Completed,05/12/2011,11-01373088,Abandoned Vehicle Complaint,X478066,Chevrolet,Black,FVI - Outcome,Vehicle was moved from original address requested,7.0,2734 W POTOMAC AVE,60622.0,,,26.0,14.0,24.0,,41.904870857584136,-87.69588687737298,"(41.90487085758413, -87.69588687737298)",2011-05-03
21254,05/03/2011,Completed,05/12/2011,11-01379691,Abandoned Vehicle Complaint,H939871,Pontiac,Gray,FVI - Outcome,Vehicle was moved from original address requested,8.0,3023 W FULTON BLVD,60612.0,,,27.0,13.0,27.0,,41.8863600592812,-87.70229737355079,"(41.8863600592812, -87.7022973735508)",2011-05-03
21255,05/03/2011,Completed,05/12/2011,11-01380238,Abandoned Vehicle Complaint,X68 1582,Geo/Metro,Red,FVI - Outcome,Vehicle was moved from original address requested,,3604 W DICKENS AVE,60647.0,,,26.0,25.0,22.0,,41.91922028529842,-87.71710470853421,"(41.91922028529842, -87.71710470853421)",2011-05-03
21256,05/03/2011,Completed,05/12/2011,11-01381722,Abandoned Vehicle Complaint,K688587,(Unlisted Manufacturer),White,FVI - Outcome,Vehicle was moved from original address requested,,1472 W HUBBARD ST,60642.0,,,27.0,13.0,24.0,,41.890019010965254,-87.66508306461301,"(41.89001901096525, -87.66508306461301)",2011-05-03
21257,05/03/2011,Completed,05/13/2011,11-01357735,Abandoned Vehicle Complaint,7881875,Mitsubishi,White,FVI - Outcome,Need Vehicle Tow Report,7.0,1934 W GRACE ST,60613.0,,,47.0,19.0,5.0,38.0,41.95063275959762,-87.67763942364607,"(41.950632759597624, -87.67763942364606)",2011-05-03
21258,05/03/2011,Completed,05/13/2011,11-01360204,Abandoned Vehicle Complaint,15092 W B TRUCK,Dodge,White,FVI - Outcome,Need Vehicle Tow Report,7.0,5041 N KENNISON AVE,60630.0,,,39.0,17.0,14.0,,41.97281570043342,-87.74176156333394,"(41.97281570043342, -87.74176156333394)",2011-05-03
21259,05/03/2011,Completed,05/13/2011,11-01361114,Abandoned Vehicle Complaint,A977596,Dodge,White,FVI - Outcome,Need Vehicle Tow Report,7.0,3142 W BARRY AVE,60618.0,,,35.0,14.0,21.0,,41.937623044635636,-87.70683649148272,"(41.937623044635636, -87.70683649148272)",2011-05-03
21260,05/03/2011,Completed,05/13/2011,11-01362993,Abandoned Vehicle Complaint,37331H,Toyota,Black,FVI - Outcome,Need Vehicle Tow Report,10.0,2553 W 59TH ST,60629.0,,,16.0,8.0,66.0,59.0,41.786381465222256,-87.68840129208611,"(41.78638146522226, -87.68840129208611)",2011-05-03
21261,05/03/2011,Completed,05/13/2011,11-01370714,Abandoned Vehicle Complaint,55241TE,Low Boy Trailer,Green,FVI - Outcome,Return to Owner - Vehicle,8.0,3601 W 86TH PL,60652.0,,,18.0,8.0,70.0,,41.73582070594003,-87.71204142634018,"(41.73582070594003, -87.71204142634018)",2011-05-03
21262,05/03/2011,Completed,05/13/2011,11-01374330,Abandoned Vehicle Complaint,IL  A14 0788,General Motors Corp.,Red,FVI - Outcome,Vehicle was moved from original address requested,,1944 W FARGO AVE,60626.0,,,49.0,24.0,1.0,,42.01674894172701,-87.67944927220482,"(42.01674894172701, -87.67944927220482)",2011-05-03
21263,05/03/2011,Completed,05/17/2011,11-01362725,Abandoned Vehicle Complaint,HAS PLATES EXPIRED,Dodge,Gray,FVI - Outcome,Vehicle was moved from original address requested,30.0,300 E 119TH ST,60628.0,,,9.0,5.0,53.0,40.0,41.67822825361663,-87.61653777778757,"(41.67822825361663, -87.61653777778756)",2011-05-03
21264,05/03/2011,Completed,05/17/2011,11-01366239,Abandoned Vehicle Complaint,8219821,,Gray,FVI - Outcome,Vehicle was moved from original address requested,14.0,5337 W WILSON AVE,60630.0,,,45.0,16.0,15.0,,41.96451704080925,-87.76159657522507,"(41.96451704080925, -87.76159657522506)",2011-05-03
21265,05/03/2011,Completed,05/17/2011,11-01369945,Abandoned Vehicle Complaint,G917841,Infiniti/M30,Black,FVI - Outcome,Vehicle was moved from original address requested,30.0,10909 S COTTAGE GROVE AVE,60628.0,,,9.0,5.0,50.0,,41.69608664717804,-87.6089453328002,"(41.696086647178035, -87.6089453328002)",2011-05-03
21266,05/03/2011,Completed,05/18/2011,11-01356212,Abandoned Vehicle Complaint,6419906,Hyundai,Silver,FVI - Outcome,Need Vehicle Tow Report,7.0,4636 S WOOD ST,60609.0,,,20.0,9.0,61.0,10.0,41.80926610183277,-87.66999768116058,"(41.80926610183277, -87.66999768116058)",2011-05-03
21267,05/03/2011,Completed,05/18/2011,11-01359275,Abandoned Vehicle Complaint,G590945,Chevrolet,Red,FVI - Outcome,Need Vehicle Tow Report,20.0,2646 S KEDVALE AVE,60623.0,,,22.0,10.0,30.0,25.0,41.84279507957977,-87.72830662599094,"(41.842795079579766, -87.72830662599095)",2011-05-03
21268,05/03/2011,Completed,05/18/2011,11-01361291,Abandoned Vehicle Complaint,K801530,Volvo,Blue,FVI - Outcome,Need Vehicle Tow Report,7.0,5463 N LIEB AVE,60630.0,,,45.0,16.0,11.0,,41.9796422498248,-87.7594830553908,"(41.9796422498248, -87.7594830553908)",2011-05-03
21269,05/03/2011,Completed,05/18/2011,11-01361381,Abandoned Vehicle Complaint,H238372,Ford,Black,FVI - Outcome,Need Vehicle Tow Report,10.0,3915 W IRVING PARK RD,60618.0,,,39.0,17.0,16.0,,41.9535655929478,-87.72572930532968,"(41.9535655929478, -87.72572930532968)",2011-05-03
21270,05/03/2011,Completed,05/18/2011,11-01362289,Abandoned Vehicle Complaint,5681696,Subaru,White,FVI - Outcome,Need Vehicle Tow Report,14.0,2825 N DAWSON AVE,60618.0,,,35.0,14.0,21.0,,41.93340192214461,-87.71279474998865,"(41.93340192214461, -87.71279474998865)",2011-05-03
21271,05/03/2011,Completed,05/18/2011,11-01365063,Abandoned Vehicle Complaint,435M784,Chevrolet,Black,FVI - Outcome,Return to Owner - Vehicle,10.0,5150 S ABERDEEN ST,60609.0,,,16.0,9.0,61.0,,41.79996477437246,-87.65274149604971,"(41.79996477437246, -87.6527414960497)",2011-05-03
21272,05/03/2011,Completed,05/18/2011,11-01368145,Abandoned Vehicle Complaint,TEMP PLATES 719M075,Ford,White,FVI - Outcome,Vehicle was moved from original address requested,30.0,2121 N LAVERGNE AVE,60639.0,,,31.0,25.0,19.0,,41.91935389928985,-87.75094883913468,"(41.91935389928985, -87.75094883913467)",2011-05-03
21273,05/03/2011,Completed,05/18/2011,11-01369966,Abandoned Vehicle Complaint,H920799,Chrysler,Blue,FVI - Outcome,Need Vehicle Tow Report,14.0,4615 S LA CROSSE AVE,60638.0,,,23.0,8.0,56.0,,41.80894390483025,-87.74427188263998,"(41.80894390483025, -87.74427188263998)",2011-05-03
21274,05/03/2011,Completed,05/18/2011,11-01371048,Abandoned Vehicle Complaint,X156369,Dodge,Blue,FVI - Outcome,Need Vehicle Tow Report,15.0,7253 S SPAULDING AVE,60629.0,,,18.0,8.0,66.0,,41.760989499069154,-87.70501811376428,"(41.76098949906916, -87.70501811376428)",2011-05-03
21275,05/03/2011,Completed,05/18/2011,11-01372666,Abandoned Vehicle Complaint,L224495,Cadillac,Black,FVI - Outcome,Need Vehicle Tow Report,225.0,7158 W ARMITAGE AVE,60707.0,,,36.0,25.0,25.0,,41.91631727091078,-87.80464183280543,"(41.91631727091078, -87.80464183280542)",2011-05-03
21276,05/03/2011,Completed,05/19/2011,11-01364982,Abandoned Vehicle Complaint,7903934,Jeep/Cherokee,Gray,FVI - Outcome,Return to Owner - Vehicle,10.0,1745 W TERRA COTTA PL,60614.0,,,32.0,19.0,7.0,,41.92765851103805,-87.67189443660244,"(41.92765851103805, -87.67189443660244)",2011-05-03
21277,05/03/2011,Completed,05/24/2011,11-01365855,Abandoned Vehicle Complaint,8797547,Buick,Gray,FVI - Outcome,Vehicle was moved from original address requested,7.0,12200 S PARNELL AVE,60628.0,,,34.0,5.0,53.0,,41.67232635809327,-87.63586117544186,"(41.67232635809327, -87.63586117544186)",2011-05-03
21278,05/03/2011,Completed,05/25/2011,11-01368661,Abandoned Vehicle Complaint,438L196 TEMP,Cadillac,Green,FVI - Outcome,Need Vehicle Tow Report,21.0,5474 S RIDGEWOOD CT,60615.0,,,4.0,21.0,41.0,,41.79598314544217,-87.5927146011778,"(41.795983145442165, -87.59271460117782)",2011-05-03
21279,05/03/2011,Completed,05/26/2011,11-01365430,Abandoned Vehicle Complaint,K756877,Pontiac,Silver,FVI - Outcome,Vehicle was moved from original address requested,14.0,7819 S DR MARTIN LUTHER KING JR DR,60619.0,,,6.0,6.0,69.0,51.0,41.75234073580381,-87.6148370944682,"(41.752340735803806, -87.61483709446819)",2011-05-03
21280,05/03/2011,Completed,06/02/2011,11-01361300,Abandoned Vehicle Complaint,NONE,Ford,Blue,FVI - Outcome,Need Vehicle Tow Report,20.0,3337 W 24TH ST,60623.0,,,22.0,10.0,30.0,,41.84797907615523,-87.70902648156284,"(41.847979076155234, -87.70902648156284)",2011-05-03
21281,05/03/2011,Completed,06/03/2011,11-01363783,Abandoned Vehicle Complaint,6469049,Ford,Red,FVI - Outcome,Vehicle was moved from original address requested,7.0,7445 S PAXTON AVE,60649.0,,,7.0,3.0,43.0,49.0,41.759418508665924,-87.57109270754631,"(41.75941850866592, -87.57109270754631)",2011-05-03
21282,05/03/2011,Completed,06/07/2011,11-01367483,Abandoned Vehicle Complaint,80462X,Nissan,Red,FVI - Outcome,Vehicle was moved from original address requested,10.0,6246 W HENDERSON ST,60634.0,,,36.0,16.0,17.0,,41.941220292204584,-87.78304654845655,"(41.94122029220458, -87.78304654845654)",2011-05-03
21283,05/03/2011,Completed,06/07/2011,11-01374345,Abandoned Vehicle Complaint,612923,Ford,Blue,FVI - Outcome,Need Vehicle Tow Report,30.0,1141 N LEAMINGTON AVE,60651.0,,,37.0,15.0,25.0,,41.90166188098876,-87.75438875986177,"(41.901661880988755, -87.75438875986177)",2011-05-03
21284,05/03/2011,Completed,06/08/2011,11-01377282,Abandoned Vehicle Complaint,UNKNOWN,Chevrolet,White,FVI - Outcome,Vehicle was moved from original address requested,150.0,4405 N PARKSIDE AVE,60630.0,,,38.0,16.0,15.0,,41.96067929855381,-87.76832966231737,"(41.960679298553806, -87.76832966231738)",2011-05-03
21285,05/03/2011,Completed,06/14/2011,11-01360449,Abandoned Vehicle Complaint,616JR,Saturn,Tan,FVI - Outcome,Need Vehicle Tow Report,30.0,3104 W LOGAN BLVD,60647.0,,,35.0,14.0,22.0,,41.92851157420871,-87.7052307666074,"(41.92851157420871, -87.70523076660739)",2011-05-03
21286,05/03/2011,Completed,06/14/2011,11-01381716,Abandoned Vehicle Complaint,9412921,Ford,White,FVI - Outcome,Vehicle was moved from original address requested,,4431 N AVERS AVE,60625.0,,,39.0,17.0,14.0,,41.96191734124512,-87.72403774278256,"(41.96191734124512, -87.72403774278256)",2011-05-03
21287,05/03/2011,Completed,06/22/2011,11-01373694,Abandoned Vehicle Complaint,8474267,Honda,Gray,FVI - Outcome,Vehicle was moved from original address requested,15.0,3030 N MONITOR AVE,60634.0,1136855.3159924,1919547.68309853,30.0,25.0,19.0,,41.93578186035221,-87.7726260058965,"(41.93578186035221, -87.7726260058965)",2011-05-03
21288,05/03/2011,Completed,06/30/2011,11-01373664,Abandoned Vehicle Complaint,K476589,Volkswagen,Green,FVI - Outcome,Need Vehicle Tow Report,15.0,3030 N MONITOR AVE,60634.0,,,30.0,25.0,19.0,,41.93578186035221,-87.7726260058965,"(41.93578186035221, -87.7726260058965)",2011-05-03
21289,05/03/2011,Completed,07/18/2011,11-01357446,Abandoned Vehicle Complaint,KQ9194,Cadillac,Maroon,FVI - Outcome,Need Vehicle Tow Report,900.0,1051 W 70TH ST,60621.0,,,17.0,7.0,68.0,,41.76680925583854,-87.65133779957416,"(41.76680925583854, -87.65133779957415)",2011-05-03
21290,05/03/2011,Completed,09/07/2011,11-01366808,Abandoned Vehicle Complaint,,,,FVI - Outcome,Create Work Order,,1211 E 72ND PL,60619.0,1185538.05582365,1857182.80989345,5.0,3.0,69.0,,41.76314361019492,-87.59531191632324,"(41.763143610194916, -87.59531191632323)",2011-05-03
21350,05/04/2011,Completed - Dup,05/05/2011,11-01398615,Abandoned Vehicle Complaint,K518801,Ford,Green,FVI - Outcome,Create Work Order,30.0,1018 W ARDMORE AVE,60660.0,1168584.28190007,1938712.49518353,48.0,20.0,77.0,,41.98745190992709,-87.65614827473705,"(41.987451909927096, -87.65614827473705)",2011-05-04
21351,05/04/2011,Completed - Dup,05/06/2011,11-01403110,Abandoned Vehicle Complaint,X708952,Saturn,Black,FVI - Outcome,Create Work Order,14.0,1710 W OHIO ST,60622.0,1164960.54450849,1904075.16309188,1.0,13.0,24.0,,41.89249110681387,-87.67009996794863,"(41.89249110681387, -87.67009996794863)",2011-05-04
21352,05/04/2011,Completed - Dup,05/09/2011,11-01396965,Abandoned Vehicle Complaint,NONE,,White,FVI - Outcome,Create Work Order,180.0,3949 W GLADYS AVE,60624.0,1150118.38026691,1898063.45401577,24.0,11.0,26.0,,41.87607368308896,-87.72501276185724,"(41.87607368308896, -87.72501276185723)",2011-05-04
21353,05/04/2011,Completed - Dup,05/17/2011,11-01399541,Abandoned Vehicle Complaint,381MHX,Ford,White,FVI - Outcome,Need Vehicle Tow Report,15.0,5946 N CAMPBELL AVE,60659.0,,,40.0,20.0,2.0,,41.990040576462285,-87.69223381997452,"(41.99004057646228, -87.69223381997452)",2011-05-04
21354,05/04/2011,Completed - Dup,05/17/2011,11-01401755,Abandoned Vehicle Complaint,NO PLATES,,Blue,FVI - Outcome,Create Work Order,,5019 W SUNNYSIDE AVE,60630.0,1142096.32351194,1929452.8639266999,45.0,16.0,15.0,,41.96236862119783,-87.75324060504745,"(41.96236862119783, -87.75324060504745)",2011-05-04
21355,05/04/2011,Completed - Dup,05/17/2011,11-01404876,Abandoned Vehicle Complaint,H685805,Pontiac,Gray,FVI - Outcome,Create Work Order,30.0,1219 W OAKDALE AVE,60657.0,1167654.50870381,1919723.67009993,32.0,19.0,6.0,27.0,41.93515613245144,-87.65960122636852,"(41.93515613245144, -87.65960122636852)",2011-05-04
21356,05/04/2011,Completed - Dup,05/19/2011,11-01397629,Abandoned Vehicle Complaint,DL105AS,Ford,Gold,FVI - Outcome,Create Work Order,100.0,4532 S UNION AVE,60609.0,1172389.32296769,1874828.31786861,11.0,9.0,61.0,,41.8115608258713,-87.64333509283381,"(41.8115608258713, -87.6433350928338)",2011-05-04
21357,05/04/2011,Completed - Dup,05/25/2011,11-01398339,Abandoned Vehicle Complaint,X329568,Dodge,Purple,FVI - Outcome,Create Work Order,10.0,6144 N MCVICKER AVE,60646.0,1134952.33997202,1940623.42997904,45.0,16.0,10.0,,41.9936904989698,-87.77923878246295,"(41.9936904989698, -87.77923878246297)",2011-05-04
21358,05/04/2011,Completed - Dup,05/26/2011,11-01399013,Abandoned Vehicle Complaint,H688865,Cadillac,Gray,FVI - Outcome,Create Work Order,30.0,8154 S JUSTINE ST,60620.0,1167422.86807928,1850653.21493114,21.0,6.0,71.0,69.0,41.745115283512504,-87.66223679501793,"(41.7451152835125, -87.66223679501793)",2011-05-04
21359,05/04/2011,Completed - Dup,06/08/2011,11-01394974,Abandoned Vehicle Complaint,00000,Chevrolet,White,FVI - Outcome,Create Work Order,120.0,4405 N PARKSIDE AVE,60630.0,1137881.19987848,1928724.95239807,38.0,16.0,15.0,,41.96067929855381,-87.76832966231737,"(41.960679298553806, -87.76832966231738)",2011-05-04
21360,05/04/2011,Completed,03/23/2012,11-01406149,Abandoned Vehicle Complaint,X279084,Chrysler,Gray,FVI - Outcome,Vehicle was moved from original address requested,60.0,1733 N LAWNDALE AVE,60647.0,,,26.0,25.0,23.0,,41.912777690733144,-87.71893307861745,"(41.91277769073314, -87.71893307861745)",2011-05-04
21361,05/04/2011,Completed,05/04/2011,11-01395422,Abandoned Vehicle Complaint,,,,FVI - Outcome,Vehicle was moved from original address requested,,2406 W ROSCOE ST,60618.0,,,47.0,19.0,5.0,38.0,41.94320431186183,-87.68848281996597,"(41.94320431186183, -87.68848281996597)",2011-05-04
21362,05/04/2011,Completed,05/04/2011,11-01395683,Abandoned Vehicle Complaint,,,,FVI - Outcome,Vehicle was moved from original address requested,,7355 N ODELL AVE,60631.0,,,41.0,16.0,9.0,,42.01504558697258,-87.81010896836655,"(42.015045586972576, -87.81010896836655)",2011-05-04
21363,05/04/2011,Completed,05/05/2011,11-01391677,Abandoned Vehicle Complaint,9838607,Ford,Green,FVI - Outcome,Vehicle was moved from original address requested,63.0,614 W 46TH PL,60609.0,,,11.0,9.0,61.0,,41.8099650216915,-87.64135874993406,"(41.80996502169149, -87.64135874993406)",2011-05-04
21364,05/04/2011,Completed,05/05/2011,11-01393110,Abandoned Vehicle Complaint,X843438,Buick,White,FVI - Outcome,Return to Owner - Vehicle,30.0,2846 W LEXINGTON ST,60612.0,,,2.0,11.0,27.0,,41.87205952274227,-87.69792750546047,"(41.87205952274227, -87.69792750546047)",2011-05-04
21365,05/04/2011,Completed,05/05/2011,11-01394108,Abandoned Vehicle Complaint,865 2775,Pontiac,Maroon,FVI - Outcome,Vehicle was moved from original address requested,,1511 W CULLOM AVE,60613.0,,,47.0,19.0,6.0,,41.95967103788722,-87.66818866964155,"(41.95967103788722, -87.66818866964154)",2011-05-04
21366,05/04/2011,Completed,05/05/2011,11-01395868,Abandoned Vehicle Complaint,K395814,,Gray,FVI - Outcome,Vehicle was moved from original address requested,10.0,4511 S WOLCOTT AVE,60609.0,,,20.0,9.0,61.0,,41.81180348062903,-87.67219627504277,"(41.81180348062903, -87.67219627504277)",2011-05-04
21367,05/04/2011,Completed,05/05/2011,11-01398537,Abandoned Vehicle Complaint,E167509,Bmw,Black,FVI - Outcome,Vehicle was moved from original address requested,30.0,1018 W ARDMORE AVE,60660.0,,,48.0,20.0,77.0,,41.98745190992709,-87.65614827473705,"(41.987451909927096, -87.65614827473705)",2011-05-04
21368,05/04/2011,Completed,05/05/2011,11-01400537,Abandoned Vehicle Complaint,113811,Ford,Black,FVI - Outcome,Vehicle was moved from original address requested,10.0,5000 W 50TH ST,60638.0,,,23.0,8.0,56.0,,41.80219065221611,-87.74796070328264,"(41.80219065221612, -87.74796070328264)",2011-05-04
21369,05/04/2011,Completed,05/05/2011,11-01402949,Abandoned Vehicle Complaint,K404938,Pontiac,Gray,FVI - Outcome,Vehicle was moved from original address requested,14.0,5758 S DR MARTIN LUTHER KING JR DR,60637.0,,,20.0,2.0,40.0,,41.78944310871462,-87.61599652994333,"(41.78944310871462, -87.61599652994333)",2011-05-04
21370,05/04/2011,Completed,05/06/2011,11-01395619,Abandoned Vehicle Complaint,26394G,Ford,Red,FVI - Outcome,Vehicle was moved from original address requested,20.0,2323 N MONITOR AVE,60639.0,,,37.0,25.0,19.0,,41.922779839888065,-87.77188239553928,"(41.92277983988806, -87.77188239553928)",2011-05-04
21371,05/04/2011,Completed,05/09/2011,11-01395582,Abandoned Vehicle Complaint,5409140,Chevrolet,White,FVI - Outcome,Return to Owner - Vehicle,7.0,1242 W ROSEDALE AVE,60660.0,,,48.0,20.0,77.0,,41.98915427140911,-87.66200809950473,"(41.98915427140911, -87.66200809950473)",2011-05-04
21372,05/04/2011,Completed,05/09/2011,11-01396944,Abandoned Vehicle Complaint,NONE,,Orange,FVI - Outcome,Return to Owner - Vehicle,180.0,3949 W GLADYS AVE,60624.0,,,24.0,11.0,26.0,,41.87607368308896,-87.72501276185724,"(41.87607368308896, -87.72501276185723)",2011-05-04
21373,05/04/2011,Completed,05/09/2011,11-01396975,Abandoned Vehicle Complaint,L584323,Chrysler,Red,FVI - Outcome,Vehicle was moved from original address requested,21.0,4240 W 18TH ST,60623.0,,,24.0,10.0,29.0,,41.85705753564508,-87.73142855139106,"(41.857057535645076, -87.73142855139106)",2011-05-04
21374,05/04/2011,Completed,05/09/2011,11-01400652,Abandoned Vehicle Complaint,9729499,Ford,Silver,FVI - Outcome,Return to Owner - Vehicle,28.0,9811 S GREEN ST,60643.0,,,21.0,22.0,73.0,,41.71550166835369,-87.6441236119273,"(41.71550166835369, -87.6441236119273)",2011-05-04
21375,05/04/2011,Completed,05/10/2011,11-01392259,Abandoned Vehicle Complaint,NONE,Honda,Blue,FVI - Outcome,Vehicle was moved from original address requested,1.0,4400 W GEORGE ST,60641.0,,,31.0,25.0,20.0,,41.933603535351075,-87.73692912111936,"(41.93360353535108, -87.73692912111936)",2011-05-04
21376,05/04/2011,Completed,05/10/2011,11-01393787,Abandoned Vehicle Complaint,6311629,Chevrolet,White,FVI - Outcome,Vehicle was moved from original address requested,10.0,2000 E 78TH ST,60649.0,,,8.0,4.0,43.0,,41.75353450957049,-87.57596738865946,"(41.753534509570486, -87.57596738865946)",2011-05-04
21377,05/04/2011,Completed,05/10/2011,11-01399442,Abandoned Vehicle Complaint,UNKNOWN,Ford,White,FVI - Outcome,Vehicle was moved from original address requested,60.0,431 N ST LOUIS AVE,60624.0,,,27.0,11.0,23.0,,41.8892348460859,-87.71354146534668,"(41.8892348460859, -87.71354146534667)",2011-05-04
21378,05/04/2011,Completed,05/10/2011,11-01407293,Abandoned Vehicle Complaint,UNKNOWN,Dodge,Gold,FVI - Outcome,Vehicle was moved from original address requested,30.0,4700 S LEAMINGTON AVE,60638.0,,,23.0,8.0,56.0,,41.8074157911774,-87.75186577716629,"(41.8074157911774, -87.75186577716629)",2011-05-04
21379,05/04/2011,Completed,05/10/2011,11-01407919,Abandoned Vehicle Complaint,X334978,Mazda,Silver,FVI - Outcome,Vehicle was moved from original address requested,16.0,6540 W 61ST ST,60638.0,,,23.0,8.0,64.0,,41.78139147109007,-87.78552016861582,"(41.78139147109006, -87.78552016861582)",2011-05-04
21380,05/04/2011,Completed,05/11/2011,11-01404969,Abandoned Vehicle Complaint,L295385,Buick,Black,FVI - Outcome,Vehicle was moved from original address requested,16.0,5208 W MONTANA ST,60639.0,,,31.0,25.0,19.0,,41.92516314813509,-87.75661220254143,"(41.92516314813509, -87.75661220254142)",2011-05-04
21381,05/04/2011,Completed,05/11/2011,11-01407670,Abandoned Vehicle Complaint,1238801,Nissan,Black,FVI - Outcome,Vehicle was moved from original address requested,21.0,2531 W BELDEN AVE,60647.0,,,1.0,14.0,22.0,,41.92315385481727,-87.69063536823477,"(41.923153854817265, -87.69063536823477)",2011-05-04
21382,05/04/2011,Completed,05/12/2011,11-01393857,Abandoned Vehicle Complaint,481BEN,Cadillac,Brown,FVI - Outcome,Vehicle was moved from original address requested,21.0,3434 W AUGUSTA BLVD,60651.0,,,27.0,11.0,23.0,,41.899248860948354,-87.71283706971725,"(41.89924886094836, -87.71283706971725)",2011-05-04
21383,05/04/2011,Completed,05/12/2011,11-01395420,Abandoned Vehicle Complaint,1396740,General Motors Corp.,Maroon,FVI - Outcome,Vehicle was moved from original address requested,,2058 N LATROBE AVE,60639.0,,,37.0,25.0,19.0,,41.918458607712786,-87.75735774116505,"(41.918458607712786, -87.75735774116504)",2011-05-04
21384,05/04/2011,Completed,05/12/2011,11-01396116,Abandoned Vehicle Complaint,X2970098,Toyota,Black,FVI - Outcome,Vehicle was moved from original address requested,20.0,2128 W MELROSE ST,60618.0,,,32.0,19.0,5.0,,41.940550807528034,-87.68197932843124,"(41.94055080752803, -87.68197932843124)",2011-05-04
21385,05/04/2011,Completed,05/12/2011,11-01397165,Abandoned Vehicle Complaint,NONE,Honda,Gray,FVI - Outcome,Vehicle was moved from original address requested,15.0,3653 W HURON ST,60624.0,,,27.0,11.0,23.0,,41.893494136796384,-87.71838213031775,"(41.89349413679638, -87.71838213031775)",2011-05-04
21386,05/04/2011,Completed,05/12/2011,11-01401850,Abandoned Vehicle Complaint,L605066,Chrysler,Tan,FVI - Outcome,Vehicle was moved from original address requested,14.0,3957 W HURON ST,60624.0,,,27.0,11.0,23.0,,41.893425099951365,-87.72576570773815,"(41.893425099951365, -87.72576570773815)",2011-05-04
21387,05/04/2011,Completed,05/13/2011,11-01395833,Abandoned Vehicle Complaint,NONE,Chevrolet,Green,FVI - Outcome,Need Vehicle Tow Report,7.0,3555 N ODELL AVE,60634.0,,,36.0,16.0,17.0,,41.94499171839596,-87.81050114175432,"(41.94499171839596, -87.81050114175433)",2011-05-04
21388,05/04/2011,Completed,05/13/2011,11-01398092,Abandoned Vehicle Complaint,TEXAS 475 PNP,Buick,Blue,FVI - Outcome,Vehicle was moved from original address requested,,1941 W SUMMERDALE AVE,60640.0,,,40.0,20.0,4.0,,41.97867258405193,-87.67811643564556,"(41.97867258405193, -87.67811643564556)",2011-05-04
21389,05/04/2011,Completed,05/13/2011,11-01402980,Abandoned Vehicle Complaint,NONE,Ford,Green,FVI - Outcome,Vehicle was moved from original address requested,5.0,1620 W ESTES AVE,60626.0,,,49.0,24.0,1.0,,42.01158387474214,-87.67105088492512,"(42.01158387474214, -87.67105088492511)",2011-05-04
21390,05/04/2011,Completed,05/13/2011,11-01406514,Abandoned Vehicle Complaint,A161137,Lincoln,Tan,FVI - Outcome,Vehicle was moved from original address requested,30.0,5918 N TALMAN AVE,60659.0,,,40.0,20.0,2.0,,41.98920958151787,-87.69585753579729,"(41.98920958151787, -87.6958575357973)",2011-05-04
21391,05/04/2011,Completed,05/17/2011,11-01398321,Abandoned Vehicle Complaint,A796033,Dodge,Green,FVI - Outcome,Vehicle was moved from original address requested,10.0,6048 W MATSON AVE,60646.0,1134793.23997202,1940253.52997904,45.0,16.0,10.0,,41.99235587296798,-87.77959945607611,"(41.99235587296798, -87.77959945607611)",2011-05-04
21392,05/04/2011,Completed,05/17/2011,11-01406503,Abandoned Vehicle Complaint,H758399,Buick,White,FVI - Outcome,Vehicle was moved from original address requested,,4791 N MENARD AVE,60630.0,,,45.0,16.0,15.0,,41.967675219643525,-87.77221827105049,"(41.96767521964352, -87.77221827105048)",2011-05-04
21393,05/04/2011,Completed,05/18/2011,11-01391399,Abandoned Vehicle Complaint,K791624,Pontiac,White,FVI - Outcome,Need Vehicle Tow Report,14.0,1614 W SHERWIN AVE,60626.0,,,49.0,24.0,1.0,,42.015026426152865,-87.67091327325903,"(42.01502642615287, -87.67091327325903)",2011-05-04
21394,05/04/2011,Completed,05/18/2011,11-01395466,Abandoned Vehicle Complaint,70564AV,Oldsmobile,Brown,FVI - Outcome,Need Vehicle Tow Report,7.0,1606 W ROSCOE ST,60657.0,,,32.0,19.0,6.0,27.0,41.943449383218976,-87.6690809959932,"(41.943449383218976, -87.66908099599321)",2011-05-04
21395,05/04/2011,Completed,05/18/2011,11-01395703,Abandoned Vehicle Complaint,K536219,Ford,Black,FVI - Outcome,Return to Owner - Vehicle,7.0,3357 N SHEFFIELD AVE,60657.0,,,44.0,19.0,6.0,17.0,41.943424776443614,-87.65406605978345,"(41.94342477644362, -87.65406605978343)",2011-05-04
21396,05/04/2011,Completed,05/19/2011,11-01390214,Abandoned Vehicle Complaint,,,,,,,400 E LOWER WACKER DR,60601.0,1179182.06297533,1902386.82172984,42.0,1.0,32.0,,41.88755113170046,-87.61735600828747,"(41.88755113170046, -87.61735600828747)",2011-05-04
21397,05/04/2011,Completed,05/23/2011,11-01396491,Abandoned Vehicle Complaint,575M592,Chevrolet,Green,FVI - Outcome,Vehicle was moved from original address requested,30.0,9142 S YATES BLVD,60617.0,,,7.0,4.0,48.0,,41.728605644989635,-87.56593073757902,"(41.72860564498963, -87.56593073757901)",2011-05-04
21398,05/04/2011,Completed,05/23/2011,11-01396994,Abandoned Vehicle Complaint,WJE049,Acura,Black,FVI - Outcome,Return to Owner - Vehicle,30.0,1809 N HERMITAGE AVE,60622.0,,,32.0,14.0,22.0,,41.91458384111176,-87.67130812996945,"(41.91458384111176, -87.67130812996946)",2011-05-04
21399,05/04/2011,Completed,05/23/2011,11-01398297,Abandoned Vehicle Complaint,A504790,Mercury,White,FVI - Outcome,Vehicle was moved from original address requested,10.0,5254 S FRANCISCO AVE,60632.0,,,14.0,9.0,63.0,,41.79749700823858,-87.69649240867176,"(41.79749700823858, -87.69649240867176)",2011-05-04
21400,05/04/2011,Completed,05/23/2011,11-01400833,Abandoned Vehicle Complaint,1291814,Pontiac,Tan,FVI - Outcome,Vehicle was moved from original address requested,10.0,5227 S MOZART ST,60632.0,,,14.0,9.0,63.0,,41.7983164275602,-87.69500277243363,"(41.798316427560195, -87.69500277243363)",2011-05-04
21401,05/04/2011,Completed,05/23/2011,11-01403022,Abandoned Vehicle Complaint,966PBM,Toyota,Blue,FVI - Outcome,Vehicle was moved from original address requested,10.0,2918 N ALBANY AVE,60618.0,,,35.0,14.0,21.0,,41.93447134739103,-87.70518957688162,"(41.934471347391025, -87.70518957688161)",2011-05-04
21402,05/04/2011,Completed,05/23/2011,11-01403067,Abandoned Vehicle Complaint,94497PV,Ford,White,FVI - Outcome,Vehicle was moved from original address requested,21.0,4324 S ST LOUIS AVE,60632.0,,,14.0,8.0,58.0,,41.814578301522204,-87.71153505904535,"(41.8145783015222, -87.71153505904536)",2011-05-04
21403,05/04/2011,Completed,05/25/2011,11-01392778,Abandoned Vehicle Complaint,30451B,Pontiac,Red,FVI - Outcome,Need Vehicle Tow Report,30.0,7824 S LAFLIN ST,60620.0,,,17.0,6.0,71.0,32.0,41.75142777790376,-87.66199911278886,"(41.751427777903764, -87.66199911278886)",2011-05-04
21404,05/04/2011,Completed,05/25/2011,11-01393645,Abandoned Vehicle Complaint,111787H,Ford,White,FVI - Outcome,Need Vehicle Tow Report,7.0,8630 S CENTRAL PARK AVE,60652.0,,,18.0,8.0,70.0,,41.73588332544994,-87.7120720382469,"(41.73588332544994, -87.7120720382469)",2011-05-04
21405,05/04/2011,Completed,05/25/2011,11-01394116,Abandoned Vehicle Complaint,XT8580,Pontiac,Red,FVI - Outcome,Need Vehicle Tow Report,90.0,8240 S LOOMIS BLVD,60620.0,,,21.0,6.0,71.0,,41.74374196287208,-87.65855938955164,"(41.74374196287208, -87.65855938955164)",2011-05-04
21406,05/04/2011,Completed,05/25/2011,11-01394135,Abandoned Vehicle Complaint,K773029,Pontiac,Black,FVI - Outcome,Need Vehicle Tow Report,30.0,4518 W 84TH PL,60652.0,,,18.0,8.0,70.0,,41.738865544643154,-87.73456363708765,"(41.73886554464316, -87.73456363708765)",2011-05-04
21407,05/04/2011,Completed,05/25/2011,11-01394256,Abandoned Vehicle Complaint,18ACS,Ford,White,FVI - Outcome,Need Vehicle Tow Report,30.0,5036 S LAWNDALE AVE,60632.0,,,14.0,8.0,62.0,,41.8013675342556,-87.71617165565958,"(41.8013675342556, -87.71617165565958)",2011-05-04
21408,05/04/2011,Completed,05/25/2011,11-01396237,Abandoned Vehicle Complaint,X458610,Cadillac,Tan,FVI - Outcome,Need Vehicle Tow Report,21.0,8236 S VERNON AVE,60619.0,,,6.0,6.0,44.0,,41.74457671352022,-87.61367782332451,"(41.74457671352022, -87.61367782332452)",2011-05-04
21409,05/04/2011,Completed,05/25/2011,11-01397282,Abandoned Vehicle Complaint,L952341,Ford,Black,FVI - Outcome,Need Vehicle Tow Report,21.0,423 E 41ST ST,60653.0,,,3.0,2.0,38.0,,41.82014199340533,-87.61572658097809,"(41.82014199340533, -87.6157265809781)",2011-05-04
21410,05/04/2011,Completed,05/25/2011,11-01397949,Abandoned Vehicle Complaint,TEMP 551M135,Chevrolet,Green,FVI - Outcome,Need Vehicle Tow Report,18.0,5326 S MICHIGAN AVE,60615.0,,,3.0,2.0,40.0,,41.7973910795508,-87.62268295615334,"(41.7973910795508, -87.62268295615335)",2011-05-04
21411,05/04/2011,Completed,05/25/2011,11-01402881,Abandoned Vehicle Complaint,K119326,Jeep/Cherokee,Red,FVI - Outcome,Need Vehicle Tow Report,20.0,3331 W 27TH ST,60623.0,,,22.0,10.0,30.0,,41.84253289612108,-87.70857824723545,"(41.84253289612108, -87.70857824723545)",2011-05-04
21412,05/04/2011,Completed,05/25/2011,11-01410462,Abandoned Vehicle Complaint,755 2521,Chrysler,Blue,FVI - Outcome,Need Vehicle Tow Report,7.0,6540 S KOLIN AVE,60629.0,,,13.0,8.0,65.0,,41.77369138572411,-87.73131770838896,"(41.77369138572412, -87.73131770838896)",2011-05-04
21413,05/04/2011,Completed,05/25/2011,11-01410523,Abandoned Vehicle Complaint,K988018,Chrysler,Red,FVI - Outcome,Need Vehicle Tow Report,60.0,8009 S STEWART AVE,60620.0,,,17.0,6.0,44.0,,41.748645520242775,-87.6340996126603,"(41.748645520242775, -87.6340996126603)",2011-05-04
21414,05/04/2011,Completed,05/25/2011,11-01412014,Abandoned Vehicle Complaint,710M277,Cadillac,Black,FVI - Outcome,Need Vehicle Tow Report,20.0,2927 W MONROE ST,60612.0,,,2.0,11.0,27.0,,41.88012959961508,-87.69974379652572,"(41.88012959961508, -87.69974379652574)",2011-05-04
21415,05/04/2011,Completed,05/26/2011,11-01403994,Abandoned Vehicle Complaint,197082TC,Nimrod Travel Trailer,Black,FVI - Outcome,Return to Owner - Vehicle,21.0,726 E 112TH ST,60628.0,,,9.0,5.0,50.0,,41.69139006102106,-87.60423276212761,"(41.69139006102106, -87.60423276212761)",2011-05-04
21416,05/04/2011,Completed,06/01/2011,11-01398217,Abandoned Vehicle Complaint,V79653,Chrysler,Purple,FVI - Outcome,Vehicle was moved from original address requested,30.0,3640 W WOLFRAM ST,60618.0,,,30.0,25.0,21.0,,41.93292051032228,-87.71885544379539,"(41.93292051032228, -87.71885544379539)",2011-05-04
21417,05/04/2011,Completed,06/01/2011,11-01405386,Abandoned Vehicle Complaint,A448715,Hyundai,Gold,FVI - Outcome,Vehicle was moved from original address requested,14.0,3749 W ROSCOE ST,60618.0,,,30.0,17.0,21.0,,41.94269492546198,-87.72194468685896,"(41.94269492546198, -87.72194468685896)",2011-05-04
21418,05/04/2011,Completed,06/02/2011,11-01390217,Abandoned Vehicle Complaint,,,,,,,400 E LOWER WACKER DR,60601.0,1179182.06297533,1902386.82172984,42.0,1.0,32.0,,41.88755113170046,-87.61735600828747,"(41.88755113170046, -87.61735600828747)",2011-05-04
21419,05/04/2011,Completed,06/02/2011,11-01390219,Abandoned Vehicle Complaint,,,,,,,400 E LOWER WACKER DR,60601.0,1179182.06297533,1902386.82172984,42.0,1.0,32.0,,41.88755113170046,-87.61735600828747,"(41.88755113170046, -87.61735600828747)",2011-05-04
21420,05/04/2011,Completed,06/03/2011,11-01395690,Abandoned Vehicle Complaint,NO PLATES,Ford,Blue,FVI - Outcome,Vehicle was moved from original address requested,7.0,3106 N ST LOUIS AVE,60618.0,,,35.0,14.0,21.0,,41.93768628563835,-87.71503524382213,"(41.93768628563835, -87.71503524382214)",2011-05-04
21421,05/04/2011,Completed,06/03/2011,11-01396391,Abandoned Vehicle Complaint,138M987,Dodge,White,FVI - Outcome,Vehicle was moved from original address requested,14.0,5555 N PARKSIDE AVE,60630.0,,,45.0,16.0,11.0,,41.98272970693314,-87.76941337041212,"(41.98272970693314, -87.76941337041212)",2011-05-04
21422,05/04/2011,Completed,06/07/2011,11-01390356,Abandoned Vehicle Complaint,H268807,Ford,Black,FVI - Outcome,Need Vehicle Tow Report,18.0,5446 W 63RD PL,60638.0,,,13.0,8.0,64.0,,41.77732239227528,-87.75869287120831,"(41.77732239227528, -87.7586928712083)",2011-05-04
21423,05/04/2011,Completed,06/07/2011,11-01394196,Abandoned Vehicle Complaint,699M322,Mercury,Black,FVI - Outcome,Need Vehicle Tow Report,30.0,734 N LONG AVE,60644.0,,,37.0,15.0,25.0,,41.89400572350614,-87.76075892259755,"(41.89400572350614, -87.76075892259755)",2011-05-04
21424,05/04/2011,Completed,06/07/2011,11-01396811,Abandoned Vehicle Complaint,G33 0590,Chevrolet,Blue,FVI - Outcome,Need Vehicle Tow Report,7.0,1856 N NARRAGANSETT AVE,60639.0,,,36.0,25.0,25.0,,41.91444262013514,-87.78531980252261,"(41.91444262013514, -87.7853198025226)",2011-05-04
21425,05/04/2011,Completed,06/07/2011,11-01399330,Abandoned Vehicle Complaint,433YGB,Cadillac,Beige,FVI - Outcome,Need Vehicle Tow Report,120.0,10154 S EBERHART AVE,60628.0,,,9.0,5.0,49.0,,41.70937618807337,-87.61153111864316,"(41.70937618807337, -87.61153111864316)",2011-05-04
21426,05/04/2011,Completed,06/07/2011,11-01401763,Abandoned Vehicle Complaint,644 PMT,Oldsmobile,Gold,FVI - Outcome,Need Vehicle Tow Report,30.0,2229 W HURON ST,60612.0,,,1.0,13.0,24.0,,41.8938837060889,-87.68308066627476,"(41.8938837060889, -87.68308066627475)",2011-05-04
21427,05/04/2011,Completed,06/09/2011,11-01392824,Abandoned Vehicle Complaint,7960661,Mercury,Blue,FVI - Outcome,Need Vehicle Tow Report,30.0,4410 S ALBANY AVE,60632.0,1156435.81481707,1875237.95662797,14.0,9.0,58.0,,41.81324043846133,-87.70184412707229,"(41.81324043846133, -87.70184412707229)",2011-05-04
21428,05/04/2011,Completed,06/10/2011,11-01394160,Abandoned Vehicle Complaint,9162454,Nissan,Tan,FVI - Outcome,Need Vehicle Tow Report,30.0,5505 W LELAND AVE,60630.0,,,45.0,16.0,15.0,,41.9654170732884,-87.76522636001091,"(41.9654170732884, -87.7652263600109)",2011-05-04
21429,05/04/2011,Completed,06/13/2011,11-01397550,Abandoned Vehicle Complaint,K730812,Honda,Gray,FVI - Outcome,Need Vehicle Tow Report,40.0,3641 W ALTGELD ST,60647.0,,,35.0,25.0,22.0,,41.926284923501356,-87.71871323670892,"(41.926284923501356, -87.71871323670892)",2011-05-04
21430,05/04/2011,Completed,06/14/2011,11-01394041,Abandoned Vehicle Complaint,A255635,Cadillac,Green,FVI - Outcome,Need Vehicle Tow Report,950.0,8209 S LOOMIS BLVD,60620.0,,,21.0,6.0,71.0,,41.744650720629025,-87.65829050981844,"(41.74465072062902, -87.65829050981844)",2011-05-04
21431,05/04/2011,Completed,06/16/2011,11-01394154,Abandoned Vehicle Complaint,UNKNOWN PLATE INFORMATION,Kia Motors Corp,Red,FVI - Outcome,Vehicle was moved from original address requested,90.0,8228 S LOOMIS BLVD,60620.0,1168429.54207522,1850191.09600555,21.0,6.0,71.0,,41.74408097533869,-87.65856823459455,"(41.74408097533869, -87.65856823459454)",2011-05-04
21432,05/04/2011,Completed,06/16/2011,11-01395974,Abandoned Vehicle Complaint,942-2921,Ford,White,FVI - Outcome,Vehicle was moved from original address requested,21.0,4431 N AVERS AVE,60625.0,1149926.87830629,1929177.31041143,39.0,17.0,14.0,,41.96191734124512,-87.72403774278256,"(41.96191734124512, -87.72403774278256)",2011-05-04
21433,05/04/2011,Completed,07/12/2011,11-01393235,Abandoned Vehicle Complaint,,,,FVI - Outcome,Vehicle was moved from original address requested,,3601 W 86TH PL,60652.0,,,18.0,8.0,70.0,,41.73582070594003,-87.71204142634018,"(41.73582070594003, -87.71204142634018)",2011-05-04
21434,05/04/2011,Completed,07/18/2011,11-01392366,Abandoned Vehicle Complaint,870XCM,Mercury,White,FVI - Outcome,Need Vehicle Tow Report,30.0,8137 S CARPENTER ST,60620.0,,,21.0,6.0,71.0,,41.74580451828929,-87.64982312791079,"(41.74580451828929, -87.64982312791078)",2011-05-04
21470,05/05/2011,Completed,05/05/2011,11-01426195,Abandoned Vehicle Complaint,0,,Green,FVI - Outcome,Return to Owner - Vehicle,90.0,7506 S PARNELL AVE,60620.0,,,17.0,6.0,69.0,,41.757753452232116,-87.63857875220566,"(41.75775345223212, -87.63857875220566)",2011-05-05
21503,05/05/2011,Completed - Dup,05/11/2011,11-01427879,Abandoned Vehicle Complaint,K552763,Ford,Gray,FVI - Outcome,Create Work Order,40.0,4453 S LAWLER AVE,60638.0,1143442.32950865,1874636.68197854,23.0,8.0,56.0,,41.811456738056435,-87.74922897953111,"(41.81145673805644, -87.74922897953113)",2011-05-05
21504,05/05/2011,Completed - Dup,05/11/2011,11-01430861,Abandoned Vehicle Complaint,FRY 168,Volvo,Maroon,FVI - Outcome,Create Work Order,,1943 W OAKDALE AVE,60657.0,1162877.07658129,1919600.41657756,32.0,19.0,5.0,,41.93491681183796,-87.67747819039788,"(41.93491681183795, -87.67747819039788)",2011-05-05
21505,05/05/2011,Completed - Dup,05/12/2011,11-01431006,Abandoned Vehicle Complaint,844L861,Pontiac,Green,FVI - Outcome,Need Vehicle Tow Report,100.0,118 E 104TH ST,60628.0,,,9.0,5.0,49.0,41.0,41.705510906090936,-87.61966767813387,"(41.70551090609094, -87.61966767813388)",2011-05-05
21506,05/05/2011,Completed - Dup,05/12/2011,11-01431292,Abandoned Vehicle Complaint,,,,FVI - Outcome,Need Vehicle Tow Report,,118 E 104TH PL,60628.0,,,9.0,5.0,49.0,41.0,41.70438678888551,-87.61981017172462,"(41.70438678888551, -87.61981017172462)",2011-05-05
21507,05/05/2011,Completed - Dup,05/17/2011,11-01426437,Abandoned Vehicle Complaint,0,Chevrolet,White,FVI - Outcome,Create Work Order,60.0,4405 N PARKSIDE AVE,60630.0,1137881.19987848,1928724.95239807,38.0,16.0,15.0,,41.96067929855381,-87.76832966231737,"(41.960679298553806, -87.76832966231738)",2011-05-05
21508,05/05/2011,Completed - Dup,05/27/2011,11-01443684,Abandoned Vehicle Complaint,X179649,Ford,Green,FVI - Outcome,Create Work Order,45.0,2600 N PARKSIDE AVE,60639.0,1138270.33546706,1916719.90371259,30.0,25.0,19.0,,41.92770003055193,-87.7674841238683,"(41.92770003055193, -87.76748412386829)",2011-05-05
21509,05/05/2011,Completed - Dup,06/08/2011,11-01429881,Abandoned Vehicle Complaint,K554278,Chevrolet,White,FVI - Outcome,Create Work Order,15.0,4405 N PARKSIDE AVE,60630.0,1137881.19987848,1928724.95239807,38.0,16.0,15.0,,41.96067929855381,-87.76832966231737,"(41.960679298553806, -87.76832966231738)",2011-05-05
21510,05/05/2011,Completed,05/05/2011,11-01422671,Abandoned Vehicle Complaint,H717572,(Unlisted Make),White,FVI - Outcome,Vehicle was moved from original address requested,7.0,6900 S HOYNE AVE,60636.0,,,17.0,7.0,67.0,,41.76836607885977,-87.67620540207459,"(41.76836607885977, -87.6762054020746)",2011-05-05
21511,05/05/2011,Completed,05/05/2011,11-01422905,Abandoned Vehicle Complaint,0000000,Ford,White,FVI - Outcome,Vehicle was moved from original address requested,60.0,844 W 78TH ST,60620.0,,,17.0,6.0,71.0,,41.752544713856246,-87.6458708172308,"(41.75254471385624, -87.64587081723079)",2011-05-05
21512,05/05/2011,Completed,05/05/2011,11-01423202,Abandoned Vehicle Complaint,CYRUS 3,Chrysler,Black,FVI - Outcome,Vehicle was moved from original address requested,120.0,5141 N MONITOR AVE,60630.0,,,45.0,16.0,11.0,,41.975083229387764,-87.77440540569134,"(41.97508322938776, -87.77440540569135)",2011-05-05
21513,05/05/2011,Completed,05/05/2011,11-01426461,Abandoned Vehicle Complaint,,,,FVI - Outcome,Vehicle was moved from original address requested,,3138 W ROSCOE ST,60618.0,,,33.0,17.0,21.0,,41.94284807452304,-87.7068492810077,"(41.94284807452304, -87.70684928100772)",2011-05-05
21514,05/05/2011,Completed,05/06/2011,11-01421118,Abandoned Vehicle Complaint,8652775,Pontiac,Maroon,FVI - Outcome,Return to Owner - Vehicle,7.0,1515 W CULLOM AVE,60613.0,,,47.0,19.0,6.0,,41.95966878913031,-87.6683591745208,"(41.95966878913031, -87.6683591745208)",2011-05-05
21515,05/05/2011,Completed,05/06/2011,11-01425022,Abandoned Vehicle Complaint,L3134,Chevrolet,White,FVI - Outcome,Vehicle was moved from original address requested,20.0,3207 W 25TH ST,60623.0,,,12.0,10.0,30.0,25.0,41.846212972427566,-87.70542591906933,"(41.84621297242756, -87.70542591906933)",2011-05-05
21516,05/05/2011,Completed,05/06/2011,11-01428310,Abandoned Vehicle Complaint,NLP,,Black,FVI - Outcome,Return to Owner - Vehicle,365.0,5650 S GREEN ST,60621.0,,,20.0,7.0,68.0,,41.79096419494907,-87.64643156501093,"(41.79096419494907, -87.64643156501093)",2011-05-05
21517,05/05/2011,Completed,05/06/2011,11-01433681,Abandoned Vehicle Complaint,UNKNOWN,Chevrolet,Cream,FVI - Outcome,Vehicle was moved from original address requested,14.0,615 E 60TH ST,60637.0,,,20.0,3.0,42.0,,41.78568876166156,-87.61027420321649,"(41.78568876166156, -87.6102742032165)",2011-05-05
21518,05/05/2011,Completed,05/09/2011,11-01431386,Abandoned Vehicle Complaint,H717572,Ford,White,FVI - Outcome,Need Vehicle Tow Report,7.0,2102 W 69TH PL,60636.0,1163540.4146989,1858555.21577511,17.0,7.0,67.0,,41.767615572322256,-87.67617539282543,"(41.767615572322256, -87.67617539282544)",2011-05-05
21519,05/05/2011,Completed,05/09/2011,11-01433287,Abandoned Vehicle Complaint,K865473,General Motors Corp.,White,FVI - Outcome,Vehicle was moved from original address requested,10.0,1840 N PULASKI RD,60639.0,,,30.0,25.0,20.0,,41.91480298619106,-87.7266368062856,"(41.91480298619106, -87.7266368062856)",2011-05-05
21520,05/05/2011,Completed,05/09/2011,11-01444769,Abandoned Vehicle Complaint,357M553,Plymouth,Green,FVI - Outcome,Vehicle was moved from original address requested,15.0,2550 W 118TH PL,60655.0,,,19.0,22.0,75.0,,41.678242841933816,-87.68517883206476,"(41.678242841933816, -87.68517883206476)",2011-05-05
21521,05/05/2011,Completed,05/10/2011,11-01427251,Abandoned Vehicle Complaint,3270684,Ford,Beige,FVI - Outcome,Vehicle was moved from original address requested,180.0,8408 S BENNETT AVE,60617.0,,,8.0,4.0,45.0,,41.74216345774219,-87.57838323253088,"(41.742163457742194, -87.57838323253087)",2011-05-05
21522,05/05/2011,Completed,05/10/2011,11-01432098,Abandoned Vehicle Complaint,H931035,Ford,White,FVI - Outcome,Vehicle was moved from original address requested,14.0,5725 W 55TH ST,60638.0,,,23.0,8.0,56.0,,41.79255570947507,-87.76588722901646,"(41.79255570947506, -87.76588722901646)",2011-05-05
21523,05/05/2011,Completed,05/10/2011,11-01433069,Abandoned Vehicle Complaint,113811TW,Ford,Black,FVI - Outcome,Vehicle was moved from original address requested,14.0,5000 W 50TH ST,60638.0,,,23.0,8.0,56.0,,41.80219065221611,-87.74796070328264,"(41.80219065221612, -87.74796070328264)",2011-05-05
21524,05/05/2011,Completed,05/10/2011,11-01435405,Abandoned Vehicle Complaint,NO PLATES,Mercury,Gray,FVI - Outcome,Vehicle was moved from original address requested,,2942 W MONROE ST,60612.0,,,2.0,11.0,27.0,,41.88047255660046,-87.70040898067933,"(41.88047255660046, -87.70040898067931)",2011-05-05
21525,05/05/2011,Completed,05/11/2011,11-01430860,Abandoned Vehicle Complaint,A48 5750,Honda,Gray,FVI - Outcome,Vehicle was moved from original address requested,,1943 W OAKDALE AVE,60657.0,,,32.0,19.0,5.0,,41.93491681183796,-87.67747819039788,"(41.93491681183795, -87.67747819039788)",2011-05-05
21526,05/05/2011,Completed,05/12/2011,11-01424960,Abandoned Vehicle Complaint,,,,FVI - Outcome,Vehicle was moved from original address requested,,1720 W ALTGELD ST,60614.0,,,32.0,19.0,7.0,,41.927450316253,-87.67043499155149,"(41.927450316253, -87.6704349915515)",2011-05-05
21527,05/05/2011,Completed,05/12/2011,11-01425903,Abandoned Vehicle Complaint,81662X,Ford,Red,FVI - Outcome,Vehicle was moved from original address requested,90.0,3413 W HIRSCH ST,60651.0,,,26.0,14.0,23.0,,41.90630161962453,-87.71236895475607,"(41.90630161962453, -87.71236895475607)",2011-05-05
21528,05/05/2011,Completed,05/12/2011,11-01431000,Abandoned Vehicle Complaint,6135146,Mazda,Black,FVI - Outcome,Return to Owner - Vehicle,30.0,2909 S LYMAN ST,60608.0,,,11.0,9.0,60.0,,41.84119221908777,-87.65262855466847,"(41.84119221908777, -87.65262855466847)",2011-05-05
21529,05/05/2011,Completed,05/13/2011,11-01424917,Abandoned Vehicle Complaint,00000000,Ford,Tan,FVI - Outcome,Vehicle was moved from original address requested,10.0,6223 N ALBANY AVE,60659.0,,,50.0,24.0,2.0,,41.99457502313327,-87.7066763049552,"(41.994575023133265, -87.70667630495521)",2011-05-05
21530,05/05/2011,Completed,05/13/2011,11-01424950,Abandoned Vehicle Complaint,UNKNOWN,Honda,Cream,FVI - Outcome,Vehicle was moved from original address requested,30.0,2609 W FARWELL AVE,60645.0,,,50.0,24.0,2.0,,42.00572506632226,-87.69537427332934,"(42.00572506632226, -87.69537427332935)",2011-05-05
21531,05/05/2011,Completed,05/13/2011,11-01432107,Abandoned Vehicle Complaint,7665600,Volvo,Black,FVI - Outcome,Vehicle was moved from original address requested,15.0,822 W ARGYLE ST,60640.0,,,48.0,20.0,3.0,,41.97347601824492,-87.65116064769734,"(41.97347601824492, -87.65116064769735)",2011-05-05
21532,05/05/2011,Completed,05/13/2011,11-01436369,Abandoned Vehicle Complaint,LV6733,Dodge,Black,FVI - Outcome,Vehicle was moved from original address requested,11.0,7419 N WINCHESTER AVE,60626.0,,,49.0,24.0,1.0,,42.01721750114461,-87.67890990621298,"(42.01721750114461, -87.67890990621298)",2011-05-05
21533,05/05/2011,Completed,05/16/2011,11-01423572,Abandoned Vehicle Complaint,UNKNOWN,Chevrolet,Green,FVI - Outcome,Return to Owner - Vehicle,30.0,3106 W WALNUT ST,60612.0,,,27.0,13.0,27.0,,41.88553435403034,-87.70414256354084,"(41.885534354030334, -87.70414256354084)",2011-05-05
21534,05/05/2011,Completed,05/16/2011,11-01423654,Abandoned Vehicle Complaint,K710040,Ford,Green,FVI - Outcome,Vehicle was moved from original address requested,21.0,1750 N NATCHEZ AVE,60707.0,,,36.0,25.0,25.0,,41.912416143523934,-87.78851498258824,"(41.91241614352393, -87.78851498258824)",2011-05-05
21535,05/05/2011,Completed,05/16/2011,11-01430167,Abandoned Vehicle Complaint,312,Ford,Red,FVI - Outcome,Vehicle was moved from original address requested,14.0,2443 N NEW ENGLAND AVE,60707.0,,,36.0,25.0,18.0,,41.92485738900043,-87.79757063444521,"(41.92485738900043, -87.79757063444521)",2011-05-05
21536,05/05/2011,Completed,05/16/2011,11-01443132,Abandoned Vehicle Complaint,124168,Ford,Black,FVI - Outcome,Vehicle was moved from original address requested,22.0,2160 W EASTWOOD AVE,60625.0,,,47.0,19.0,4.0,,41.96606015477791,-87.68311743206543,"(41.96606015477791, -87.68311743206543)",2011-05-05
21537,05/05/2011,Completed,05/17/2011,11-01420743,Abandoned Vehicle Complaint,5452409,Jeep/Cherokee,Red,FVI - Outcome,Vehicle was moved from original address requested,6.0,1001 N KEDVALE AVE,60651.0,,,37.0,11.0,23.0,,41.899051530527615,-87.72973998475236,"(41.899051530527615, -87.72973998475234)",2011-05-05
21538,05/05/2011,Completed,05/17/2011,11-01425410,Abandoned Vehicle Complaint,H797873,Honda,Red,FVI - Outcome,Vehicle was moved from original address requested,160.0,5929 W HIGGINS AVE,60630.0,,,45.0,16.0,11.0,,41.972728524224785,-87.77701388175697,"(41.97272852422478, -87.77701388175697)",2011-05-05
21539,05/05/2011,Completed,05/17/2011,11-01429436,Abandoned Vehicle Complaint,K687039,Chevrolet,Black,FVI - Outcome,Return to Owner - Vehicle,30.0,3751 S WOOD ST,60609.0,,,11.0,9.0,59.0,,41.825288830201686,-87.67011633720955,"(41.82528883020169, -87.67011633720954)",2011-05-05
21540,05/05/2011,Completed,05/17/2011,11-01438126,Abandoned Vehicle Complaint,Y28913,Lexus,Brown,FVI - Outcome,Vehicle was moved from original address requested,15.0,2523 S STARK ST,60608.0,,,11.0,9.0,60.0,,41.84575715277017,-87.65398093268206,"(41.84575715277017, -87.65398093268207)",2011-05-05
21541,05/05/2011,Completed,05/18/2011,11-01426191,Abandoned Vehicle Complaint,6231795,Nissan,Silver,FVI - Outcome,Vehicle was moved from original address requested,30.0,4913 N LOWELL AVE,60630.0,,,39.0,17.0,14.0,,41.97040285234858,-87.73658431983438,"(41.97040285234858, -87.73658431983439)",2011-05-05
21542,05/05/2011,Completed,05/18/2011,11-01427805,Abandoned Vehicle Complaint,1409816,Volvo,Maroon,FVI - Outcome,Return to Owner - Vehicle,7.0,3911 N CENTRAL PARK AVE,60618.0,,,33.0,17.0,16.0,,41.95281056227224,-87.71763778365325,"(41.95281056227224, -87.71763778365323)",2011-05-05
21543,05/05/2011,Completed,05/19/2011,11-01434313,Abandoned Vehicle Complaint,K488005,Oldsmobile,Tan,FVI - Outcome,Vehicle was moved from original address requested,30.0,3847 N OCONTO AVE,60634.0,,,38.0,16.0,17.0,,41.95026869360911,-87.80824202464736,"(41.95026869360911, -87.80824202464734)",2011-05-05
21544,05/05/2011,Completed,05/20/2011,11-01430314,Abandoned Vehicle Complaint,DOUBLEE,Jaguar,Black,FVI - Outcome,Vehicle was moved from original address requested,30.0,6216 N FRANCISCO AVE,60659.0,,,50.0,24.0,2.0,,41.99448010544295,-87.70210742888598,"(41.99448010544295, -87.70210742888598)",2011-05-05
21545,05/05/2011,Completed,05/23/2011,11-01422029,Abandoned Vehicle Complaint,24147X,Chevrolet,White,FVI - Outcome,Need Vehicle Tow Report,65.0,1823 W WEBSTER AVE,60614.0,,,32.0,14.0,22.0,,41.92135394985125,-87.67359255189976,"(41.92135394985125, -87.67359255189977)",2011-05-05
21546,05/05/2011,Completed,05/23/2011,11-01426976,Abandoned Vehicle Complaint,H244344,Pontiac,Black,FVI - Outcome,Need Vehicle Tow Report,30.0,2103 W 50TH PL,60609.0,,,16.0,9.0,61.0,,41.802001904082104,-87.67713004733828,"(41.80200190408211, -87.67713004733828)",2011-05-05
21547,05/05/2011,Completed,05/23/2011,11-01428449,Abandoned Vehicle Complaint,A905954,Dodge,Black,FVI - Outcome,Vehicle was moved from original address requested,90.0,2035 N SAWYER AVE,60647.0,,,35.0,14.0,22.0,,41.91848755561532,-87.70881330301275,"(41.91848755561532, -87.70881330301275)",2011-05-05
21548,05/05/2011,Completed,05/23/2011,11-01432251,Abandoned Vehicle Complaint,3715650,Chevrolet,Blue,FVI - Outcome,Vehicle was moved from original address requested,14.0,5147 S ARTESIAN AVE,60632.0,,,14.0,9.0,63.0,,41.799743106414425,-87.68527084185318,"(41.79974310641443, -87.68527084185318)",2011-05-05
21549,05/05/2011,Completed,05/23/2011,11-01436585,Abandoned Vehicle Complaint,X33 1735,Volvo,Black,FVI - Outcome,Vehicle was moved from original address requested,365.0,3021 W SCHUBERT AVE,60647.0,,,35.0,14.0,22.0,,41.930117186037336,-87.70332133743828,"(41.930117186037336, -87.70332133743828)",2011-05-05
21550,05/05/2011,Completed,05/23/2011,11-01440437,Abandoned Vehicle Complaint,------,Ford,Maroon,FVI - Outcome,Vehicle was moved from original address requested,40.0,7310 S OGLESBY AVE,60649.0,,,7.0,3.0,43.0,,41.76223237401551,-87.56780428726087,"(41.76223237401551, -87.56780428726088)",2011-05-05
21551,05/05/2011,Completed,05/24/2011,11-01414558,Abandoned Vehicle Complaint,8797547,Buick,Gray,FVI - Outcome,Vehicle was moved from original address requested,9.0,12155 S PARNELL AVE,60628.0,,,34.0,5.0,53.0,,41.67262940711448,-87.6355789655395,"(41.67262940711448, -87.6355789655395)",2011-05-05
21552,05/05/2011,Completed,05/24/2011,11-01427456,Abandoned Vehicle Complaint,UNKNOWN,Legacy Unknown,Blue,FVI - Outcome,Vehicle was moved from original address requested,365.0,6800 N OLMSTED AVE,60631.0,,,41.0,16.0,9.0,,42.00362372537368,-87.819900872802,"(42.00362372537368, -87.819900872802)",2011-05-05
21553,05/05/2011,Completed,05/24/2011,11-01436499,Abandoned Vehicle Complaint,H421503,Chevrolet,Tan,FVI - Outcome,Vehicle was moved from original address requested,14.0,7333 W FITCH AVE,60631.0,,,41.0,16.0,9.0,,42.0106038144904,-87.81045270445887,"(42.0106038144904, -87.81045270445888)",2011-05-05
21554,05/05/2011,Completed,05/25/2011,11-01421997,Abandoned Vehicle Complaint,K395814,Dodge,Gray,FVI - Outcome,Need Vehicle Tow Report,7.0,4516 S WOLCOTT AVE,60609.0,,,12.0,9.0,61.0,,41.81162903640911,-87.67248427757639,"(41.81162903640911, -87.67248427757639)",2011-05-05
21555,05/05/2011,Completed,05/25/2011,11-01422781,Abandoned Vehicle Complaint,L206048,Chevrolet,Blue,FVI - Outcome,Need Vehicle Tow Report,30.0,5747 S HONORE ST,60636.0,,,15.0,7.0,67.0,,41.78892681814864,-87.67037294114944,"(41.78892681814864, -87.67037294114944)",2011-05-05
21556,05/05/2011,Completed,05/25/2011,11-01423006,Abandoned Vehicle Complaint,X8223939,Mercury,Burgundy,FVI - Outcome,Need Vehicle Tow Report,30.0,518 E 91ST ST,60619.0,,,6.0,6.0,44.0,,41.72935998209913,-87.61111966841897,"(41.729359982099126, -87.61111966841897)",2011-05-05
21557,05/05/2011,Completed,05/25/2011,11-01423057,Abandoned Vehicle Complaint,NONE,Ford,White,FVI - Outcome,Need Vehicle Tow Report,7.0,8215 S PEORIA ST,60620.0,,,21.0,6.0,71.0,,41.7446563051955,-87.64614887411524,"(41.7446563051955, -87.64614887411523)",2011-05-05
21558,05/05/2011,Completed,05/25/2011,11-01424214,Abandoned Vehicle Complaint,G874251,Pontiac,Black,FVI - Outcome,Need Vehicle Tow Report,14.0,6937 S MERRILL AVE,60649.0,,,5.0,3.0,43.0,,41.76873348092018,-87.57255301759676,"(41.76873348092019, -87.57255301759676)",2011-05-05
21559,05/05/2011,Completed,05/25/2011,11-01424914,Abandoned Vehicle Complaint,719ACR,Buick,White,FVI - Outcome,Need Vehicle Tow Report,21.0,2123 S RIDGEWAY AVE,60623.0,,,24.0,10.0,29.0,,41.85234108807858,-87.71852772600847,"(41.852341088078575, -87.71852772600847)",2011-05-05
21560,05/05/2011,Completed,05/25/2011,11-01425078,Abandoned Vehicle Complaint,448M154 TEMP,Ford,White,FVI - Outcome,Need Vehicle Tow Report,30.0,8033 S KIRKLAND AVE,60652.0,,,13.0,8.0,70.0,,41.74603302719713,-87.7294317547953,"(41.746033027197136, -87.7294317547953)",2011-05-05
21561,05/05/2011,Completed,05/25/2011,11-01428134,Abandoned Vehicle Complaint,K404938,Pontiac,Gray,FVI - Outcome,Need Vehicle Tow Report,7.0,5800 S DR MARTIN LUTHER KING JR DR,60637.0,1179914.19719652,1866647.69987748,20.0,2.0,40.0,,41.789260658230035,-87.61599203470831,"(41.789260658230035, -87.61599203470831)",2011-05-05
21562,05/05/2011,Completed,05/25/2011,11-01428557,Abandoned Vehicle Complaint,K116382,Oldsmobile,Gold,FVI - Outcome,Need Vehicle Tow Report,8.0,2910 S QUINN ST,60608.0,,,11.0,9.0,60.0,,41.84054925782469,-87.65044872746006,"(41.840549257824684, -87.65044872746006)",2011-05-05
21563,05/05/2011,Completed,05/25/2011,11-01430206,Abandoned Vehicle Complaint,G335767,General Motors Corp.,White,FVI - Outcome,Need Vehicle Tow Report,7.0,6337 S LONG AVE,60638.0,,,13.0,8.0,64.0,,41.77710130859283,-87.75667647470283,"(41.777101308592826, -87.75667647470284)",2011-05-05
21564,05/05/2011,Completed,05/27/2011,11-01433257,Abandoned Vehicle Complaint,K775275,Ford,Blue,FVI - Outcome,Vehicle was moved from original address requested,30.0,4541 N MALDEN ST,60640.0,,,46.0,23.0,3.0,34.0,41.96479752844543,-87.66224481476497,"(41.96479752844543, -87.66224481476499)",2011-05-05
21565,05/05/2011,Completed,06/02/2011,11-01427562,Abandoned Vehicle Complaint,UNKNOWN,Honda,Black,FVI - Outcome,Vehicle was moved from original address requested,7.0,8200 S SAGINAW AVE,60617.0,,,7.0,4.0,46.0,,41.746268680732356,-87.56022233283467,"(41.746268680732356, -87.56022233283466)",2011-05-05
21566,05/05/2011,Completed,06/03/2011,11-01438260,Abandoned Vehicle Complaint,NONE,Dodge,White,FVI - Outcome,Vehicle was moved from original address requested,15.0,5549 N PARKSIDE AVE,60630.0,,,45.0,16.0,11.0,,41.982559640250656,-87.7694162364471,"(41.982559640250656, -87.76941623644711)",2011-05-05
