,Creation Date,Status,Completion Date,Service Request Number,Type of Service Request,Street Address,ZIP Code,X Coordinate,Y Coordinate,Ward,Police District,Community Area,Latitude,Longitude,Location,date
24495,06/01/2012,Completed - Dup,06/01/2012,12-01014815,Street Light - 1/Out,6416 W DEVON AVE,60631.0,1132520.27887587,1942097.09757436,41.0,16.0,10.0,41.997351511165064,-87.78786997683262,"(41.99735151116506,-87.78786997683261)",2012-06-01
24496,06/01/2012,Completed - Dup,06/02/2012,12-01014243,Street Light - 1/Out,6404 S KARLOV AVE,60629.0,1150137.92746642,1861818.32781313,13.0,8.0,65.0,41.776731716226585,-87.72515374026585,"(41.776731716226585,-87.72515374026585)",2012-06-01
24497,06/01/2012,Completed - Dup,06/02/2012,12-01015399,Street Light - 1/Out,8112 S YALE AVE,60620.0,1176026.10230166,1851186.21543124,21.0,6.0,44.0,41.747014361391955,-87.63056716321069,"(41.74701436139195,-87.63056716321069)",2012-06-01
24498,06/01/2012,Completed - Dup,06/04/2012,12-01009956,Street Light - 1/Out,4409 W THOMAS ST,60651.0,1146778.75461213,1906963.66238943,37.0,11.0,23.0,41.9006812159022,-87.73631815195316,"(41.900681215902196,-87.73631815195317)",2012-06-01
24499,06/01/2012,Completed - Dup,06/04/2012,12-01010194,Street Light - 1/Out,4947 S KARLOV AVE,60632.0,1149865.39927725,1871502.47121552,14.0,8.0,57.0,41.80331178696947,-87.72590199936859,"(41.80331178696948,-87.7259019993686)",2012-06-01
24500,06/01/2012,Completed - Dup,06/04/2012,12-01011366,Street Light - 1/Out,5057 S CHRISTIANA AVE,60632.0,1154895.71548093,1870894.76358791,14.0,8.0,63.0,41.80154511789552,-87.70746946962862,"(41.80154511789552,-87.70746946962863)",2012-06-01
24501,06/01/2012,Completed - Dup,06/04/2012,12-01013566,Street Light - 1/Out,4314 N TROY ST,60618.0,1154610.07333353,1928500.15907425,33.0,17.0,16.0,41.95962588335153,-87.70697518156801,"(41.959625883351535,-87.70697518156801)",2012-06-01
24502,06/01/2012,Completed - Dup,06/04/2012,12-01015393,Street Light - 1/Out,1729 W HASTINGS ST,60608.0,1165008.43511679,1893776.5846334,2.0,12.0,28.0,41.86412717359338,-87.66973391392173,"(41.86412717359338,-87.66973391392173)",2012-06-01
24503,06/01/2012,Completed - Dup,06/04/2012,12-01015441,Street Light - 1/Out,3400 W 53RD PL,60632.0,1154620.11003025,1868938.8499742001,14.0,8.0,63.0,41.7961833170411,-87.70853236640848,"(41.7961833170411,-87.70853236640849)",2012-06-01
24504,06/01/2012,Completed - Dup,06/04/2012,12-01015485,Street Light - 1/Out,11801 S BELL AVE,60643.0,1163241.36622168,1826440.53018023,19.0,22.0,75.0,41.679385084700044,-87.67810396734356,"(41.679385084700044,-87.67810396734357)",2012-06-01
24505,06/01/2012,Completed - Dup,06/05/2012,12-01009951,Street Light - 1/Out,5526 W DRUMMOND PL,60639.0,1139084.0515254,1917072.6057133,30.0,25.0,19.0,41.92856476952517,-87.76433530656756,"(41.928564769525174,-87.76433530656755)",2012-06-01
24506,06/01/2012,Completed - Dup,06/05/2012,12-01015220,Street Light - 1/Out,5109 S RUTHERFORD AVE,60638.0,1132261.24610693,1869945.80672458,23.0,8.0,56.0,41.799363276751976,-87.79050224295953,"(41.79936327675198,-87.79050224295953)",2012-06-01
24507,06/01/2012,Completed - Dup,06/05/2012,12-01015333,Street Light - 1/Out,111 E CHICAGO AVE,60611.0,1177063.91009432,1905749.9648663998,42.0,18.0,8.0,41.89671856006075,-87.62511636666018,"(41.89671856006075,-87.62511636666017)",2012-06-01
24508,06/01/2012,Completed - Dup,06/06/2012,12-01011232,Street Light - 1/Out,2955 E 81ST PL,60617.0,1197357.86740539,1851492.7100727002,7.0,4.0,46.0,41.74735072901535,-87.55239306986006,"(41.747350729015345,-87.55239306986007)",2012-06-01
24509,06/01/2012,Completed - Dup,06/06/2012,12-01013825,Street Light - 1/Out,4202 N HAMLIN AVE,60618.0,1150306.06327603,1927658.57980931,39.0,17.0,16.0,41.95740176763295,-87.72282078000586,"(41.957401767632945,-87.72282078000586)",2012-06-01
24510,06/01/2012,Completed - Dup,06/06/2012,12-01014850,Street Light - 1/Out,600 N SPAULDING AVE,60624.0,1154270.62199656,1903805.70801423,27.0,11.0,23.0,41.89186912475323,-87.7088843203018,"(41.89186912475323,-87.7088843203018)",2012-06-01
24511,06/01/2012,Completed - Dup,06/06/2012,12-01015418,Street Light - 1/Out,1325 W 97TH ST,60643.0,1169201.16768126,1840590.56871065,21.0,22.0,73.0,41.7180886195341,-87.65588110463769,"(41.7180886195341,-87.65588110463769)",2012-06-01
24512,06/01/2012,Completed - Dup,06/06/2012,12-01015500,Street Light - 1/Out,3430 N LARAMIE AVE,60641.0,1141089.47030438,1922442.48801686,38.0,16.0,15.0,41.94326350773522,-87.75683327848957,"(41.94326350773522,-87.75683327848958)",2012-06-01
24513,06/01/2012,Completed - Dup,06/06/2012,12-01015567,Street Light - 1/Out,5349 S MELVINA AVE,60638.0,1135947.26100612,1868468.30792303,23.0,8.0,56.0,41.79524408837618,-87.77701946019549,"(41.79524408837618,-87.77701946019549)",2012-06-01
24514,06/01/2012,Completed - Dup,06/07/2012,12-01009724,Street Light - 1/Out,543 W 57TH PL,60621.0,1173726.85921285,1866792.97328525,3.0,7.0,68.0,41.789892357748144,-87.63853020207605,"(41.78989235774814,-87.63853020207607)",2012-06-01
24515,06/01/2012,Completed - Dup,06/07/2012,12-01011421,Street Light - 1/Out,2959 N NATCHEZ AVE,60634.0,1132569.82657184,1918970.34227405,36.0,25.0,19.0,41.933888509993814,-87.78822895748596,"(41.93388850999381,-87.78822895748596)",2012-06-01
24516,06/01/2012,Completed - Dup,06/07/2012,12-01015343,Street Light - 1/Out,531 W 57TH PL,60621.0,1173786.95921285,1866794.87328525,3.0,7.0,68.0,41.789896238519155,-87.63830977738598,"(41.789896238519155,-87.63830977738598)",2012-06-01
24517,06/01/2012,Completed - Dup,06/08/2012,12-01010834,Street Light - 1/Out,5466 W LUNT AVE,60646.0,1138939.26000782,1945968.57331024,41.0,16.0,12.0,42.00786048469568,-87.76416196872314,"(42.00786048469567,-87.76416196872314)",2012-06-01
24518,06/01/2012,Completed - Dup,06/08/2012,12-01015437,Street Light - 1/Out,9660 S OGLESBY AVE,60617.0,1193744.14948173,1841353.12021261,7.0,4.0,51.0,41.719616026436526,-87.56596575141974,"(41.71961602643653,-87.56596575141974)",2012-06-01
24519,06/01/2012,Completed - Dup,06/14/2012,12-01014603,Street Light - 1/Out,7400 S PULASKI RD,60629.0,1150993.5300841,1854975.95051679,13.0,8.0,65.0,41.75793846720993,-87.7221953237083,"(41.757938467209925,-87.72219532370829)",2012-06-01
24520,06/01/2012,Completed - Dup,07/10/2012,12-01012830,Street Light - 1/Out,612 N LOTUS AVE,60644.0,1139812.51979059,1903514.06408932,37.0,15.0,25.0,41.891345279163964,-87.7619902712611,"(41.89134527916396,-87.76199027126111)",2012-06-01
24521,06/01/2012,Completed - Dup,07/11/2012,12-01009759,Street Light - 1/Out,1866 S KEDZIE AVE,60623.0,1155319.72841333,1890810.77230078,24.0,10.0,29.0,41.856188660278136,-87.70538055362215,"(41.85618866027813,-87.70538055362216)",2012-06-01
24522,06/01/2012,Completed - Dup,07/30/2012,12-01010050,Street Light - 1/Out,5120 S HARPER AVE,60615.0,1187154.93992208,1871377.12378201,4.0,2.0,41.0,41.80216326680414,-87.58914839260153,"(41.80216326680414,-87.58914839260153)",2012-06-01
24523,06/01/2012,Completed,06/02/2012,12-01015330,Street Light - 1/Out,829 N MICHIGAN AVE,60611.0,1177134.080113,1906058.07512417,42.0,18.0,8.0,41.89756243947601,-87.62484930211168,"(41.89756243947601,-87.62484930211168)",2012-06-01
24524,06/01/2012,Completed,06/02/2012,12-01015331,Street Light - 1/Out,759 N MICHIGAN AVE,60611.0,1177295.94112501,1905612.19290409,42.0,18.0,8.0,41.89633524824946,-87.62426834780699,"(41.89633524824945,-87.62426834780698)",2012-06-01
24525,06/01/2012,Completed,06/05/2012,12-01009780,Street Light - 1/Out,12557 S UNION AVE,60628.0,1173935.67669254,1821601.06131852,9.0,5.0,53.0,41.665874946942616,-87.6391009682633,"(41.665874946942616,-87.6391009682633)",2012-06-01
24526,06/01/2012,Completed,06/05/2012,12-01012340,Street Light - 1/Out,5200 W FLOURNOY ST,60644.0,1141826.49047622,1896461.98722938,29.0,15.0,25.0,41.871956462220545,-87.75476841168552,"(41.87195646222055,-87.75476841168553)",2012-06-01
24527,06/01/2012,Completed,06/05/2012,12-01012363,Street Light - 1/Out,5200 W MADISON ST,60644.0,1141724.53663267,1899527.98867259,28.0,15.0,25.0,41.88037184680203,-87.75506689164735,"(41.88037184680202,-87.75506689164735)",2012-06-01
24528,06/01/2012,Completed,06/05/2012,12-01014229,Street Light - 1/Out,8631 W LAWRENCE AVE,60656.0,1117645.35487071,1930758.38297168,36.0,16.0,76.0,41.96648373450969,-87.84282933142866,"(41.96648373450969,-87.84282933142865)",2012-06-01
24529,06/01/2012,Completed,06/06/2012,12-01010053,Street Light - 1/Out,8700 S ESSEX AVE,60617.0,1194327.48373291,1847775.93759117,7.0,4.0,46.0,41.73722653053957,-87.563618848357,"(41.737226530539566,-87.56361884835698)",2012-06-01
24530,06/01/2012,Completed,06/06/2012,12-01011294,Street Light - 1/Out,3333 W 51ST ST,60632.0,1154879.21548093,1870611.96358791,14.0,8.0,63.0,41.80076940486981,-87.70753753277718,"(41.800769404869804,-87.70753753277717)",2012-06-01
24531,06/01/2012,Completed,06/06/2012,12-01011540,Street Light - 1/Out,1702 W 35TH ST,60609.0,1165567.07202854,1881516.74776578,11.0,9.0,59.0,41.830473135624864,-87.66803184162526,"(41.83047313562487,-87.66803184162526)",2012-06-01
24532,06/01/2012,Completed,06/06/2012,12-01012195,Street Light - 1/Out,600 E 70TH PL,60637.0,1181455.62690116,1858399.14989942,6.0,3.0,69.0,41.7666840091381,-87.61045001535825,"(41.7666840091381,-87.61045001535827)",2012-06-01
24533,06/01/2012,Completed,06/06/2012,12-01012308,Street Light - 1/Out,1230 W NORWOOD ST,60660.0,1166994.5208305,1940323.83999885,48.0,24.0,77.0,41.99181299714984,-87.6611034370063,"(41.99181299714984,-87.6611034370063)",2012-06-01
24534,06/01/2012,Completed,06/06/2012,12-01015361,Street Light - 1/Out,4533 S TROY ST,60632.0,1156128.66357975,1874411.55570768,14.0,9.0,58.0,41.811170944888886,-87.70285313364685,"(41.81117094488888,-87.70285313364685)",2012-06-01
24535,06/01/2012,Completed,06/07/2012,12-01009962,Street Light - 1/Out,2238 N SPAULDING AVE,60647.0,1153782.99733153,1914681.86919892,26.0,14.0,22.0,41.92172402030123,-87.71038507803999,"(41.92172402030123,-87.71038507803998)",2012-06-01
24536,06/01/2012,Completed,06/07/2012,12-01011376,Street Light - 1/Out,323 E 87TH ST,60619.0,1179801.45997184,1847374.52491107,6.0,6.0,44.0,41.73646918918421,-87.61684963329317,"(41.736469189184206,-87.61684963329317)",2012-06-01
24537,06/01/2012,Completed,06/07/2012,12-01014894,Street Light - 1/Out,3039 N NARRAGANSETT AVE,60634.0,1133214.20620372,1919632.69000882,36.0,25.0,19.0,41.93569480067902,-87.78584529607839,"(41.93569480067902,-87.78584529607839)",2012-06-01
24538,06/01/2012,Completed,06/08/2012,12-01014737,Street Light - 1/Out,6829 N WESTERN AVE,60645.0,1159075.75190233,1945396.02012769,50.0,24.0,2.0,42.005898114949204,-87.69009083883604,"(42.005898114949204,-87.69009083883604)",2012-06-01
24539,06/01/2012,Completed,06/08/2012,12-01015511,Street Light - 1/Out,5946 S KEELER AVE,60629.0,1149387.44388586,1864841.28709148,13.0,8.0,65.0,41.785041731437545,-87.72782698403618,"(41.785041731437545,-87.72782698403618)",2012-06-01
24540,06/01/2012,Completed,06/11/2012,12-01011050,Street Light - 1/Out,6249 W SCHOOL ST,60634.0,1134154.17572036,1921282.24449089,36.0,16.0,17.0,41.94020483710083,-87.782351817283,"(41.94020483710083,-87.782351817283)",2012-06-01
24541,06/01/2012,Completed,06/13/2012,12-01009713,Street Light - 1/Out,3211 W BELDEN AVE,60647.0,1154446.34572743,1915108.65117094,26.0,14.0,22.0,41.922881895872685,-87.70793631091259,"(41.92288189587269,-87.70793631091259)",2012-06-01
24542,06/01/2012,Completed,06/13/2012,12-01010056,Street Light - 1/Out,5459 S RACINE AVE,60609.0,1169255.61237895,1868395.90639524,16.0,9.0,61.0,41.7943889787028,-87.65487855811874,"(41.7943889787028,-87.65487855811875)",2012-06-01
24543,06/01/2012,Completed,06/13/2012,12-01014380,Street Light - 1/Out,6012 N FOREST GLEN AVE,60646.0,1144964.88127907,1939653.93919004,39.0,17.0,12.0,41.99042066613799,-87.7421525251952,"(41.990420666137986,-87.74215252519521)",2012-06-01
24544,06/01/2012,Completed,06/14/2012,12-01009964,Street Light - 1/Out,7125 N PAULINA ST,60626.0,1163884.87601366,1947569.05060612,49.0,24.0,1.0,42.011760444565226,-87.67233585446002,"(42.011760444565226,-87.67233585446002)",2012-06-01
24545,06/01/2012,Completed,06/15/2012,12-01009741,Street Light - 1/Out,833 W IRVING PARK RD,60613.0,1169919.97140987,1926765.24590218,46.0,19.0,6.0,41.954544344699315,-87.6507402101102,"(41.95454434469931,-87.65074021011021)",2012-06-01
24546,06/01/2012,Completed,06/15/2012,12-01014005,Street Light - 1/Out,3180 N LAKE SHORE DR,60657.0,1173286.2531815001,1921434.37828284,44.0,19.0,6.0,41.939842034908146,-87.63852421597079,"(41.939842034908146,-87.63852421597078)",2012-06-01
24547,06/01/2012,Completed,06/19/2012,12-01009967,Street Light - 1/Out,150 W SUPERIOR ST,60654.0,1174936.4933767999,1905328.69947847,42.0,18.0,8.0,41.89561050909604,-87.63294255882299,"(41.89561050909604,-87.632942558823)",2012-06-01
24682,06/02/2012,Completed - Dup,06/04/2012,12-01015798,Street Light - 1/Out,8144 S YALE AVE,60620.0,1176031.50230166,1851001.41543124,21.0,6.0,44.0,41.7465071264543,-87.63055290690994,"(41.7465071264543,-87.63055290690994)",2012-06-02
24683,06/02/2012,Completed - Dup,06/04/2012,12-01016630,Street Light - 1/Out,6200 S WESTERN AVE,60636.0,1161435.54662257,1863476.54837011,15.0,8.0,66.0,41.78105538368163,-87.68369088219019,"(41.78105538368163,-87.68369088219019)",2012-06-02
24684,06/02/2012,Completed - Dup,06/04/2012,12-01016937,Street Light - 1/Out,4842 W FULTON ST,60644.0,1143933.48007724,1901492.95612991,28.0,15.0,25.0,41.88572282536219,-87.74690647481468,"(41.885722825362194,-87.74690647481468)",2012-06-02
24685,06/02/2012,Completed - Dup,06/04/2012,12-01017120,Street Light - 1/Out,7952 S ARTESIAN AVE,60652.0,1161426.83511237,1851831.7197724998,18.0,8.0,70.0,41.749100474062466,-87.68404508397144,"(41.74910047406247,-87.68404508397144)",2012-06-02
24686,06/02/2012,Completed - Dup,06/05/2012,12-01015790,Street Light - 1/Out,5899 S PERRY AVE,60621.0,1176712.01063373,1865881.55240773,20.0,2.0,40.0,41.78732460448029,-87.62761201181286,"(41.78732460448029,-87.62761201181286)",2012-06-02
24687,06/02/2012,Completed - Dup,06/06/2012,12-01015638,Street Light - 1/Out,6935 S CAMPBELL AVE,60629.0,1160905.66496585,1858588.92860681,15.0,8.0,66.0,41.76765403557617,-87.68576847578693,"(41.767654035576165,-87.68576847578693)",2012-06-02
24688,06/02/2012,Completed - Dup,06/06/2012,12-01015762,Street Light - 1/Out,4500 W JACKSON BLVD,60624.0,1146436.0753083,1898308.36309377,28.0,11.0,26.0,41.87693663314597,-87.7377974887818,"(41.87693663314597,-87.7377974887818)",2012-06-02
24689,06/02/2012,Completed - Dup,06/06/2012,12-01016912,Street Light - 1/Out,9101 S UNION AVE,60620.0,1173235.88281504,1844518.81818716,21.0,22.0,73.0,41.72878021575397,-87.64098777940538,"(41.72878021575398,-87.64098777940539)",2012-06-02
24690,06/02/2012,Completed - Dup,06/06/2012,12-01017002,Street Light - 1/Out,600 N SPAULDING AVE,60624.0,1154270.62199656,1903805.70801423,27.0,11.0,23.0,41.89186912475323,-87.7088843203018,"(41.89186912475323,-87.7088843203018)",2012-06-02
24691,06/02/2012,Completed - Dup,06/07/2012,12-01015643,Street Light - 1/Out,4915 S WASHINGTON PARK CT,60615.0,1180081.82010274,1872528.6863169,4.0,2.0,38.0,41.80548837169536,-87.61505284845671,"(41.80548837169536,-87.61505284845671)",2012-06-02
24692,06/02/2012,Completed - Dup,06/07/2012,12-01016878,Street Light - 1/Out,4915 S WASHINGTON PARK CT,60615.0,1180081.82010274,1872528.6863169,4.0,2.0,38.0,41.80548837169536,-87.61505284845671,"(41.80548837169536,-87.61505284845671)",2012-06-02
24693,06/02/2012,Completed - Dup,06/07/2012,12-01016885,Street Light - 1/Out,4915 S WASHINGTON PARK CT,60615.0,1180081.82010274,1872528.6863169,4.0,2.0,38.0,41.80548837169536,-87.61505284845671,"(41.80548837169536,-87.61505284845671)",2012-06-02
24694,06/02/2012,Completed - Dup,06/07/2012,12-01017001,Street Light - 1/Out,6130 N AVONDALE AVE,60631.0,1128757.25780301,1940464.58730085,41.0,16.0,10.0,41.99293669546302,-87.80175024465919,"(41.99293669546302,-87.80175024465919)",2012-06-02
24695,06/02/2012,Completed - Dup,06/07/2012,12-01017060,Street Light - 1/Out,8100 S YALE AVE,60620.0,1176024.10230166,1851255.51543124,21.0,6.0,44.0,41.74720457392174,-87.6305724177607,"(41.74720457392174,-87.6305724177607)",2012-06-02
24696,06/02/2012,Completed - Dup,06/08/2012,12-01017000,Street Light - 1/Out,9017 S ABERDEEN ST,60620.0,1170567.70209958,1845009.26062493,21.0,22.0,73.0,41.73018453665212,-87.6507476794958,"(41.73018453665212,-87.6507476794958)",2012-06-02
24697,06/02/2012,Completed - Dup,06/08/2012,12-01017048,Street Light - 1/Out,9660 S OGLESBY AVE,60617.0,1193744.14948173,1841353.12021261,7.0,4.0,51.0,41.719616026436526,-87.56596575141974,"(41.71961602643653,-87.56596575141974)",2012-06-02
24698,06/02/2012,Completed - Dup,08/17/2012,12-01016991,Street Light - 1/Out,7529 S DREXEL AVE,60619.0,1183535.57510768,1855279.60992717,8.0,6.0,69.0,41.758075461387904,-87.60292337423815,"(41.758075461387904,-87.60292337423816)",2012-06-02
24699,06/02/2012,Completed,06/04/2012,12-01016946,Street Light - 1/Out,5027 S LAMON AVE,60638.0,1144541.56662306,1870848.06880987,23.0,8.0,56.0,41.80161758975278,-87.74544374816183,"(41.80161758975278,-87.74544374816183)",2012-06-02
24700,06/02/2012,Completed,06/06/2012,12-01015794,Street Light - 1/Out,9101 S UNION AVE,60620.0,1173235.88281504,1844518.81818716,21.0,22.0,73.0,41.72878021575397,-87.64098777940538,"(41.72878021575398,-87.64098777940539)",2012-06-02
24701,06/02/2012,Completed,06/06/2012,12-01017059,Street Light - 1/Out,1477 W GREGORY ST,60640.0,1165212.42347802,1936939.60011109,48.0,20.0,77.0,41.982564744265495,-87.66775523308786,"(41.982564744265495,-87.66775523308786)",2012-06-02
24702,06/02/2012,Completed,06/08/2012,12-01016959,Street Light - 1/Out,5540 W EDDY ST,60641.0,1138792.93808572,1923053.63823237,38.0,16.0,15.0,41.94498263819761,-87.76525942756399,"(41.94498263819761,-87.76525942756398)",2012-06-02
24703,06/02/2012,Completed,06/11/2012,12-01016974,Street Light - 1/Out,57 W 112TH ST,60628.0,1177821.88261254,1830698.98542861,34.0,5.0,49.0,41.690754250647046,-87.62460497208528,"(41.69075425064705,-87.62460497208528)",2012-06-02
24704,06/02/2012,Completed,06/13/2012,12-01016963,Street Light - 1/Out,1443 N MOHAWK ST,60610.0,1172395.16148999,1909935.52761775,43.0,18.0,8.0,41.90830844865782,-87.64213987664598,"(41.90830844865782,-87.64213987664598)",2012-06-02
24705,06/02/2012,Completed,06/15/2012,12-01016993,Street Light - 1/Out,1011 E 50TH ST,60615.0,1183828.43071879,1872066.0292852002,4.0,2.0,39.0,41.80413206239525,-87.60132638961453,"(41.80413206239525,-87.60132638961453)",2012-06-02
24706,06/02/2012,Completed,06/18/2012,12-01015801,Street Light - 1/Out,6900 S STATE ST,60637.0,1177494.499899,1859280.89118988,6.0,3.0,69.0,41.769194040177716,-87.62494235159393,"(41.76919404017771,-87.62494235159394)",2012-06-02
24707,06/02/2012,Completed,06/21/2012,12-01017099,Street Light - 1/Out,2149 N MELVINA AVE,60639.0,1134728.11012106,1913573.94002889,29.0,25.0,19.0,41.919042228732096,-87.78042507674091,"(41.919042228732096,-87.7804250767409)",2012-06-02
24708,06/02/2012,Completed,06/25/2012,12-01016780,Street Light - 1/Out,4735 W ALTGELD ST,60639.0,1144405.49108795,1916264.93319957,31.0,25.0,19.0,41.926249867977035,-87.74480095539819,"(41.92624986797703,-87.7448009553982)",2012-06-02
24709,06/02/2012,Completed,10/02/2012,12-01015797,Street Light - 1/Out,206 W 90TH PL,60620.0,1176400.51662363,1844800.03157082,21.0,6.0,49.0,41.72948146710739,-87.62938662556087,"(41.72948146710739,-87.62938662556088)",2012-06-02
24847,06/03/2012,Completed - Dup,06/05/2012,12-01018482,Street Light - 1/Out,2100 N LEAMINGTON AVE,60639.0,1141713.73307914,1913475.99420217,37.0,25.0,19.0,41.918646997398966,-87.75476116230737,"(41.91864699739897,-87.75476116230737)",2012-06-03
24848,06/03/2012,Completed - Dup,06/06/2012,12-01018402,Street Light - 1/Out,934 E 48TH ST,60615.0,1183449.92000871,1873385.01160964,4.0,2.0,39.0,41.807760290125216,-87.60267344537621,"(41.80776029012522,-87.6026734453762)",2012-06-03
24849,06/03/2012,Completed - Dup,06/07/2012,12-01017932,Street Light - 1/Out,7717 S LANGLEY AVE,60619.0,1182231.29227634,1853993.93602512,6.0,6.0,69.0,41.75457772646336,-87.60774312583666,"(41.75457772646336,-87.60774312583665)",2012-06-03
24850,06/03/2012,Completed - Dup,06/07/2012,12-01018372,Street Light - 1/Out,3416 W SCHUBERT AVE,60647.0,1153145.53276761,1917748.42879153,35.0,14.0,22.0,41.930151596209456,-87.71264574555106,"(41.930151596209456,-87.71264574555104)",2012-06-03
24851,06/03/2012,Completed - Dup,06/07/2012,12-01018407,Street Light - 1/Out,5218 W WELLINGTON AVE,60641.0,1141064.23689419,1919447.81400602,31.0,25.0,19.0,41.935046293294256,-87.75700002601818,"(41.93504629329426,-87.75700002601818)",2012-06-03
24852,06/03/2012,Completed - Dup,06/11/2012,12-01018517,Street Light - 1/Out,4000 N DAMEN AVE,60618.0,1162300.98682975,1926564.62502791,47.0,19.0,5.0,41.95415693798246,-87.6787543121177,"(41.95415693798246,-87.6787543121177)",2012-06-03
24853,06/03/2012,Completed - Dup,06/19/2012,12-01018176,Street Light - 1/Out,7032 S ST LAWRENCE AVE,60637.0,1181455.92690116,1858389.74989942,6.0,3.0,69.0,41.76665820766671,-87.6104492053214,"(41.76665820766671,-87.6104492053214)",2012-06-03
24854,06/03/2012,Completed - Dup,06/20/2012,12-01018068,Street Light - 1/Out,7700 S MARSHFIELD AVE,60620.0,1166680.21197367,1853649.40337484,17.0,6.0,71.0,41.753978055188725,-87.66474286625927,"(41.753978055188725,-87.66474286625927)",2012-06-03
24855,06/03/2012,Completed - Dup,07/16/2012,12-01018330,Street Light - 1/Out,4307 W VAN BUREN ST,60624.0,1147744.78940614,1897674.69288715,24.0,11.0,26.0,41.875172749073634,-87.73300850980014,"(41.87517274907363,-87.73300850980014)",2012-06-03
24856,06/03/2012,Completed - Dup,08/02/2012,12-01018306,Street Light - 1/Out,1533 S HAMLIN AVE,60623.0,1151296.04973302,1892221.51771972,24.0,10.0,29.0,41.86013971417697,-87.72011262948051,"(41.86013971417697,-87.72011262948052)",2012-06-03
24857,06/03/2012,Completed - Dup,08/15/2012,12-01018439,Street Light - 1/Out,9000 S EMERALD AVE,60620.0,1172897.77999606,1844849.5700279998,21.0,22.0,71.0,41.72969530045612,-87.64221659635044,"(41.72969530045612,-87.64221659635044)",2012-06-03
24858,06/03/2012,Completed,06/05/2012,12-01017511,Street Light - 1/Out,4157 W CARROLL AVE,60624.0,1148612.87899093,1901911.05000862,28.0,11.0,26.0,41.88678108568785,-87.72971180413134,"(41.88678108568785,-87.72971180413134)",2012-06-03
24859,06/03/2012,Completed,06/06/2012,12-01017123,Street Light - 1/Out,1122 W BERWYN AVE,60640.0,1167790.07677796,1935358.23028949,48.0,20.0,77.0,41.97817006812622,-87.65832111180015,"(41.97817006812622,-87.65832111180016)",2012-06-03
24860,06/03/2012,Completed,06/06/2012,12-01018423,Street Light - 1/Out,2315 W 81ST PL,60620.0,1162281.91456613,1850460.34263331,18.0,8.0,70.0,41.74531945831609,-87.68094982673294,"(41.74531945831609,-87.68094982673294)",2012-06-03
24861,06/03/2012,Completed,06/06/2012,12-01018519,Street Light - 1/Out,6831 S TALMAN AVE,60629.0,1159885.98991247,1859249.98283193,15.0,8.0,66.0,41.76948907050396,-87.68948792165956,"(41.76948907050396,-87.68948792165956)",2012-06-03
24862,06/03/2012,Completed,06/07/2012,12-01018428,Street Light - 1/Out,3012 N NORMANDY AVE,60634.0,1131229.68031907,1919287.08510863,36.0,25.0,18.0,41.93478096579382,-87.79314671041935,"(41.93478096579382,-87.79314671041934)",2012-06-03
24863,06/03/2012,Completed,06/07/2012,12-01018440,Street Light - 1/Out,2228 W 18TH PL,60608.0,1161716.10002863,1891040.42001452,25.0,12.0,31.0,41.85668806964906,-87.68189616848659,"(41.85668806964906,-87.6818961684866)",2012-06-03
24864,06/03/2012,Completed,06/08/2012,12-01018480,Street Light - 1/Out,4916 N SPAULDING AVE,60625.0,1153492.15197562,1932468.98476698,39.0,17.0,14.0,41.97053894004605,-87.71097919279265,"(41.97053894004605,-87.71097919279264)",2012-06-03
24865,06/03/2012,Completed,06/11/2012,12-01018383,Street Light - 1/Out,10449 S AVENUE H,60617.0,1202827.54076569,1836285.1296299999,10.0,4.0,52.0,41.70548207678825,-87.53286932877941,"(41.70548207678825,-87.5328693287794)",2012-06-03
24866,06/03/2012,Completed,06/12/2012,12-01018387,Street Light - 1/Out,7807 S OGLESBY AVE,60649.0,1193221.79879068,1853661.20598795,7.0,4.0,43.0,41.753403271247024,-87.56747777371704,"(41.753403271247024,-87.56747777371704)",2012-06-03
24867,06/03/2012,Completed,06/13/2012,12-01018374,Street Light - 1/Out,1700 N MOZART ST,60647.0,1157157.97897018,1911291.18832633,1.0,14.0,24.0,41.91235177730242,-87.69807673324475,"(41.91235177730242,-87.69807673324475)",2012-06-03
24868,06/03/2012,Completed,06/19/2012,12-01017285,Street Light - 1/Out,1632 W CHICAGO AVE,60622.0,1165245.47988401,1905412.91011844,1.0,13.0,24.0,41.89605315994038,-87.66853284360461,"(41.89605315994038,-87.6685328436046)",2012-06-03
24869,06/03/2012,Completed,06/20/2012,12-01018516,Street Light - 1/Out,1721 W 65TH ST,60636.0,1165892.22858572,1861591.81907119,15.0,7.0,67.0,41.77578988685086,-87.66740522819546,"(41.77578988685086,-87.66740522819545)",2012-06-03
24913,06/04/2012,Completed - Dup,06/04/2012,12-01018799,Street Light - 1/Out,4846 W FULTON ST,60644.0,1143914.18007724,1901492.55612991,28.0,15.0,25.0,41.885722089613594,-87.74697735922285,"(41.88572208961359,-87.74697735922284)",2012-06-04
24914,06/04/2012,Completed - Dup,06/04/2012,12-01018800,Street Light - 1/Out,4409 W THOMAS ST,60651.0,1146778.75461213,1906963.66238943,37.0,11.0,23.0,41.9006812159022,-87.73631815195316,"(41.900681215902196,-87.73631815195317)",2012-06-04
24915,06/04/2012,Completed - Dup,06/04/2012,12-01019458,Street Light - 1/Out,8943 S CLAREMONT AVE,60643.0,1162274.00001316,1845093.08997618,19.0,22.0,72.0,41.73059104561312,-87.6811278680575,"(41.730591045613124,-87.6811278680575)",2012-06-04
24916,06/04/2012,Completed - Dup,06/04/2012,12-01021201,Street Light - 1/Out,5029 S LAMON AVE,60638.0,1144541.86662306,1870834.66880987,23.0,8.0,56.0,41.80158081239539,-87.74544298404774,"(41.8015808123954,-87.74544298404773)",2012-06-04
24917,06/04/2012,Completed - Dup,06/04/2012,12-01021259,Street Light - 1/Out,3930 W 105TH ST,60655.0,1151995.52177758,1834690.44008091,19.0,22.0,74.0,41.702251792142334,-87.71905365617529,"(41.702251792142334,-87.7190536561753)",2012-06-04
24918,06/04/2012,Completed - Dup,06/04/2012,12-01021430,Street Light - 1/Out,3930 W 105TH ST,60655.0,1151995.52177758,1834690.44008091,19.0,22.0,74.0,41.702251792142334,-87.71905365617529,"(41.702251792142334,-87.7190536561753)",2012-06-04
24919,06/04/2012,Completed - Dup,06/04/2012,12-01022305,Street Light - 1/Out,6799 S KOLMAR AVE,60629.0,1147254.35951637,1859121.28440987,13.0,8.0,65.0,41.76938605236129,-87.73579363665489,"(41.76938605236129,-87.73579363665489)",2012-06-04
24920,06/04/2012,Completed - Dup,06/04/2012,12-01022832,Street Light - 1/Out,6743 S KILBOURN AVE,60629.0,1147538.84520471,1859506.61719814,13.0,8.0,65.0,41.7704380420969,-87.73474099636795,"(41.7704380420969,-87.73474099636795)",2012-06-04
24921,06/04/2012,Completed - Dup,06/05/2012,12-01018704,Street Light - 1/Out,3415 W 53RD PL,60632.0,1154519.01003025,1868936.0499742,14.0,8.0,63.0,41.796177649273226,-87.70890318536655,"(41.796177649273226,-87.70890318536655)",2012-06-04
24922,06/04/2012,Completed - Dup,06/05/2012,12-01021213,Street Light - 1/Out,8200 S KINGSTON AVE,60617.0,1194601.50161214,1851094.98177619,7.0,4.0,46.0,41.746327534830215,-87.56250602517427,"(41.74632753483021,-87.56250602517426)",2012-06-04
24923,06/04/2012,Completed - Dup,06/05/2012,12-01024927,Street Light - 1/Out,5615 S NEENAH AVE,60638.0,1133675.57800552,1866605.28628119,23.0,8.0,56.0,41.79017165744647,-87.78539349446275,"(41.79017165744647,-87.78539349446275)",2012-06-04
24924,06/04/2012,Completed - Dup,06/06/2012,12-01018562,Street Light - 1/Out,1478 W GREGORY ST,60640.0,1165202.42347802,1936939.30011109,48.0,20.0,77.0,41.98256413428068,-87.66779201916958,"(41.98256413428068,-87.66779201916958)",2012-06-04
24925,06/04/2012,Completed - Dup,06/06/2012,12-01018797,Street Light - 1/Out,1542 N LONG AVE,60651.0,1140067.73379553,1909728.03151117,37.0,25.0,25.0,41.908392479064034,-87.76090070483343,"(41.908392479064034,-87.76090070483343)",2012-06-04
24926,06/04/2012,Completed - Dup,06/06/2012,12-01020357,Street Light - 1/Out,2711 W WASHINGTON BLVD,60612.0,1158286.57011805,1900573.71728471,2.0,13.0,27.0,41.88291909953859,-87.69422388990624,"(41.88291909953859,-87.69422388990624)",2012-06-04
24927,06/04/2012,Completed - Dup,06/06/2012,12-01020458,Street Light - 1/Out,4500 W JACKSON BLVD,60624.0,1146436.0753083,1898308.36309377,28.0,11.0,26.0,41.87693663314597,-87.7377974887818,"(41.87693663314597,-87.7377974887818)",2012-06-04
24928,06/04/2012,Completed - Dup,06/06/2012,12-01021589,Street Light - 1/Out,6133 W FLETCHER ST,60634.0,1134957.55022095,1920298.8079136002,36.0,25.0,19.0,41.93749197232532,-87.77942245532343,"(41.93749197232532,-87.77942245532344)",2012-06-04
24929,06/04/2012,Completed - Dup,06/06/2012,12-01022082,Street Light - 1/Out,706 W ADDISON ST,60613.0,1170846.72991617,1924151.33076835,46.0,19.0,6.0,41.9473513645468,-87.64741023488926,"(41.9473513645468,-87.64741023488926)",2012-06-04
24930,06/04/2012,Completed - Dup,06/06/2012,12-01023047,Street Light - 1/Out,247 W 23RD PL,60616.0,1174981.34548583,1888724.72993097,25.0,9.0,34.0,41.85004715059608,-87.63327519069126,"(41.85004715059608,-87.63327519069126)",2012-06-04
24931,06/04/2012,Completed - Dup,06/06/2012,12-01024647,Street Light - 1/Out,3800 W BERTEAU AVE,60618.0,1150306.46327603,1927645.17980931,39.0,17.0,16.0,41.95736498923945,-87.72281966043215,"(41.95736498923945,-87.72281966043214)",2012-06-04
24932,06/04/2012,Completed - Dup,06/06/2012,12-01025399,Street Light - 1/Out,7200 W FOSTER AVE,60656.0,1127353.20932643,1933751.17267389,41.0,16.0,10.0,41.974538213853606,-87.80706668487636,"(41.9745382138536,-87.80706668487636)",2012-06-04
24933,06/04/2012,Completed - Dup,06/06/2012,12-01025452,Street Light - 1/Out,2315 W 81ST PL,60620.0,1162281.91456613,1850460.34263331,18.0,8.0,70.0,41.74531945831609,-87.68094982673294,"(41.74531945831609,-87.68094982673294)",2012-06-04
24934,06/04/2012,Completed - Dup,06/06/2012,12-01025488,Street Light - 1/Out,7944 S LOWE AVE,60620.0,1173346.66387504,1852210.07193226,17.0,6.0,71.0,41.749883587286746,-87.64035509002073,"(41.749883587286746,-87.64035509002073)",2012-06-04
24935,06/04/2012,Completed - Dup,06/06/2012,12-01025510,Street Light - 1/Out,1649 S KOMENSKY AVE,60623.0,1149656.56932692,1891410.69671647,24.0,10.0,29.0,41.85794669810354,-87.72615183011652,"(41.85794669810354,-87.72615183011652)",2012-06-04
24936,06/04/2012,Completed - Dup,06/06/2012,12-01025540,Street Light - 1/Out,1847 S KOMENSKY AVE,60623.0,1149677.20422521,1890725.82057242,24.0,10.0,29.0,41.85606691363407,-87.72609386595045,"(41.856066913634066,-87.72609386595046)",2012-06-04
24937,06/04/2012,Completed - Dup,06/07/2012,12-01018710,Street Light - 1/Out,8151 S AVALON AVE,60619.0,1185961.03579572,1851193.25041331,8.0,4.0,45.0,41.746805235629786,-87.59416308860071,"(41.746805235629786,-87.59416308860072)",2012-06-04
24938,06/04/2012,Completed - Dup,06/07/2012,12-01020364,Street Light - 1/Out,8045 S TALMAN AVE,60652.0,1160111.60169714,1851085.5301248,18.0,8.0,70.0,41.74707994824009,-87.68888511756339,"(41.74707994824009,-87.68888511756337)",2012-06-04
24939,06/04/2012,Completed - Dup,06/07/2012,12-01020541,Street Light - 1/Out,542 W 57TH PL,60621.0,1173731.85921285,1866793.17328525,3.0,7.0,68.0,41.78989279568449,-87.63851186267377,"(41.78989279568449,-87.63851186267375)",2012-06-04
24940,06/04/2012,Completed - Dup,06/07/2012,12-01021286,Street Light - 1/Out,1541 N LONG AVE,60651.0,1140067.93379553,1909721.43151117,37.0,25.0,25.0,41.908374364242256,-87.76090013192506,"(41.908374364242256,-87.76090013192504)",2012-06-04
24941,06/04/2012,Completed - Dup,06/07/2012,12-01022945,Street Light - 1/Out,8139 S AVALON AVE,60619.0,1185958.92900363,1851273.96818911,8.0,4.0,45.0,41.74702678300961,-87.59416826756609,"(41.74702678300961,-87.5941682675661)",2012-06-04
24942,06/04/2012,Completed - Dup,06/07/2012,12-01024947,Street Light - 1/Out,2722 N AUSTIN AVE,60639.0,1135934.54030361,1917323.51243239,29.0,25.0,19.0,41.92931005540431,-87.77590288355923,"(41.92931005540431,-87.77590288355923)",2012-06-04
24943,06/04/2012,Completed - Dup,06/07/2012,12-01025328,Street Light - 1/Out,6130 N AVONDALE AVE,60631.0,1128757.25780301,1940464.58730085,41.0,16.0,10.0,41.99293669546302,-87.80175024465919,"(41.99293669546302,-87.80175024465919)",2012-06-04
24944,06/04/2012,Completed - Dup,06/07/2012,12-01025344,Street Light - 1/Out,2238 N SPAULDING AVE,60647.0,1153782.99733153,1914681.86919892,26.0,14.0,22.0,41.92172402030123,-87.71038507803999,"(41.92172402030123,-87.71038507803998)",2012-06-04
24945,06/04/2012,Completed - Dup,06/07/2012,12-01025431,Street Light - 1/Out,1400 W ARGYLE ST,60640.0,1166078.10519786,1933313.86593381,46.0,20.0,3.0,41.97259711127183,-87.66467556098455,"(41.97259711127183,-87.66467556098455)",2012-06-04
24946,06/04/2012,Completed - Dup,06/07/2012,12-01025436,Street Light - 1/Out,4901 N GLENWOOD AVE,60640.0,1166072.65999829,1933008.18999941,46.0,20.0,3.0,41.971758442604624,-87.66470435666193,"(41.971758442604624,-87.66470435666193)",2012-06-04
24947,06/04/2012,Completed - Dup,06/08/2012,12-01018707,Street Light - 1/Out,8031 S FRANCISCO AVE,60652.0,1158440.92281434,1851234.69319233,18.0,8.0,70.0,41.747523448958844,-87.69500292974087,"(41.74752344895884,-87.69500292974087)",2012-06-04
24948,06/04/2012,Completed - Dup,06/08/2012,12-01019082,Street Light - 1/Out,5349 S MELVINA AVE,60638.0,1135947.26100612,1868468.30792303,23.0,8.0,56.0,41.79524408837618,-87.77701946019549,"(41.79524408837618,-87.77701946019549)",2012-06-04
24949,06/04/2012,Completed - Dup,06/08/2012,12-01019254,Street Light - 1/Out,5349 S MELVINA AVE,60638.0,1135947.26100612,1868468.30792303,23.0,8.0,56.0,41.79524408837618,-87.77701946019549,"(41.79524408837618,-87.77701946019549)",2012-06-04
24950,06/04/2012,Completed - Dup,06/08/2012,12-01024704,Street Light - 1/Out,1716 W 103RD ST,60643.0,1166687.84830865,1836402.60308215,19.0,22.0,72.0,41.70665007614067,-87.66520548444026,"(41.70665007614067,-87.66520548444026)",2012-06-04
24951,06/04/2012,Completed - Dup,06/11/2012,12-01018703,Street Light - 1/Out,4901 S KARLOV AVE,60632.0,1149856.59927725,1871812.37121552,14.0,8.0,57.0,41.8041623690654,-87.72592624162607,"(41.8041623690654,-87.72592624162606)",2012-06-04
24952,06/04/2012,Completed - Dup,06/11/2012,12-01025394,Street Light - 1/Out,10449 S AVENUE H,60617.0,1202827.54076569,1836285.1296299999,10.0,4.0,52.0,41.70548207678825,-87.53286932877941,"(41.70548207678825,-87.5328693287794)",2012-06-04
24953,06/04/2012,Completed - Dup,06/11/2012,12-01025489,Street Light - 1/Out,8533 S JUSTINE ST,60620.0,1167491.85008577,1848140.32769125,21.0,6.0,71.0,41.73884302742776,-87.66192601137928,"(41.738843027427755,-87.66192601137928)",2012-06-04
24954,06/04/2012,Completed - Dup,06/11/2012,12-01025567,Street Light - 1/Out,57 W 112TH ST,60628.0,1177821.88261254,1830698.98542861,34.0,5.0,49.0,41.690754250647046,-87.62460497208528,"(41.69075425064705,-87.62460497208528)",2012-06-04
24955,06/04/2012,Completed - Dup,06/13/2012,12-01025573,Street Light - 1/Out,224 N WALLER AVE,60644.0,1138114.53141668,1901024.29099191,29.0,15.0,25.0,41.88454387868028,-87.7682864832408,"(41.884543878680276,-87.76828648324079)",2012-06-04
24956,06/04/2012,Completed - Dup,06/25/2012,12-01021462,Street Light - 1/Out,4846 W SUPERIOR ST,60644.0,1143911.02191152,1904525.36161275,28.0,15.0,25.0,41.89404452230911,-87.74691284352707,"(41.89404452230911,-87.74691284352708)",2012-06-04
24957,06/04/2012,Completed - Dup,07/23/2012,12-01025525,Street Light - 1/Out,7525 S RIDGELAND AVE,60649.0,1189174.84992213,1855427.20202931,8.0,4.0,43.0,41.75834722025612,-87.58225159589867,"(41.75834722025612,-87.58225159589867)",2012-06-04
24958,06/04/2012,Completed - Dup,08/28/2012,12-01018712,Street Light - 1/Out,6237 S WESTERN AVE,60636.0,1161442.64662257,1863226.04837011,15.0,8.0,66.0,41.780367830237864,-87.68367179052522,"(41.78036783023787,-87.68367179052522)",2012-06-04
24959,06/04/2012,Completed - Dup,08/28/2012,12-01025339,Street Light - 1/Out,1720 N TRIPP AVE,60639.0,1147787.03772874,1911098.24352295,30.0,25.0,23.0,41.912007614265434,-87.73250826031645,"(41.91200761426544,-87.73250826031646)",2012-06-04
24960,06/04/2012,Completed - Dup,08/30/2012,12-01025456,Street Light - 1/Out,2516 W LYNDALE ST,60647.0,1159346.35901386,1914989.39988299,1.0,14.0,22.0,41.9224551872472,-87.68993527682969,"(41.9224551872472,-87.68993527682967)",2012-06-04
24961,06/04/2012,Completed - Dup,09/04/2012,12-01019505,Street Light - 1/Out,1900 N CLEVELAND AVE,60614.0,1172629.46582547,1912913.66417751,43.0,18.0,7.0,41.91647541931872,-87.64119088270239,"(41.91647541931872,-87.64119088270239)",2012-06-04
24962,06/04/2012,Completed - Dup,09/24/2012,12-01020245,Street Light - 1/Out,6001 S WASHTENAW AVE,60629.0,1159403.5984783,1864754.96478323,15.0,8.0,66.0,41.78460542135513,-87.6911054636395,"(41.78460542135513,-87.69110546363952)",2012-06-04
24963,06/04/2012,Completed,06/05/2012,12-01021811,Street Light - 1/Out,4435 S DEARBORN ST,60609.0,1176710.260875,1875634.88825,3.0,2.0,38.0,41.814088726126755,-87.62732469865713,"(41.81408872612675,-87.62732469865712)",2012-06-04
24964,06/04/2012,Completed,06/05/2012,12-01022577,Street Light - 1/Out,5344 N VIRGINIA AVE,60625.0,1155441.82379924,1935462.21023255,40.0,20.0,4.0,41.97871342582851,-87.7037291892083,"(41.97871342582851,-87.7037291892083)",2012-06-04
24965,06/04/2012,Completed,06/05/2012,12-01023512,Street Light - 1/Out,5621 S ROCKWELL ST,60629.0,1159996.56989844,1867296.7494228,16.0,8.0,63.0,41.791568249647405,-87.6888615184253,"(41.791568249647405,-87.6888615184253)",2012-06-04
24966,06/04/2012,Completed,06/05/2012,12-01025467,Street Light - 1/Out,3601 S MICHIGAN AVE,60653.0,1177782.51541383,1881290.67708141,3.0,2.0,35.0,41.829584436783335,-87.62322014040573,"(41.829584436783335,-87.62322014040573)",2012-06-04
24967,06/04/2012,Completed,06/06/2012,12-01018715,Street Light - 1/Out,6345 S HOMAN AVE,60629.0,1154825.3798743999,1862238.70972948,15.0,8.0,66.0,41.777793053250775,-87.70795833220802,"(41.777793053250775,-87.70795833220801)",2012-06-04
24968,06/04/2012,Completed,06/06/2012,12-01018865,Street Light - 1/Out,7026 S PAULINA ST,60636.0,1166225.30659052,1858108.80808539,17.0,7.0,67.0,41.76622496166989,-87.66628322342008,"(41.76622496166989,-87.66628322342008)",2012-06-04
24969,06/04/2012,Completed,06/06/2012,12-01021130,Street Light - 1/Out,11700 S LOWE AVE,60628.0,1174046.17459072,1827432.88183164,34.0,5.0,53.0,41.681875966986254,-87.63852449383768,"(41.681875966986254,-87.63852449383769)",2012-06-04
24970,06/04/2012,Completed,06/06/2012,12-01022061,Street Light - 1/Out,700 W ADDISON ST,60613.0,1170883.12991617,1924152.43076835,46.0,19.0,6.0,41.94735358356771,-87.64727640665407,"(41.94735358356771,-87.64727640665406)",2012-06-04
24971,06/04/2012,Completed,06/06/2012,12-01024767,Street Light - 1/Out,5117 S LOREL AVE,60638.0,1141562.96133346,1870172.49099387,23.0,8.0,56.0,41.79981907813487,-87.7563842506623,"(41.79981907813487,-87.75638425066228)",2012-06-04
24972,06/04/2012,Completed,06/06/2012,12-01025137,Street Light - 1/Out,8458 S JUSTINE ST,60620.0,1167588.09000013,1848638.87828466,21.0,6.0,71.0,41.74020906122949,-87.66155914846105,"(41.74020906122949,-87.66155914846105)",2012-06-04
24973,06/04/2012,Completed,06/06/2012,12-01025455,Street Light - 1/Out,3444 W 53RD PL,60632.0,1154323.51003025,1868930.5499742,14.0,8.0,63.0,41.79616645116387,-87.70962025086494,"(41.79616645116387,-87.70962025086493)",2012-06-04
24974,06/04/2012,Completed,06/06/2012,12-01025487,Street Light - 1/Out,7900 S LOWE AVE,60620.0,1173338.26387504,1852506.17193226,17.0,6.0,71.0,41.75069630892218,-87.64037713242634,"(41.75069630892218,-87.64037713242635)",2012-06-04
24975,06/04/2012,Completed,06/06/2012,12-01025503,Street Light - 1/Out,7839 S ELLIS AVE,60619.0,1184251.49987416,1853233.39299842,8.0,6.0,69.0,41.75244372605183,-87.60036350541756,"(41.75244372605183,-87.60036350541756)",2012-06-04
24976,06/04/2012,Completed,06/06/2012,12-01025507,Street Light - 1/Out,109 W 123RD ST,60628.0,1177720.47313338,1823391.76287942,9.0,5.0,53.0,41.67070441539389,-87.62519611582577,"(41.670704415393885,-87.62519611582576)",2012-06-04
24977,06/04/2012,Completed,06/06/2012,12-01025515,Street Light - 1/Out,1000 W GRANVILLE AVE,60660.0,1168503.01517724,1941350.70222162,48.0,24.0,77.0,41.994598099795105,-87.65552488367824,"(41.994598099795105,-87.65552488367825)",2012-06-04
24978,06/04/2012,Completed,06/07/2012,12-01018794,Street Light - 1/Out,6048 N NAPLES AVE,60631.0,1132508.23753154,1940081.83571982,41.0,16.0,10.0,41.99182166910693,-87.78796148732094,"(41.99182166910694,-87.78796148732094)",2012-06-04
24979,06/04/2012,Completed,06/07/2012,12-01020942,Street Light - 1/Out,3439 W NORTH AVE,60647.0,1153028.80309875,1910416.88292992,26.0,14.0,23.0,41.91003552499998,-87.71326950265785,"(41.91003552499998,-87.71326950265785)",2012-06-04
24980,06/04/2012,Completed,06/07/2012,12-01024313,Street Light - 1/Out,3350 W 85TH PL,60652.0,1155411.04999827,1847719.17998282,18.0,8.0,70.0,41.73793743844417,-87.70619926738941,"(41.73793743844417,-87.7061992673894)",2012-06-04
24981,06/04/2012,Completed,06/07/2012,12-01024658,Street Light - 1/Out,3800 W CULLOM AVE,60618.0,1150286.79802557,1928309.19570696,39.0,17.0,16.0,41.959187481273155,-87.72287456642685,"(41.959187481273155,-87.72287456642685)",2012-06-04
24982,06/04/2012,Completed,06/08/2012,12-01018708,Street Light - 1/Out,11801 S BELL AVE,60643.0,1163241.36622168,1826440.53018023,19.0,22.0,75.0,41.679385084700044,-87.67810396734356,"(41.679385084700044,-87.67810396734357)",2012-06-04
24983,06/04/2012,Completed,06/08/2012,12-01019182,Street Light - 1/Out,4342 S ASHLAND AVE,60609.0,1166401.04917561,1875921.92310003,12.0,9.0,61.0,41.81510257793933,-87.66513159928832,"(41.81510257793933,-87.66513159928832)",2012-06-04
24984,06/04/2012,Completed,06/08/2012,12-01023216,Street Light - 1/Out,5233 S MELVINA AVE,60638.0,1135925.70129968,1869234.57621916,23.0,8.0,56.0,41.797347246606996,-87.77708033910616,"(41.797347246607,-87.77708033910616)",2012-06-04
24985,06/04/2012,Completed,06/11/2012,12-01022624,Street Light - 1/Out,4330 S HALSTED ST,60609.0,1171695.91067686,1876052.64003011,11.0,9.0,61.0,41.81534665408026,-87.64570545658161,"(41.81534665408026,-87.64570545658161)",2012-06-04
24986,06/04/2012,Completed,06/12/2012,12-01018702,Street Light - 1/Out,3234 W CERMAK RD,60623.0,1155034.25660508,1889191.80872646,24.0,10.0,30.0,41.85175176433413,-87.70647176842769,"(41.85175176433413,-87.70647176842769)",2012-06-04
24987,06/04/2012,Completed,06/12/2012,12-01019499,Street Light - 1/Out,5812 W RICE ST,60651.0,1137474.76001893,1905080.36998753,29.0,15.0,25.0,41.895685815778215,-87.77053815648303,"(41.895685815778215,-87.77053815648301)",2012-06-04
24988,06/04/2012,Completed,06/12/2012,12-01025067,Street Light - 1/Out,4115 W 25TH PL,60623.0,1149523.00926726,1886741.90822388,22.0,10.0,30.0,41.845137547801706,-87.72676313556354,"(41.845137547801706,-87.72676313556354)",2012-06-04
24989,06/04/2012,Completed,06/12/2012,12-01025346,Street Light - 1/Out,858 N MARSHFIELD AVE,60622.0,1165233.87977151,1905986.2076333,1.0,13.0,24.0,41.897626576653366,-87.6685591332971,"(41.897626576653366,-87.66855913329711)",2012-06-04
24990,06/04/2012,Completed,06/13/2012,12-01021819,Street Light - 1/Out,11658 S AVENUE H,60617.0,1202910.46126647,1828282.41650683,10.0,4.0,52.0,41.683519825751695,-87.5328380368842,"(41.683519825751695,-87.53283803688419)",2012-06-04
24991,06/04/2012,Completed,06/14/2012,12-01020211,Street Light - 1/Out,6450 S NARRAGANSETT AVE,60638.0,1134869.63508348,1860973.65639293,23.0,8.0,64.0,41.77469645684158,-87.78114772082407,"(41.774696456841575,-87.78114772082407)",2012-06-04
24992,06/04/2012,Completed,06/14/2012,12-01021196,Street Light - 1/Out,5913 W HIRSCH ST,60651.0,1136627.28342368,1908706.79082283,29.0,25.0,25.0,41.9056523795032,-87.77356389101553,"(41.9056523795032,-87.77356389101553)",2012-06-04
24993,06/04/2012,Completed,06/25/2012,12-01018709,Street Light - 1/Out,8900 S PAULINA ST,60620.0,1166566.30919187,1845670.63183017,21.0,22.0,71.0,41.73208558048886,-87.66538724147794,"(41.73208558048885,-87.66538724147796)",2012-06-04
24994,06/04/2012,Completed,06/29/2012,12-01025553,Street Light - 1/Out,360 E RANDOLPH ST,60601.0,1178873.71477782,1901321.86107774,42.0,1.0,32.0,41.884526448817184,-87.61860481319798,"(41.88452644881718,-87.61860481319798)",2012-06-04
24995,06/04/2012,Completed,08/30/2012,12-01025451,Street Light - 1/Out,2514 W LYNDALE ST,60647.0,1159367.25901386,1914989.69988299,1.0,14.0,22.0,41.92245558014004,-87.68985847541065,"(41.92245558014004,-87.68985847541065)",2012-06-04
24996,06/04/2012,Completed,09/18/2012,12-01025372,Street Light - 1/Out,5800 S PERRY AVE,60621.0,1176694.1542190001,1866455.0984125999,20.0,2.0,40.0,41.78889887503872,-87.62766022278,"(41.78889887503872,-87.62766022278)",2012-06-04
25035,06/05/2012,Completed - Dup,06/05/2012,12-01031664,Street Light - 1/Out,7518 S TRUMBULL AVE,60652.0,1154676.01998061,1854544.777311,18.0,8.0,70.0,41.75668267811663,-87.70871072883024,"(41.75668267811663,-87.70871072883024)",2012-06-05
25036,06/05/2012,Completed - Dup,06/06/2012,12-01025798,Street Light - 1/Out,1715 E 86TH PL,60617.0,1189189.12752487,1847964.92078524,8.0,4.0,45.0,41.73786968539393,-87.58243793685641,"(41.73786968539393,-87.58243793685641)",2012-06-05
25037,06/05/2012,Completed - Dup,06/06/2012,12-01027502,Street Light - 1/Out,11000 S NORMAL AVE,60628.0,1174918.97551525,1831954.12558695,34.0,22.0,49.0,41.69426359521243,-87.63519543146194,"(41.69426359521243,-87.63519543146194)",2012-06-05
25038,06/05/2012,Completed - Dup,06/06/2012,12-01029095,Street Light - 1/Out,3100 N ST LOUIS AVE,60618.0,1152518.59980704,1920395.97492829,35.0,14.0,21.0,41.93742910521959,-87.7148793988958,"(41.93742910521959,-87.71487939889579)",2012-06-05
25039,06/05/2012,Completed - Dup,06/06/2012,12-01030781,Street Light - 1/Out,2112 N KOSTNER AVE,60639.0,1146712.3916219,1913730.63722339,31.0,25.0,20.0,41.91925175420671,-87.73638892571209,"(41.91925175420671,-87.7363889257121)",2012-06-05
25040,06/05/2012,Completed - Dup,06/07/2012,12-01027012,Street Light - 1/Out,8100 S YALE AVE,60620.0,1176024.10230166,1851255.51543124,21.0,6.0,44.0,41.74720457392174,-87.6305724177607,"(41.74720457392174,-87.6305724177607)",2012-06-05
25041,06/05/2012,Completed - Dup,06/07/2012,12-01027486,Street Light - 1/Out,1445 W ARGYLE ST,60640.0,1165620.66997115,1933300.64092579,46.0,20.0,3.0,41.97257060622642,-87.6663580094318,"(41.97257060622642,-87.6663580094318)",2012-06-05
25042,06/05/2012,Completed - Dup,06/07/2012,12-01028353,Street Light - 1/Out,1253 W 80TH ST,60620.0,1169276.7535768999,1851729.38929619,21.0,6.0,71.0,41.74865351143299,-87.65528286103374,"(41.74865351143299,-87.65528286103375)",2012-06-05
25043,06/05/2012,Completed - Dup,06/07/2012,12-01028544,Street Light - 1/Out,3700 W CHICAGO AVE,60651.0,1151573.81861408,1905086.40690853,27.0,11.0,23.0,41.89543692162704,-87.71875485185161,"(41.89543692162704,-87.71875485185163)",2012-06-05
25044,06/05/2012,Completed - Dup,06/07/2012,12-01031738,Street Light - 1/Out,2255 W 18TH PL,60608.0,1161568.67382844,1891036.64499481,25.0,12.0,31.0,41.856680778681714,-87.68243740743324,"(41.85668077868172,-87.68243740743324)",2012-06-05
25045,06/05/2012,Completed - Dup,06/07/2012,12-01032332,Street Light - 1/Out,1022 S MASON AVE,60644.0,1136863.2782748002,1895252.26430311,29.0,15.0,25.0,41.868727168771095,-87.77301970113398,"(41.86872716877109,-87.77301970113399)",2012-06-05
25046,06/05/2012,Completed - Dup,06/07/2012,12-01032479,Street Light - 1/Out,8147 S AVALON AVE,60619.0,1185960.32900363,1851220.16818911,8.0,4.0,45.0,41.746879117383145,-87.59416483113853,"(41.74687911738314,-87.59416483113853)",2012-06-05
25047,06/05/2012,Completed - Dup,06/07/2012,12-01032614,Street Light - 1/Out,2224 W CULLERTON ST,60608.0,1161839.57826744,1890362.50317137,25.0,12.0,31.0,41.854825226714226,-87.68146182775804,"(41.85482522671423,-87.68146182775804)",2012-06-05
25048,06/05/2012,Completed - Dup,06/07/2012,12-01032634,Street Light - 1/Out,6044 N NAPLES AVE,60631.0,1132543.63753154,1940055.73571982,41.0,16.0,10.0,41.99174942972202,-87.78783188472643,"(41.99174942972202,-87.78783188472644)",2012-06-05
25049,06/05/2012,Completed - Dup,06/07/2012,12-01032676,Street Light - 1/Out,1500 N LONG AVE,60651.0,1140076.53379553,1909448.43151117,37.0,25.0,25.0,41.90762506329719,-87.76087523234457,"(41.90762506329719,-87.76087523234456)",2012-06-05
25050,06/05/2012,Completed - Dup,06/08/2012,12-01025881,Street Light - 1/Out,4150 N MEADE AVE,60634.0,1134953.41527595,1926649.7277941003,38.0,16.0,15.0,41.95491964045217,-87.77928677740381,"(41.95491964045217,-87.77928677740381)",2012-06-05
25051,06/05/2012,Completed - Dup,06/08/2012,12-01027631,Street Light - 1/Out,9349 S BISHOP ST,60620.0,1168306.77253438,1842739.72518302,21.0,22.0,73.0,41.72400549676436,-87.65909529096561,"(41.724005496764356,-87.65909529096561)",2012-06-05
25052,06/05/2012,Completed - Dup,06/08/2012,12-01029072,Street Light - 1/Out,3103 N DRAKE AVE,60618.0,1152183.51807991,1920407.36533393,35.0,14.0,21.0,41.9374669881299,-87.71611058684265,"(41.9374669881299,-87.71611058684266)",2012-06-05
25053,06/05/2012,Completed - Dup,06/08/2012,12-01032495,Street Light - 1/Out,5347 S MELVINA AVE,60638.0,1135946.86100612,1868481.60792303,23.0,8.0,56.0,41.79528059303212,-87.7770206114138,"(41.79528059303212,-87.77702061141379)",2012-06-05
25054,06/05/2012,Completed - Dup,06/08/2012,12-01032546,Street Light - 1/Out,7943 S DORCHESTER AVE,60619.0,1186920.6900656999,1852600.98777062,8.0,4.0,45.0,41.75064552879182,-87.5906021920866,"(41.75064552879182,-87.5906021920866)",2012-06-05
25055,06/05/2012,Completed - Dup,06/08/2012,12-01032640,Street Light - 1/Out,9660 S OGLESBY AVE,60617.0,1193744.14948173,1841353.12021261,7.0,4.0,51.0,41.719616026436526,-87.56596575141974,"(41.71961602643653,-87.56596575141974)",2012-06-05
25056,06/05/2012,Completed - Dup,06/08/2012,12-01032713,Street Light - 1/Out,200 W CHICAGO AVE,60654.0,1174590.43747521,1905684.94430267,27.0,18.0,8.0,41.89659580881185,-87.63420286764229,"(41.896595808811846,-87.63420286764229)",2012-06-05
25057,06/05/2012,Completed - Dup,06/11/2012,12-01028725,Street Light - 1/Out,56 W 112TH ST,60628.0,1177829.48261254,1830699.18542861,34.0,5.0,49.0,41.69075462788225,-87.62457714208841,"(41.69075462788225,-87.6245771420884)",2012-06-05
25058,06/05/2012,Completed - Dup,06/11/2012,12-01032631,Street Light - 1/Out,10445 S AVENUE O,60617.0,1200848.1496094998,1836298.75881514,10.0,4.0,52.0,41.70556973667706,-87.54011702666203,"(41.70556973667706,-87.54011702666203)",2012-06-05
25059,06/05/2012,Completed - Dup,06/11/2012,12-01032643,Street Light - 1/Out,10449 S AVENUE H,60617.0,1202827.54076569,1836285.1296299999,10.0,4.0,52.0,41.70548207678825,-87.53286932877941,"(41.70548207678825,-87.5328693287794)",2012-06-05
25060,06/05/2012,Completed - Dup,06/11/2012,12-01032671,Street Light - 1/Out,9017 S ABERDEEN ST,60620.0,1170567.70209958,1845009.26062493,21.0,22.0,73.0,41.73018453665212,-87.6507476794958,"(41.73018453665212,-87.6507476794958)",2012-06-05
25061,06/05/2012,Completed - Dup,06/11/2012,12-01032745,Street Light - 1/Out,6428 W DAKIN ST,60634.0,1132806.50510103,1925460.79989869,38.0,16.0,17.0,41.951694912755634,-87.78720718878424,"(41.951694912755634,-87.78720718878424)",2012-06-05
25062,06/05/2012,Completed - Dup,06/12/2012,12-01025800,Street Light - 1/Out,13231 S RIVERDALE AVE,60827.0,1181770.96500602,1817608.90501911,9.0,5.0,54.0,41.654743084222986,-87.61054919180677,"(41.654743084222986,-87.61054919180677)",2012-06-05
25063,06/05/2012,Completed - Dup,06/12/2012,12-01029013,Street Light - 1/Out,11840 S ARTESIAN AVE,60655.0,1162190.29889996,1826061.29709001,19.0,22.0,75.0,41.67836626932285,-87.6819618383613,"(41.678366269322844,-87.6819618383613)",2012-06-05
25064,06/05/2012,Completed - Dup,06/12/2012,12-01032138,Street Light - 1/Out,3944 W 68TH PL,60629.0,1151252.53958865,1858887.49367215,13.0,8.0,65.0,41.76866733344368,-87.721144045919,"(41.76866733344368,-87.721144045919)",2012-06-05
25065,06/05/2012,Completed - Dup,06/13/2012,12-01032575,Street Light - 1/Out,614 N LOCKWOOD AVE,60644.0,1140920.22182894,1903552.74451675,37.0,15.0,25.0,41.89143111094319,-87.75792119747881,"(41.89143111094319,-87.75792119747881)",2012-06-05
25066,06/05/2012,Completed - Dup,06/14/2012,12-01027587,Street Light - 1/Out,6456 S NARRAGANSETT AVE,60638.0,1134870.73508348,1860943.15639293,23.0,8.0,64.0,41.774612739705226,-87.78114440621019,"(41.774612739705226,-87.78114440621019)",2012-06-05
25067,06/05/2012,Completed - Dup,06/15/2012,12-01031870,Street Light - 1/Out,333 N LATROBE AVE,60644.0,1141320.47848684,1901637.95579643,28.0,15.0,25.0,41.88616932152241,-87.75649849514852,"(41.88616932152241,-87.75649849514853)",2012-06-05
25068,06/05/2012,Completed - Dup,06/15/2012,12-01031877,Street Light - 1/Out,335 N LATROBE AVE,60644.0,1141320.07848684,1901650.05579643,28.0,15.0,25.0,41.88620253279576,-87.75649966537429,"(41.88620253279576,-87.7564996653743)",2012-06-05
25069,06/05/2012,Completed - Dup,06/15/2012,12-01032778,Street Light - 1/Out,6219 S CHAMPLAIN AVE,60637.0,1181637.44257597,1863915.87818566,20.0,3.0,42.0,41.78181825302747,-87.60961343180641,"(41.78181825302747,-87.6096134318064)",2012-06-05
25070,06/05/2012,Completed - Dup,06/19/2012,12-01026281,Street Light - 1/Out,5532 W DRUMMOND PL,60639.0,1139043.6515253999,1917071.7057133,30.0,25.0,19.0,41.928563035420865,-87.76448378697664,"(41.928563035420865,-87.76448378697664)",2012-06-05
25071,06/05/2012,Completed - Dup,06/20/2012,12-01026726,Street Light - 1/Out,6223 S WOODLAWN AVE,60637.0,1185285.72112604,1863983.82086561,20.0,3.0,42.0,41.78191965430923,-87.59623596201283,"(41.78191965430923,-87.59623596201283)",2012-06-05
25072,06/05/2012,Completed - Dup,06/20/2012,12-01031718,Street Light - 1/Out,6533 S HERMITAGE AVE,60636.0,1165792.32858572,1861368.21907119,15.0,7.0,67.0,41.775178421504386,-87.66777779679144,"(41.77517842150438,-87.66777779679143)",2012-06-05
25073,06/05/2012,Completed - Dup,06/25/2012,12-01025639,Street Light - 1/Out,8921 S PAULINA ST,60620.0,1166574.56819643,1845414.5622338,21.0,22.0,73.0,41.731382711201576,-87.66536426538276,"(41.731382711201576,-87.66536426538276)",2012-06-05
25074,06/05/2012,Completed - Dup,06/25/2012,12-01025648,Street Light - 1/Out,4735 W ALTGELD ST,60639.0,1144405.49108795,1916264.93319957,31.0,25.0,19.0,41.926249867977035,-87.74480095539819,"(41.92624986797703,-87.7448009553982)",2012-06-05
25075,06/05/2012,Completed - Dup,07/05/2012,12-01032781,Street Light - 1/Out,1625 E 92ND ST,60617.0,1188677.7579084998,1844299.3415798,8.0,4.0,48.0,41.72782319245937,-87.58442829031509,"(41.72782319245937,-87.5844282903151)",2012-06-05
25076,06/05/2012,Completed - Dup,07/09/2012,12-01025839,Street Light - 1/Out,4900 W WEST END AVE,60644.0,1143690.68727852,1900535.71787277,28.0,15.0,25.0,41.88310059803017,-87.74782205376808,"(41.883100598030175,-87.74782205376808)",2012-06-05
25077,06/05/2012,Completed - Dup,08/01/2012,12-01025731,Street Light - 1/Out,1201 W 103RD ST,60643.0,1170129.61786635,1836494.11467831,34.0,22.0,73.0,41.7068272284892,-87.6525991610709,"(41.706827228489196,-87.65259916107091)",2012-06-05
25078,06/05/2012,Completed - Dup,08/16/2012,12-01027095,Street Light - 1/Out,6405 S UNIVERSITY AVE,60637.0,1184887.19647318,1862749.04660542,20.0,3.0,42.0,41.778540691423174,-87.59773576201046,"(41.77854069142317,-87.59773576201047)",2012-06-05
25079,06/05/2012,Completed,06/05/2012,12-01025646,Street Light - 1/Out,6171 N SHERIDAN RD,60660.0,1168510.11517724,1941120.00222162,48.0,24.0,77.0,41.99396490048052,-87.65550548402928,"(41.99396490048052,-87.65550548402928)",2012-06-05
25080,06/05/2012,Completed,06/05/2012,12-01025647,Street Light - 1/Out,5817 N FAIRFIELD AVE,60659.0,1156957.5399194,1938521.20566986,40.0,20.0,2.0,41.98707674879718,-87.69807162783611,"(41.98707674879718,-87.69807162783611)",2012-06-05
25081,06/05/2012,Completed,06/05/2012,12-01030101,Street Light - 1/Out,161 E CHICAGO AVE,60611.0,1177480.06272666,1905762.43580575,42.0,18.0,8.0,41.896743344239844,-87.62358754745352,"(41.89674334423984,-87.62358754745352)",2012-06-05
25082,06/05/2012,Completed,06/05/2012,12-01031072,Street Light - 1/Out,1132 S WESTERN AVE,60612.0,1160551.40682336,1894979.63180737,28.0,11.0,28.0,41.86752182559789,-87.68606221411005,"(41.86752182559789,-87.68606221411005)",2012-06-05
25083,06/05/2012,Completed,06/05/2012,12-01032279,Street Light - 1/Out,3963 W BELMONT AVE,60618.0,1149402.52002441,1920984.50997031,31.0,25.0,21.0,41.93910521002365,-87.72631628732077,"(41.93910521002365,-87.72631628732076)",2012-06-05
25084,06/05/2012,Completed,06/06/2012,12-01025661,Street Light - 1/Out,9201 S GREEN ST,60620.0,1172262.71348204,1843797.22299633,21.0,22.0,73.0,41.726821482053005,-87.64457386569241,"(41.726821482053005,-87.64457386569241)",2012-06-05
25085,06/05/2012,Completed,06/06/2012,12-01025712,Street Light - 1/Out,11050 S PARNELL AVE,60628.0,1174591.67992176,1831946.35519841,34.0,22.0,49.0,41.69424954551084,-87.6363939749361,"(41.69424954551084,-87.63639397493611)",2012-06-05
25086,06/05/2012,Completed,06/06/2012,12-01027403,Street Light - 1/Out,10917 S NORMAL AVE,60628.0,1174901.69888629,1832504.16139295,34.0,22.0,49.0,41.69577336045892,-87.63524236406481,"(41.695773360458915,-87.63524236406481)",2012-06-05
25087,06/05/2012,Completed,06/06/2012,12-01028745,Street Light - 1/Out,4628 N KARLOV AVE,60630.0,1148238.72850393,1930239.1431681998,39.0,17.0,14.0,41.964523190338156,-87.73035426086706,"(41.96452319033816,-87.73035426086707)",2012-06-05
25088,06/05/2012,Completed,06/06/2012,12-01029020,Street Light - 1/Out,4330 N GREENVIEW AVE,60613.0,1165285.59962009,1928971.9099841,47.0,19.0,6.0,41.96069955257127,-87.66771378156292,"(41.96069955257127,-87.66771378156292)",2012-06-05
25089,06/05/2012,Completed,06/06/2012,12-01030514,Street Light - 1/Out,2122 W 92ND ST,60643.0,1163842.6478164,1843618.04732523,19.0,22.0,72.0,41.726510535775816,-87.67542266319302,"(41.72651053577582,-87.67542266319302)",2012-06-05
25090,06/05/2012,Completed,06/06/2012,12-01030689,Street Light - 1/Out,6031 W GIDDINGS ST,60630.0,1135265.13419694,1930928.95007781,38.0,16.0,15.0,41.96665671003303,-87.77803888044771,"(41.96665671003302,-87.77803888044772)",2012-06-05
25091,06/05/2012,Completed,06/06/2012,12-01031931,Street Light - 1/Out,2062 W OGDEN AVE,60612.0,1162742.70110004,1896428.93481717,25.0,12.0,28.0,41.87145322396128,-87.67797700366427,"(41.871453223961275,-87.67797700366427)",2012-06-05
25092,06/05/2012,Completed,06/07/2012,12-01025658,Street Light - 1/Out,4674 N VIRGINIA AVE,60625.0,1157131.32999988,1930992.06001026,47.0,19.0,4.0,41.96641285626576,-87.69763792646349,"(41.966412856265755,-87.69763792646349)",2012-06-05
25093,06/05/2012,Completed,06/07/2012,12-01025808,Street Light - 1/Out,5631 S KIMBARK AVE,60637.0,1185624.84371257,1867921.48367792,5.0,2.0,41.0,41.79271693987111,-87.59486867475269,"(41.792716939871106,-87.59486867475269)",2012-06-05
25094,06/05/2012,Completed,06/07/2012,12-01025820,Street Light - 1/Out,3852 N SPRINGFIELD AVE,60618.0,1149703.79681402,1925430.35008323,39.0,17.0,16.0,41.951299090239615,-87.72509305838992,"(41.95129909023962,-87.7250930583899)",2012-06-05
25095,06/05/2012,Completed,06/07/2012,12-01029057,Street Light - 1/Out,6101 W CORNELIA AVE,60634.0,1135087.97261673,1922639.82996696,38.0,16.0,17.0,41.94391367631703,-87.77888747389031,"(41.94391367631703,-87.77888747389031)",2012-06-05
25096,06/05/2012,Completed,06/07/2012,12-01030522,Street Light - 1/Out,8314 S KARLOV AVE,60652.0,1150514.76982816,1849119.27513287,18.0,8.0,70.0,41.74187605793309,-87.72410193156544,"(41.741876057933084,-87.72410193156543)",2012-06-05
25097,06/05/2012,Completed,06/07/2012,12-01031022,Street Light - 1/Out,8000 S TRIPP AVE,60652.0,1149527.42339122,1850994.88898475,13.0,8.0,70.0,41.74704219944698,-87.72767122497532,"(41.74704219944698,-87.72767122497531)",2012-06-05
25098,06/05/2012,Completed,06/08/2012,12-01027468,Street Light - 1/Out,2748 W JARVIS AVE,60645.0,1156685.00999262,1948957.13908164,50.0,24.0,2.0,42.015718900657966,-87.69878953848324,"(42.01571890065797,-87.69878953848324)",2012-06-05
25099,06/05/2012,Completed,06/08/2012,12-01029012,Street Light - 1/Out,3200 W BERWYN AVE,60625.0,1154086.11517149,1935038.59997145,40.0,17.0,13.0,41.97757825097728,-87.70872624560292,"(41.977578250977274,-87.70872624560292)",2012-06-05
25100,06/05/2012,Completed,06/08/2012,12-01029182,Street Light - 1/Out,5300 N KEDZIE AVE,60625.0,1154086.11517149,1935038.59997145,40.0,17.0,13.0,41.97757825097728,-87.70872624560292,"(41.977578250977274,-87.70872624560292)",2012-06-05
25101,06/05/2012,Completed,06/11/2012,12-01030505,Street Light - 1/Out,3837 N OKETO AVE,60634.0,1126048.10369464,1924610.16971919,36.0,16.0,17.0,41.94947617201671,-87.81207054891516,"(41.94947617201671,-87.81207054891516)",2012-06-05
25102,06/05/2012,Completed,06/12/2012,12-01032134,Street Light - 1/Out,3945 W 68TH PL,60629.0,1151245.73958865,1858887.29367215,13.0,8.0,65.0,41.76866691742562,-87.72116897685433,"(41.76866691742562,-87.72116897685433)",2012-06-05
25103,06/05/2012,Completed,06/14/2012,12-01028363,Street Light - 1/Out,8000 S ELIZABETH ST,60620.0,1169380.4535768998,1851732.08929619,21.0,6.0,71.0,41.74865867748553,-87.6549027888662,"(41.74865867748553,-87.6549027888662)",2012-06-05
25104,06/05/2012,Completed,06/15/2012,12-01032647,Street Light - 1/Out,4406 S OAKENWALD AVE,60653.0,1185234.3122006,1876033.16020238,4.0,2.0,39.0,41.81498518343022,-87.59604553574927,"(41.81498518343022,-87.59604553574927)",2012-06-05
25105,06/05/2012,Completed,06/15/2012,12-01032672,Street Light - 1/Out,2059 W 82ND PL,60620.0,1163818.00992714,1849938.43433217,18.0,6.0,71.0,41.743855167843364,-87.67533590930289,"(41.74385516784336,-87.67533590930287)",2012-06-05
25106,06/05/2012,Completed,06/22/2012,12-01032675,Street Light - 1/Out,11711 S CHURCH ST,60643.0,1165131.37066713,1827031.61060465,34.0,22.0,75.0,41.68096746411969,-87.67116908809635,"(41.68096746411969,-87.67116908809636)",2012-06-05
25107,06/05/2012,Completed,06/25/2012,12-01031288,Street Light - 1/Out,10299 S CARPENTER ST,60643.0,1171135.47979219,1836514.68262143,34.0,22.0,73.0,41.70686179114761,-87.64891511577184,"(41.70686179114761,-87.64891511577184)",2012-06-05
25108,06/05/2012,Completed,06/29/2012,12-01025829,Street Light - 1/Out,5232 W AUGUSTA BLVD,60651.0,1141166.47620962,1906158.09948984,37.0,15.0,25.0,41.898575981311566,-87.75695252993192,"(41.89857598131156,-87.75695252993192)",2012-06-05
25109,06/05/2012,Completed,06/29/2012,12-01026803,Street Light - 1/Out,803 E 64TH ST,60637.0,1182695.92236581,1862750.47450061,20.0,3.0,42.0,41.77859576588529,-87.60576897362024,"(41.778595765885285,-87.60576897362023)",2012-06-05
25110,06/05/2012,Completed,08/14/2012,12-01025733,Street Light - 1/Out,1221 W 99TH ST,60643.0,1169870.16448302,1839135.58922021,21.0,22.0,73.0,41.71408146464008,-87.65347290165754,"(41.714081464640074,-87.65347290165755)",2012-06-05
25111,06/05/2012,Completed,08/21/2012,12-01026698,Street Light - 1/Out,1041 E 62ND ST,60637.0,1184139.30937716,1864108.09508235,20.0,3.0,42.0,41.782287563798704,-87.6004350642569,"(41.782287563798704,-87.60043506425689)",2012-06-05
25112,06/05/2012,Completed,08/23/2012,12-01028156,Street Light - 1/Out,5953 W AUGUSTA BLVD,60651.0,1136457.16007552,1906052.1659167,29.0,15.0,25.0,41.89837080320525,-87.7742523742658,"(41.89837080320525,-87.77425237426581)",2012-06-05
25113,06/05/2012,Completed,10/05/2012,12-01025797,Street Light - 1/Out,6138 S VERNON AVE,60637.0,1180312.0745136002,1864411.26691567,20.0,3.0,42.0,41.783208155325724,-87.61445733188525,"(41.783208155325724,-87.61445733188523)",2012-06-05
25262,06/06/2012,Completed - Dup,06/06/2012,12-01039219,Street Light - 1/Out,5949 S KEELER AVE,60629.0,1149388.04388586,1864821.28709148,13.0,8.0,65.0,41.784986836685455,-87.72782530054751,"(41.784986836685455,-87.7278253005475)",2012-06-06
25263,06/06/2012,Completed - Dup,06/07/2012,12-01036913,Street Light - 1/Out,2716 N NEVA AVE,60707.0,1127957.56947843,1917250.32248522,36.0,25.0,18.0,41.92924778191257,-87.8052181336722,"(41.929247781912565,-87.8052181336722)",2012-06-06
25264,06/06/2012,Completed - Dup,06/07/2012,12-01036986,Street Light - 1/Out,1421 N LONG AVE,60651.0,1140091.88990497,1908928.8932947,37.0,25.0,25.0,41.906199109083815,-87.76083155928036,"(41.90619910908381,-87.76083155928036)",2012-06-06
25265,06/06/2012,Completed - Dup,06/07/2012,12-01037515,Street Light - 1/Out,8113 S YALE AVE,60620.0,1176026.30230166,1851180.41543124,21.0,6.0,44.0,41.746998440997366,-87.63056660393917,"(41.746998440997366,-87.63056660393917)",2012-06-06
25266,06/06/2012,Completed - Dup,06/07/2012,12-01039541,Street Light - 1/Out,1159 E 54TH ST,60615.0,1184839.5923168,1869830.83149859,4.0,2.0,41.0,41.797974816177394,-87.59768813866853,"(41.7979748161774,-87.59768813866853)",2012-06-06
25267,06/06/2012,Completed - Dup,06/07/2012,12-01039741,Street Light - 1/Out,6130 N AVONDALE AVE,60631.0,1128757.25780301,1940464.58730085,41.0,16.0,10.0,41.99293669546302,-87.80175024465919,"(41.99293669546302,-87.80175024465919)",2012-06-06
25268,06/06/2012,Completed - Dup,06/07/2012,12-01039841,Street Light - 1/Out,109 W 123RD ST,60628.0,1177720.47313338,1823391.76287942,9.0,5.0,53.0,41.67070441539389,-87.62519611582577,"(41.670704415393885,-87.62519611582576)",2012-06-06
25269,06/06/2012,Completed - Dup,06/07/2012,12-01039859,Street Light - 1/Out,8658 S KOSTNER AVE,60652.0,1148603.86831324,1846758.40107646,18.0,8.0,70.0,41.73543430112979,-87.731164054792,"(41.73543430112979,-87.731164054792)",2012-06-06
25270,06/06/2012,Completed - Dup,06/07/2012,12-01039925,Street Light - 1/Out,1759 N KEDZIE AVE,60647.0,1154765.12570982,1911770.74458653,26.0,14.0,23.0,41.91371601711586,-87.70685459545813,"(41.91371601711586,-87.70685459545813)",2012-06-06
25271,06/06/2012,Completed - Dup,06/07/2012,12-01039937,Street Light - 1/Out,3601 W 64TH PL,60629.0,1153422.68602442,1861601.17992992,13.0,8.0,65.0,41.77607145045096,-87.71311754800543,"(41.77607145045095,-87.71311754800544)",2012-06-06
25272,06/06/2012,Completed - Dup,06/07/2012,12-01042767,Street Light - 1/Out,2222 W CULLERTON ST,60608.0,1161852.67826744,1890362.70317137,25.0,12.0,31.0,41.85482550261689,-87.68141373950161,"(41.85482550261689,-87.68141373950161)",2012-06-06
25273,06/06/2012,Completed - Dup,06/07/2012,12-01042770,Street Light - 1/Out,1759 N KEDZIE AVE,60647.0,1154765.12570982,1911770.74458653,26.0,14.0,23.0,41.91371601711586,-87.70685459545813,"(41.91371601711586,-87.70685459545813)",2012-06-06
25274,06/06/2012,Completed - Dup,06/08/2012,12-01034428,Street Light - 1/Out,6611 N FAIRFIELD AVE,60645.0,1156795.70540738,1943746.78512447,50.0,24.0,2.0,42.00141925247669,-87.69852438150244,"(42.001419252476694,-87.69852438150244)",2012-06-06
25275,06/06/2012,Completed - Dup,06/08/2012,12-01036071,Street Light - 1/Out,6332 W MELROSE ST,60634.0,1133608.33517502,1920934.51932405,36.0,16.0,17.0,41.93926025036336,-87.78436618112282,"(41.939260250363354,-87.78436618112282)",2012-06-06
25276,06/06/2012,Completed - Dup,06/08/2012,12-01036325,Street Light - 1/Out,1711 E 86TH PL,60617.0,1189165.12752487,1847964.22078524,8.0,4.0,45.0,41.737868339119615,-87.58252588777184,"(41.73786833911962,-87.58252588777184)",2012-06-06
25277,06/06/2012,Completed - Dup,06/08/2012,12-01039908,Street Light - 1/Out,9660 S OGLESBY AVE,60617.0,1193744.14948173,1841353.12021261,7.0,4.0,51.0,41.719616026436526,-87.56596575141974,"(41.71961602643653,-87.56596575141974)",2012-06-06
25278,06/06/2012,Completed - Dup,06/08/2012,12-01042618,Street Light - 1/Out,5349 S MELVINA AVE,60638.0,1135947.26100612,1868468.30792303,23.0,8.0,56.0,41.79524408837618,-87.77701946019549,"(41.79524408837618,-87.77701946019549)",2012-06-06
25279,06/06/2012,Completed - Dup,06/11/2012,12-01033699,Street Light - 1/Out,4026 W JACKSON BLVD,60624.0,1149596.82359276,1898382.58207152,28.0,11.0,26.0,41.8770795300817,-87.72619013886698,"(41.8770795300817,-87.72619013886697)",2012-06-06
25280,06/06/2012,Completed - Dup,06/11/2012,12-01035934,Street Light - 1/Out,10453 S AVENUE O,60617.0,1200848.83719005,1836245.3250821,10.0,4.0,52.0,41.705423092539,-87.54011631117258,"(41.705423092539,-87.54011631117258)",2012-06-06
25281,06/06/2012,Completed - Dup,06/12/2012,12-01037624,Street Light - 1/Out,11812 S CAMPBELL AVE,60655.0,1161850.25120303,1826235.97712952,19.0,22.0,75.0,41.67885267149149,-87.68320172135057,"(41.67885267149149,-87.68320172135058)",2012-06-06
25282,06/06/2012,Completed - Dup,06/12/2012,12-01039679,Street Light - 1/Out,11812 S CAMPBELL AVE,60655.0,1161850.25120303,1826235.97712952,19.0,22.0,75.0,41.67885267149149,-87.68320172135057,"(41.67885267149149,-87.68320172135058)",2012-06-06
25283,06/06/2012,Completed - Dup,06/12/2012,12-01039780,Street Light - 1/Out,12913 S WALLACE ST,60628.0,1174669.14807546,1819213.92910997,9.0,5.0,53.0,41.6593080133524,-87.63648735292746,"(41.659308013352394,-87.63648735292746)",2012-06-06
25284,06/06/2012,Completed - Dup,06/13/2012,12-01032928,Street Light - 1/Out,6900 S CAMPBELL AVE,60629.0,1160899.16496585,1858823.22860681,15.0,8.0,66.0,41.76829712279517,-87.6857858355591,"(41.768297122795175,-87.6857858355591)",2012-06-06
25285,06/06/2012,Completed - Dup,06/13/2012,12-01033697,Street Light - 1/Out,4409 W THOMAS ST,60651.0,1146778.75461213,1906963.66238943,37.0,11.0,23.0,41.9006812159022,-87.73631815195316,"(41.900681215902196,-87.73631815195317)",2012-06-06
25286,06/06/2012,Completed - Dup,06/13/2012,12-01033701,Street Light - 1/Out,3300 W OHIO ST,60624.0,1154270.62199656,1903805.70801423,27.0,11.0,23.0,41.89186912475323,-87.7088843203018,"(41.89186912475323,-87.7088843203018)",2012-06-06
25287,06/06/2012,Completed - Dup,06/13/2012,12-01036874,Street Light - 1/Out,4915 W WASHINGTON BLVD,60644.0,1143606.08537871,1900053.56957949,28.0,15.0,25.0,41.881779108147,-87.74814479286322,"(41.881779108147,-87.74814479286322)",2012-06-06
25288,06/06/2012,Completed - Dup,06/20/2012,12-01035969,Street Light - 1/Out,8300 S MARSHFIELD AVE,60620.0,1166786.85192659,1849669.92831119,18.0,6.0,71.0,41.74305553772665,-87.66446543196871,"(41.74305553772665,-87.6644654319687)",2012-06-06
25289,06/06/2012,Completed - Dup,06/20/2012,12-01039600,Street Light - 1/Out,1632 W 83RD ST,60620.0,1166786.85192659,1849669.92831119,18.0,6.0,71.0,41.74305553772665,-87.66446543196871,"(41.74305553772665,-87.6644654319687)",2012-06-06
25290,06/06/2012,Completed - Dup,06/21/2012,12-01039742,Street Light - 1/Out,1329 W 97TH ST,60643.0,1169175.66768126,1840589.96871065,21.0,22.0,73.0,41.718087523623524,-87.65597451884436,"(41.71808752362352,-87.65597451884436)",2012-06-06
25291,06/06/2012,Completed - Dup,06/22/2012,12-01039814,Street Light - 1/Out,1325 W 97TH ST,60643.0,1169201.16768126,1840590.56871065,21.0,22.0,73.0,41.7180886195341,-87.65588110463769,"(41.7180886195341,-87.65588110463769)",2012-06-06
25292,06/06/2012,Completed - Dup,06/25/2012,12-01036366,Street Light - 1/Out,5620 S WELLS ST,60621.0,1175561.12419995,1867664.6893797,3.0,7.0,68.0,41.792243561144716,-87.63177843565714,"(41.792243561144716,-87.63177843565714)",2012-06-06
25293,06/06/2012,Completed - Dup,07/09/2012,12-01034395,Street Light - 1/Out,4920 W WASHINGTON BLVD,60644.0,1143572.38537871,1900052.76957949,28.0,15.0,25.0,41.88177754335581,-87.74826856003952,"(41.88177754335581,-87.74826856003952)",2012-06-06
25294,06/06/2012,Completed - Dup,07/09/2012,12-01036631,Street Light - 1/Out,11659 S MAY ST,60643.0,1170755.80001324,1827476.07999733,34.0,5.0,53.0,41.68206669645589,-87.65056786525858,"(41.682066696455884,-87.65056786525858)",2012-06-06
25295,06/06/2012,Completed - Dup,07/10/2012,12-01033989,Street Light - 1/Out,621 N LOTUS AVE,60644.0,1139810.21979059,1903574.56408932,37.0,15.0,25.0,41.891511340672366,-87.7619972387261,"(41.891511340672366,-87.7619972387261)",2012-06-06
25296,06/06/2012,Completed - Dup,07/10/2012,12-01039465,Street Light - 1/Out,621 N LOTUS AVE,60644.0,1139810.21979059,1903574.56408932,37.0,15.0,25.0,41.891511340672366,-87.7619972387261,"(41.891511340672366,-87.7619972387261)",2012-06-06
25297,06/06/2012,Completed,06/06/2012,12-01033224,Street Light - 1/Out,3905 W 14TH ST,60623.0,1150554.05666745,1893093.46466881,24.0,10.0,29.0,41.862546950495684,-87.72281355226944,"(41.86254695049568,-87.72281355226944)",2012-06-06
25298,06/06/2012,Completed,06/07/2012,12-01038643,Street Light - 1/Out,4501 N ARTESIAN AVE,60625.0,1159227.80416785,1929818.03131002,47.0,19.0,4.0,41.963148318890575,-87.68996194067788,"(41.96314831889058,-87.68996194067788)",2012-06-06
25299,06/06/2012,Completed,06/07/2012,12-01039973,Street Light - 1/Out,601 W HARRISON ST,60607.0,1172413.44538126,1897567.97567879,2.0,1.0,28.0,41.87437073461997,-87.6424385290773,"(41.87437073461998,-87.6424385290773)",2012-06-06
25300,06/06/2012,Completed,06/08/2012,12-01033630,Street Light - 1/Out,7047 S INDIANA AVE,60637.0,1178814.75382263,1858335.31889296,6.0,3.0,69.0,41.76656934760453,-87.6201316972664,"(41.76656934760453,-87.6201316972664)",2012-06-06
25301,06/06/2012,Completed,06/08/2012,12-01033681,Street Light - 1/Out,32 E 72ND ST,60619.0,1177862.25870441,1857288.63719571,6.0,3.0,69.0,41.76371875761091,-87.62365458264294,"(41.76371875761091,-87.62365458264293)",2012-06-06
25302,06/06/2012,Completed,06/08/2012,12-01033694,Street Light - 1/Out,204 E 72ND ST,60619.0,1178865.10308236,1857323.51957046,6.0,3.0,69.0,41.763791715432966,-87.61997790635054,"(41.76379171543297,-87.61997790635053)",2012-06-06
25303,06/06/2012,Completed,06/08/2012,12-01033707,Street Light - 1/Out,2547 W JEROME ST,60645.0,1158001.11560567,1950006.45562481,50.0,24.0,2.0,42.01857138145985,-87.69391784667843,"(42.018571381459864,-87.69391784667842)",2012-06-06
25304,06/06/2012,Completed,06/08/2012,12-01033929,Street Light - 1/Out,5250 W WAVELAND AVE,60641.0,1141039.12607556,1924106.64286574,38.0,16.0,15.0,41.94783103625693,-87.75697719207524,"(41.94783103625693,-87.75697719207524)",2012-06-06
25305,06/06/2012,Completed,06/08/2012,12-01035124,Street Light - 1/Out,5038 S ASHLAND AVE,60609.0,1166525.61380729,1871308.82507399,16.0,9.0,61.0,41.80244105768731,-87.66480630629127,"(41.80244105768731,-87.66480630629127)",2012-06-06
25306,06/06/2012,Completed,06/08/2012,12-01036495,Street Light - 1/Out,6230 W BARRY AVE,60634.0,1134327.95512589,1919949.3470214,36.0,25.0,19.0,41.93654415241564,-87.78174463042711,"(41.936544152415635,-87.78174463042711)",2012-06-06
25307,06/06/2012,Completed,06/11/2012,12-01039192,Street Light - 1/Out,5733 N SHERIDAN RD,60660.0,1168598.57499909,1938273.37947824,48.0,20.0,77.0,41.98615178746536,-87.65526300006935,"(41.98615178746536,-87.65526300006935)",2012-06-06
25308,06/06/2012,Completed,06/12/2012,12-01033703,Street Light - 1/Out,7133 S STATE ST,60619.0,1177524.37911404,1857560.64209729,6.0,3.0,69.0,41.764472812241756,-87.62488476572244,"(41.76447281224176,-87.62488476572244)",2012-06-06
25309,06/06/2012,Completed,06/12/2012,12-01033712,Street Light - 1/Out,1607 W BELLE PLAINE AVE,60613.0,1164891.40703205,1927302.5687054,47.0,19.0,6.0,41.956127200657065,-87.66921059298193,"(41.956127200657065,-87.66921059298193)",2012-06-06
25310,06/06/2012,Completed,06/12/2012,12-01039777,Street Light - 1/Out,12913 S WALLACE ST,60628.0,1174669.14807546,1819213.92910997,9.0,5.0,53.0,41.6593080133524,-87.63648735292746,"(41.659308013352394,-87.63648735292746)",2012-06-06
25311,06/06/2012,Completed,06/12/2012,12-01039794,Street Light - 1/Out,4700 N RACINE AVE,60640.0,1167460.17060485,1931357.28789909,46.0,19.0,3.0,41.967198484217455,-87.65965004291643,"(41.96719848421745,-87.65965004291644)",2012-06-06
25312,06/06/2012,Completed,06/12/2012,12-01039869,Street Light - 1/Out,242 E 136TH PL,60827.0,1180239.53911654,1814787.78186584,9.0,5.0,54.0,41.64703657068424,-87.6162385457227,"(41.647036570684236,-87.61623854572268)",2012-06-06
25313,06/06/2012,Completed,06/12/2012,12-01039933,Street Light - 1/Out,11943 S NORMAL AVE,60628.0,1175116.27788418,1825702.22800502,34.0,5.0,53.0,41.67710303159947,-87.63465869467426,"(41.67710303159947,-87.63465869467427)",2012-06-06
25314,06/06/2012,Completed,06/12/2012,12-01039977,Street Light - 1/Out,1657 N MONITOR AVE,60639.0,1137179.08620008,1910423.98566787,29.0,25.0,25.0,41.91035466972403,-87.7714955790973,"(41.91035466972403,-87.77149557909732)",2012-06-06
25315,06/06/2012,Completed,06/13/2012,12-01033362,Street Light - 1/Out,1333 S INDEPENDENCE BLVD,60623.0,1151473.78312509,1893376.24013179,24.0,10.0,29.0,41.86330492202273,-87.71942990295523,"(41.86330492202273,-87.71942990295523)",2012-06-06
25316,06/06/2012,Completed,06/13/2012,12-01035106,Street Light - 1/Out,2147 W 51ST ST,60609.0,1162733.70986873,1870820.50199285,16.0,9.0,61.0,41.80118112856855,-87.67872651782234,"(41.80118112856855,-87.67872651782234)",2012-06-06
25317,06/06/2012,Completed,06/14/2012,12-01032862,Street Light - 1/Out,1920 W 58TH ST,60636.0,1164465.64672265,1866201.78321622,15.0,7.0,67.0,41.788470422308265,-87.67250508026956,"(41.788470422308265,-87.67250508026957)",2012-06-06
25318,06/06/2012,Completed,06/14/2012,12-01032934,Street Light - 1/Out,1500 W 71ST PL,60636.0,1167352.44099683,1857315.22068666,17.0,7.0,67.0,41.76402319184497,-87.66217455964919,"(41.76402319184497,-87.66217455964919)",2012-06-06
25319,06/06/2012,Completed,06/14/2012,12-01032941,Street Light - 1/Out,9858 S FOREST AVE,60628.0,1179988.13657119,1839668.30428488,6.0,5.0,49.0,41.71531809442822,-87.61640085685842,"(41.71531809442822,-87.61640085685842)",2012-06-06
25320,06/06/2012,Completed,06/14/2012,12-01035870,Street Light - 1/Out,4913 S LA CROSSE AVE,60638.0,1144855.09027913,1871615.46620508,23.0,8.0,56.0,41.80371755900728,-87.74427463144112,"(41.80371755900728,-87.74427463144112)",2012-06-06
25321,06/06/2012,Completed,06/14/2012,12-01036983,Street Light - 1/Out,5115 S RUTHERFORD AVE,60638.0,1132261.34610693,1869906.10672458,23.0,8.0,56.0,41.79925433102725,-87.79050279564112,"(41.79925433102725,-87.79050279564113)",2012-06-06
25322,06/06/2012,Completed,06/14/2012,12-01039750,Street Light - 1/Out,2315 W 81ST PL,60620.0,1162281.91456613,1850460.34263331,18.0,8.0,70.0,41.74531945831609,-87.68094982673294,"(41.74531945831609,-87.68094982673294)",2012-06-06
25323,06/06/2012,Completed,06/18/2012,12-01035122,Street Light - 1/Out,5345 S MARSHFIELD AVE,60609.0,1166250.36162203,1869262.95368303,16.0,9.0,61.0,41.796832815926265,-87.66587403605112,"(41.796832815926265,-87.66587403605112)",2012-06-06
25324,06/06/2012,Completed,06/19/2012,12-01032929,Street Light - 1/Out,6359 S MAY ST,60621.0,1169742.91522643,1862625.5551779,16.0,7.0,68.0,41.77854389269847,-87.65325900346615,"(41.778543892698465,-87.65325900346615)",2012-06-06
25325,06/06/2012,Completed,06/19/2012,12-01032974,Street Light - 1/Out,4939 S SHIELDS AVE,60609.0,1174796.39691958,1872206.96510369,3.0,9.0,37.0,41.804725112366405,-87.63444713861851,"(41.804725112366405,-87.63444713861851)",2012-06-06
25326,06/06/2012,Completed,06/22/2012,12-01032938,Street Light - 1/Out,9800 S CHAPPEL AVE,60617.0,1191558.07238334,1840413.39576645,7.0,4.0,51.0,41.717090517987415,-87.57400292872732,"(41.717090517987415,-87.57400292872731)",2012-06-06
25327,06/06/2012,Completed,06/25/2012,12-01032829,Street Light - 1/Out,9154 S HOYNE AVE,60620.0,,,,,,,,,2012-06-06
25328,06/06/2012,Completed,06/26/2012,12-01039849,Street Light - 1/Out,10200 S PROSPECT AVE,60643.0,1167498.03029873,1837003.30999515,19.0,22.0,72.0,41.708281224152884,-87.66222147019603,"(41.708281224152884,-87.66222147019603)",2012-06-06
25329,06/06/2012,Completed,07/03/2012,12-01039992,Street Light - 1/Out,1323 W 78TH ST,60620.0,1168988.5132342,1853049.0509833999,17.0,6.0,71.0,41.75228107085293,-87.65630102644958,"(41.75228107085293,-87.6563010264496)",2012-06-06
25330,06/06/2012,Completed,07/13/2012,12-01035974,Street Light - 1/Out,7942 S LOWE AVE,60620.0,1173346.26387504,1852223.57193226,17.0,6.0,71.0,41.74992064184333,-87.64035615735769,"(41.74992064184333,-87.64035615735769)",2012-06-06
25331,06/06/2012,Completed,07/25/2012,12-01033121,Street Light - 1/Out,1003 S INDEPENDENCE BLVD,60624.0,1151248.07716579,1895396.91130416,24.0,11.0,29.0,41.86885430226333,-87.72020547886527,"(41.86885430226333,-87.72020547886527)",2012-06-06
25332,06/06/2012,Completed,07/25/2012,12-01033215,Street Light - 1/Out,1331 S HARDING AVE,60623.0,1150259.28820648,1893543.57436576,24.0,10.0,29.0,41.863787851821975,-87.72388388984659,"(41.86378785182198,-87.7238838898466)",2012-06-06
25333,06/06/2012,Completed,07/25/2012,12-01033302,Street Light - 1/Out,1400 S HAMLIN AVE,60623.0,1151274.69010212,1892942.06700673,24.0,10.0,29.0,41.86211740467346,-87.72017214584234,"(41.86211740467346,-87.72017214584234)",2012-06-06
25334,06/06/2012,Completed,08/30/2012,12-01039978,Street Light - 1/Out,5658 S WINCHESTER AVE,60636.0,1164323.04398883,1867120.79333342,15.0,7.0,67.0,41.790995308913274,-87.67300207215662,"(41.79099530891327,-87.67300207215663)",2012-06-06
25335,06/06/2012,Completed,09/21/2012,12-01032936,Street Light - 1/Out,2840 E 88TH ST,60617.0,1196561.96428851,1847169.46020254,10.0,4.0,46.0,41.73550717585624,-87.55545261774628,"(41.73550717585624,-87.55545261774628)",2012-06-06
25336,06/06/2012,Completed,09/28/2012,12-01035873,Street Light - 1/Out,2556 W LITHUANIAN PLAZA CT,60629.0,1160444.5450213002,1858809.48002816,15.0,8.0,66.0,41.7682687749953,-87.68745262411066,"(41.7682687749953,-87.68745262411066)",2012-06-06
25450,06/07/2012,Completed - Dup,06/07/2012,12-01040171,Street Light - 1/Out,6511 S GREEN ST,60621.0,1171756.95519364,1861674.63147292,20.0,7.0,68.0,41.77589050092693,-87.64590328795009,"(41.77589050092692,-87.64590328795009)",2012-06-07
25451,06/07/2012,Completed - Dup,06/07/2012,12-01040217,Street Light - 1/Out,1810 S KOMENSKY AVE,60623.0,1149668.90422521,1891000.32057242,24.0,10.0,29.0,41.856820336401476,-87.72611720601844,"(41.856820336401476,-87.72611720601846)",2012-06-07
25452,06/07/2012,Completed - Dup,06/08/2012,12-01040026,Street Light - 1/Out,8547 S KOSTNER AVE,60652.0,1148579.8062915,1847504.46812576,18.0,8.0,70.0,41.73748210749212,-87.7312330877455,"(41.73748210749212,-87.7312330877455)",2012-06-07
25453,06/07/2012,Completed - Dup,06/08/2012,12-01040177,Street Light - 1/Out,7717 S LANGLEY AVE,60619.0,1182231.29227634,1853993.93602512,6.0,6.0,69.0,41.75457772646336,-87.60774312583666,"(41.75457772646336,-87.60774312583665)",2012-06-07
25454,06/07/2012,Completed - Dup,06/08/2012,12-01040858,Street Light - 1/Out,2438 W GRENSHAW ST,60612.0,1160297.10682336,1894974.13180737,28.0,11.0,28.0,41.8675119909089,-87.68699594309662,"(41.86751199090891,-87.68699594309662)",2012-06-07
25455,06/07/2012,Completed - Dup,06/08/2012,12-01041565,Street Light - 1/Out,646 W 47TH PL,60609.0,1172785.31512605,1873392.25023361,11.0,9.0,61.0,41.80802229171262,-87.64178788702795,"(41.80802229171262,-87.64178788702796)",2012-06-07
25456,06/07/2012,Completed - Dup,06/08/2012,12-01041941,Street Light - 1/Out,646 W 47TH PL,60609.0,1172785.31512605,1873392.25023361,11.0,9.0,61.0,41.80802229171262,-87.64178788702795,"(41.80802229171262,-87.64178788702796)",2012-06-07
25457,06/07/2012,Completed - Dup,06/08/2012,12-01042960,Street Light - 1/Out,4859 S HOYNE AVE,60609.0,1163179.96138716,1872426.5400137,12.0,9.0,61.0,41.80557895563205,-87.67704497629144,"(41.80557895563205,-87.67704497629146)",2012-06-07
25458,06/07/2012,Completed - Dup,06/08/2012,12-01044125,Street Light - 1/Out,8000 S TRIPP AVE,60652.0,1149527.42339122,1850994.88898475,13.0,8.0,70.0,41.74704219944698,-87.72767122497532,"(41.74704219944698,-87.72767122497531)",2012-06-07
25459,06/07/2012,Completed - Dup,06/08/2012,12-01044292,Street Light - 1/Out,5485 N AUSTIN AVE,60630.0,1135220.45372179,1936105.98637015,45.0,16.0,11.0,41.98086376746652,-87.77807978889803,"(41.98086376746652,-87.77807978889803)",2012-06-07
25460,06/07/2012,Completed - Dup,06/11/2012,12-01040169,Street Light - 1/Out,1243 W 80TH ST,60620.0,1169326.1535769,1851730.68929619,21.0,6.0,71.0,41.748656010404794,-87.65510180408285,"(41.7486560104048,-87.65510180408286)",2012-06-07
25461,06/07/2012,Completed - Dup,06/11/2012,12-01040209,Street Light - 1/Out,4230 W ARGYLE ST,60630.0,1147147.32849176,1932888.07200816,39.0,17.0,14.0,41.971813051127675,-87.7342989800347,"(41.97181305112767,-87.73429898003471)",2012-06-07
25462,06/07/2012,Completed - Dup,06/11/2012,12-01040218,Street Light - 1/Out,3759 W CHICAGO AVE,60651.0,1151108.51402281,1905077.28987768,27.0,11.0,23.0,41.895421036996645,-87.72046405499412,"(41.89542103699664,-87.72046405499412)",2012-06-07
25463,06/07/2012,Completed - Dup,06/11/2012,12-01044228,Street Light - 1/Out,10449 S AVENUE H,60617.0,1202827.54076569,1836285.1296299999,10.0,4.0,52.0,41.70548207678825,-87.53286932877941,"(41.70548207678825,-87.5328693287794)",2012-06-07
25464,06/07/2012,Completed - Dup,06/11/2012,12-01044235,Street Light - 1/Out,10449 S AVENUE H,60617.0,1202827.54076569,1836285.1296299999,10.0,4.0,52.0,41.70548207678825,-87.53286932877941,"(41.70548207678825,-87.5328693287794)",2012-06-07
25465,06/07/2012,Completed - Dup,06/11/2012,12-01044241,Street Light - 1/Out,10449 S AVENUE H,60617.0,1202827.54076569,1836285.1296299999,10.0,4.0,52.0,41.70548207678825,-87.53286932877941,"(41.70548207678825,-87.5328693287794)",2012-06-07
25466,06/07/2012,Completed - Dup,06/11/2012,12-01044379,Street Light - 1/Out,900 W CASTLEWOOD TER,60640.0,1169386.35581797,1932698.66862383,48.0,20.0,3.0,41.97083749352711,-87.65252854334852,"(41.97083749352711,-87.65252854334852)",2012-06-07
25467,06/07/2012,Completed - Dup,06/11/2012,12-01045141,Street Light - 1/Out,1443 W WAVELAND AVE,60613.0,1165927.5701222,1924665.12997349,44.0,19.0,6.0,41.948867854149135,-87.66547697680338,"(41.94886785414913,-87.66547697680338)",2012-06-07
25468,06/07/2012,Completed - Dup,06/12/2012,12-01041505,Street Light - 1/Out,11812 S CAMPBELL AVE,60655.0,1161850.25120303,1826235.97712952,19.0,22.0,75.0,41.67885267149149,-87.68320172135057,"(41.67885267149149,-87.68320172135058)",2012-06-07
25469,06/07/2012,Completed - Dup,06/12/2012,12-01041558,Street Light - 1/Out,1657 N MONITOR AVE,60639.0,1137179.08620008,1910423.98566787,29.0,25.0,25.0,41.91035466972403,-87.7714955790973,"(41.91035466972403,-87.77149557909732)",2012-06-07
25470,06/07/2012,Completed - Dup,06/12/2012,12-01045020,Street Light - 1/Out,4759 N BROADWAY,60640.0,1167451.08002028,1931973.17002359,48.0,19.0,3.0,41.96888868158994,-87.65966566200302,"(41.96888868158994,-87.65966566200301)",2012-06-07
25471,06/07/2012,Completed - Dup,06/13/2012,12-01040298,Street Light - 1/Out,614 N LOCKWOOD AVE,60644.0,1140920.22182894,1903552.74451675,37.0,15.0,25.0,41.89143111094319,-87.75792119747881,"(41.89143111094319,-87.75792119747881)",2012-06-07
25472,06/07/2012,Completed - Dup,06/13/2012,12-01040496,Street Light - 1/Out,3300 W OHIO ST,60624.0,1154270.62199656,1903805.70801423,27.0,11.0,23.0,41.89186912475323,-87.7088843203018,"(41.89186912475323,-87.7088843203018)",2012-06-07
25473,06/07/2012,Completed - Dup,06/13/2012,12-01045072,Street Light - 1/Out,4427 W CORTEZ ST,60651.0,1146665.87598921,1906628.95347316,37.0,11.0,23.0,41.899764893618524,-87.73674131559771,"(41.89976489361852,-87.7367413155977)",2012-06-07
25474,06/07/2012,Completed - Dup,06/13/2012,12-01045128,Street Light - 1/Out,12754 S UNION AVE,60628.0,1173978.73250058,1820247.79761493,34.0,5.0,53.0,41.66216041285632,-87.63898329832782,"(41.66216041285633,-87.63898329832782)",2012-06-07
25475,06/07/2012,Completed - Dup,06/14/2012,12-01044999,Street Light - 1/Out,2315 W 81ST PL,60620.0,1162281.91456613,1850460.34263331,18.0,8.0,70.0,41.74531945831609,-87.68094982673294,"(41.74531945831609,-87.68094982673294)",2012-06-07
25476,06/07/2012,Completed - Dup,06/14/2012,12-01045062,Street Light - 1/Out,1467 W 71ST PL,60636.0,1167609.3597208,1857322.21352992,17.0,7.0,67.0,41.764036876298796,-87.66123269072901,"(41.7640368762988,-87.66123269072902)",2012-06-07
25477,06/07/2012,Completed - Dup,06/15/2012,12-01042942,Street Light - 1/Out,4116 N LAWNDALE AVE,60618.0,1150988.87989823,1927105.02368972,39.0,17.0,16.0,41.95586939374829,-87.72032507002109,"(41.95586939374829,-87.72032507002109)",2012-06-07
25478,06/07/2012,Completed - Dup,06/19/2012,12-01044702,Street Light - 1/Out,2708 N NEVA AVE,60707.0,1127959.26947843,1917196.92248522,36.0,25.0,18.0,41.92910121687819,-87.80521309522152,"(41.92910121687819,-87.80521309522152)",2012-06-07
25479,06/07/2012,Completed - Dup,06/25/2012,12-01044774,Street Light - 1/Out,4732 W ALTGELD ST,60639.0,1144425.59108795,1916265.43319957,31.0,25.0,19.0,41.92625086143092,-87.74472708395096,"(41.926250861430916,-87.74472708395096)",2012-06-07
25480,06/07/2012,Completed - Dup,07/03/2012,12-01040175,Street Light - 1/Out,535 W 57TH PL,60621.0,1173766.95921285,1866794.27328525,3.0,7.0,68.0,41.78989503570668,-87.63838312907387,"(41.78989503570668,-87.63838312907386)",2012-06-07
25481,06/07/2012,Completed - Dup,07/11/2012,12-01040220,Street Light - 1/Out,3009 W LYNDALE ST,60647.0,1155939.22209441,1914937.62692496,35.0,14.0,22.0,41.92238258419361,-87.70245558701885,"(41.92238258419362,-87.70245558701885)",2012-06-07
25482,06/07/2012,Completed - Dup,07/12/2012,12-01041537,Street Light - 1/Out,2112 N KOSTNER AVE,60639.0,1146712.3916219,1913730.63722339,31.0,25.0,20.0,41.91925175420671,-87.73638892571209,"(41.91925175420671,-87.7363889257121)",2012-06-07
25483,06/07/2012,Completed - Dup,08/17/2012,12-01045125,Street Light - 1/Out,7529 S DREXEL AVE,60619.0,1183535.57510768,1855279.60992717,8.0,6.0,69.0,41.758075461387904,-87.60292337423815,"(41.758075461387904,-87.60292337423816)",2012-06-07
25484,06/07/2012,Completed,06/07/2012,12-01044086,Street Light - 1/Out,1123 W BERWYN AVE,60640.0,1167784.37677796,1935358.03028949,48.0,20.0,77.0,41.978169642572325,-87.65834207929387,"(41.97816964257232,-87.65834207929387)",2012-06-07
25485,06/07/2012,Completed,06/08/2012,12-01041811,Street Light - 1/Out,7389 N DAMEN AVE,60645.0,1161660.79817844,1949150.65487645,49.0,24.0,1.0,42.01614723574429,-87.68047483162334,"(42.0161472357443,-87.68047483162334)",2012-06-07
25486,06/07/2012,Completed,06/08/2012,12-01044704,Street Light - 1/Out,5986 N MANTON AVE,60646.0,1135879.7498855,1939413.98298932,45.0,16.0,11.0,41.9899294383234,-87.77557585107145,"(41.9899294383234,-87.77557585107145)",2012-06-07
25487,06/07/2012,Completed,06/11/2012,12-01044122,Street Light - 1/Out,4025 W 79TH ST,60652.0,1150771.31321913,1851917.73018149,13.0,8.0,70.0,41.74955051853267,-87.72308923358109,"(41.74955051853267,-87.7230892335811)",2012-06-07
25488,06/07/2012,Completed,06/11/2012,12-01044330,Street Light - 1/Out,1023 W THORNDALE AVE,60660.0,1168298.56471544,1939706.24948327,48.0,20.0,77.0,41.990090126728404,-87.65632476281425,"(41.99009012672841,-87.65632476281425)",2012-06-07
25489,06/07/2012,Completed,06/11/2012,12-01045047,Street Light - 1/Out,1445 W ELMDALE AVE,60660.0,1165592.4041323,1939959.59139685,48.0,20.0,77.0,41.99084357517605,-87.66627125243858,"(41.990843575176044,-87.66627125243858)",2012-06-07
25490,06/07/2012,Completed,06/12/2012,12-01041370,Street Light - 1/Out,11500 S AVENUE G,60617.0,1203224.149379,1829328.34142989,10.0,4.0,52.0,41.68638193413299,-87.5316541339057,"(41.68638193413299,-87.5316541339057)",2012-06-07
25491,06/07/2012,Completed,06/12/2012,12-01044706,Street Light - 1/Out,8144 S YALE AVE,60620.0,1176031.50230166,1851001.41543124,21.0,6.0,44.0,41.7465071264543,-87.63055290690994,"(41.7465071264543,-87.63055290690994)",2012-06-07
25492,06/07/2012,Completed,06/12/2012,12-01044916,Street Light - 1/Out,7000 W BLOOMINGDALE AVE,60707.0,1129307.92500019,1911191.62010966,36.0,25.0,25.0,41.912599000606114,-87.80039424232605,"(41.91259900060612,-87.80039424232604)",2012-06-07
25493,06/07/2012,Completed,06/13/2012,12-01040206,Street Light - 1/Out,1538 N LONG AVE,60651.0,1140068.53379553,1909701.43151117,37.0,25.0,25.0,41.90831947095357,-87.76089841810459,"(41.90831947095357,-87.76089841810459)",2012-06-07
25494,06/07/2012,Completed,06/13/2012,12-01045124,Street Light - 1/Out,7014 W CORNELIA AVE,60634.0,1128798.85009485,1922461.85746641,36.0,16.0,17.0,41.943534601673775,-87.80200792249431,"(41.94353460167377,-87.80200792249431)",2012-06-07
25495,06/07/2012,Completed,06/14/2012,12-01040168,Street Light - 1/Out,8050 S TALMAN AVE,60652.0,1160112.10169714,1851061.4301248002,18.0,8.0,70.0,41.747013803812216,-87.68888394681541,"(41.747013803812216,-87.68888394681542)",2012-06-07
25496,06/07/2012,Completed,06/14/2012,12-01040173,Street Light - 1/Out,6500 S HONORE ST,60636.0,1165130.060275,1861572.96347732,15.0,7.0,67.0,41.77575430620626,-87.67019980565942,"(41.77575430620626,-87.67019980565942)",2012-06-07
25497,06/07/2012,Completed,06/15/2012,12-01040222,Street Light - 1/Out,3766 N KENMORE AVE,60613.0,1168600.97802261,1925248.61111068,44.0,19.0,6.0,41.9504113660618,-87.65563308815136,"(41.9504113660618,-87.65563308815136)",2012-06-07
25498,06/07/2012,Completed,06/15/2012,12-01045066,Street Light - 1/Out,1466 W PENSACOLA AVE,60613.0,1165856.75421157,1928987.78982317,47.0,19.0,6.0,41.96073093389859,-87.66561348127632,"(41.96073093389859,-87.66561348127631)",2012-06-07
25499,06/07/2012,Completed,06/19/2012,12-01040205,Street Light - 1/Out,2708 N NEVA AVE,60707.0,1127959.26947843,1917196.92248522,36.0,25.0,18.0,41.92910121687819,-87.80521309522152,"(41.92910121687819,-87.80521309522152)",2012-06-07
25500,06/07/2012,Completed,06/19/2012,12-01042453,Street Light - 1/Out,4346 W ROSEMONT AVE,60646.0,1146192.98656658,1941456.39637651,39.0,17.0,12.0,41.99534337012162,-87.73758912062436,"(41.99534337012162,-87.73758912062438)",2012-06-07
25501,06/07/2012,Completed,06/21/2012,12-01043624,Street Light - 1/Out,1059 N CENTRAL PARK AVE,60651.0,1152182.91618574,1906824.3099016002,27.0,11.0,23.0,41.90019390336585,-87.71647187476692,"(41.900193903365846,-87.71647187476692)",2012-06-07
25502,06/07/2012,Completed,06/22/2012,12-01042752,Street Light - 1/Out,1657 W MONTEREY AVE,60643.0,1167158.56139082,1830250.35321966,34.0,22.0,75.0,41.689757251669995,-87.66365691581741,"(41.68975725166999,-87.66365691581741)",2012-06-07
25503,06/07/2012,Completed,06/25/2012,12-01040179,Street Light - 1/Out,8146 S AVALON AVE,60619.0,1185960.12900363,1851226.86818911,8.0,4.0,45.0,41.74689750757347,-87.59416535308362,"(41.746897507573465,-87.59416535308362)",2012-06-07
25504,06/07/2012,Completed,07/04/2012,12-01040212,Street Light - 1/Out,4248 N KEYSTONE AVE,60641.0,1148528.93802646,1927924.95439966,39.0,17.0,16.0,41.95816727576931,-87.72934720582128,"(41.95816727576931,-87.72934720582128)",2012-06-07
25505,06/07/2012,Completed,09/11/2012,12-01040208,Street Light - 1/Out,155 N LAVERGNE AVE,60644.0,1143022.21498607,1900584.92558002,28.0,15.0,25.0,41.883248118991226,-87.75027552241542,"(41.88324811899123,-87.75027552241542)",2012-06-07
25506,06/07/2012,Completed,09/20/2012,12-01040459,Street Light - 1/Out,704 N TRUMBULL AVE,60624.0,1153252.86289825,1904479.45092542,27.0,11.0,23.0,41.893738205956936,-87.71260421657435,"(41.89373820595694,-87.71260421657435)",2012-06-07
25615,06/08/2012,Completed - Dup,06/09/2012,12-01045215,Street Light - 1/Out,3548 W 76TH PL,60652.0,1154081.00000978,1853647.95000617,18.0,8.0,70.0,41.75423347199109,-87.71091517063331,"(41.754233471991085,-87.71091517063331)",2012-06-08
25616,06/08/2012,Completed - Dup,06/10/2012,12-01051549,Street Light - 1/Out,3668 W ROOSEVELT RD,60624.0,1152044.4400275,1894463.2099706002,24.0,11.0,29.0,41.86627647462946,-87.71730642056986,"(41.86627647462946,-87.71730642056986)",2012-06-08
25617,06/08/2012,Completed - Dup,06/11/2012,12-01045212,Street Light - 1/Out,11723 S RACINE AVE,60643.0,1170436.04941728,1827046.45130032,34.0,5.0,53.0,41.68089467145325,-87.65175077858584,"(41.680894671453245,-87.65175077858585)",2012-06-08
25618,06/08/2012,Completed - Dup,06/11/2012,12-01045435,Street Light - 1/Out,11247 S AVENUE G,60617.0,1203205.09740249,1830997.8142178,10.0,4.0,52.0,41.690963601595676,-87.53166700291222,"(41.69096360159567,-87.53166700291222)",2012-06-08
25619,06/08/2012,Completed - Dup,06/11/2012,12-01045437,Street Light - 1/Out,9115 S COLFAX AVE,60617.0,1195086.68749102,1845030.10818486,7.0,4.0,48.0,41.72967307143757,-87.56092768290691,"(41.72967307143756,-87.56092768290691)",2012-06-08
25620,06/08/2012,Completed - Dup,06/11/2012,12-01047389,Street Light - 1/Out,6526 N ONARGA AVE,60631.0,1127172.37369682,1942695.11011886,41.0,16.0,9.0,41.99908430932115,-87.80752976607374,"(41.99908430932115,-87.80752976607373)",2012-06-08
25621,06/08/2012,Completed - Dup,06/11/2012,12-01048036,Street Light - 1/Out,6002 S STONY ISLAND AVE,60637.0,1187902.24302049,1865528.29013346,5.0,3.0,42.0,41.7860958502615,-87.58659409030676,"(41.7860958502615,-87.58659409030675)",2012-06-08
25622,06/08/2012,Completed - Dup,06/11/2012,12-01048419,Street Light - 1/Out,4025 W 79TH ST,60652.0,1150771.31321913,1851917.73018149,13.0,8.0,70.0,41.74955051853267,-87.72308923358109,"(41.74955051853267,-87.7230892335811)",2012-06-08
25623,06/08/2012,Completed - Dup,06/11/2012,12-01051256,Street Light - 1/Out,11127 S WALLACE ST,60628.0,1174291.00043253,1831094.76327257,34.0,22.0,49.0,41.691919318164224,-87.63752002627784,"(41.691919318164224,-87.63752002627785)",2012-06-08
25624,06/08/2012,Completed - Dup,06/11/2012,12-01051555,Street Light - 1/Out,7100 S HERMITAGE AVE,60636.0,1165907.85468224,1857611.7130296002,17.0,7.0,67.0,41.764867615569045,-87.6674609068533,"(41.764867615569045,-87.6674609068533)",2012-06-08
25625,06/08/2012,Completed - Dup,06/12/2012,12-01048149,Street Light - 1/Out,7011 S STONY ISLAND AVE,60649.0,1188133.43226696,1858784.03982617,5.0,3.0,43.0,41.767583565986,-87.58596135221606,"(41.767583565985994,-87.58596135221607)",2012-06-08
25626,06/08/2012,Completed - Dup,06/12/2012,12-01048286,Street Light - 1/Out,3945 W 68TH PL,60629.0,1151245.73958865,1858887.29367215,13.0,8.0,65.0,41.76866691742562,-87.72116897685433,"(41.76866691742562,-87.72116897685433)",2012-06-08
25627,06/08/2012,Completed - Dup,06/12/2012,12-01051589,Street Light - 1/Out,11943 S NORMAL AVE,60628.0,1175116.27788418,1825702.22800502,34.0,5.0,53.0,41.67710303159947,-87.63465869467426,"(41.67710303159947,-87.63465869467427)",2012-06-08
25628,06/08/2012,Completed - Dup,06/13/2012,12-01045431,Street Light - 1/Out,159 W 123RD ST,60628.0,1177356.14383015,1823384.22892331,9.0,5.0,53.0,41.67069194896578,-87.6265297559051,"(41.67069194896578,-87.6265297559051)",2012-06-08
25629,06/08/2012,Completed - Dup,06/13/2012,12-01048070,Street Light - 1/Out,6427 S STONY ISLAND AVE,60637.0,1187981.20001998,1862681.21996782,5.0,3.0,42.0,41.778281382495216,-87.58639527691861,"(41.77828138249522,-87.58639527691861)",2012-06-08
25630,06/08/2012,Completed - Dup,06/13/2012,12-01051516,Street Light - 1/Out,612 N LOCKWOOD AVE,60644.0,1140920.72182894,1903539.44451675,37.0,15.0,25.0,41.891394604923,-87.75791968874775,"(41.891394604923,-87.75791968874775)",2012-06-08
25631,06/08/2012,Completed - Dup,06/13/2012,12-01051586,Street Light - 1/Out,600 N SPAULDING AVE,60624.0,1154270.62199656,1903805.70801423,27.0,11.0,23.0,41.89186912475323,-87.7088843203018,"(41.89186912475323,-87.7088843203018)",2012-06-08
25632,06/08/2012,Completed - Dup,06/14/2012,12-01048278,Street Light - 1/Out,7400 S PULASKI RD,60629.0,1150993.5300841,1854975.95051679,13.0,8.0,65.0,41.75793846720993,-87.7221953237083,"(41.757938467209925,-87.72219532370829)",2012-06-08
25633,06/08/2012,Completed - Dup,06/14/2012,12-01049273,Street Light - 1/Out,3728 W 13TH ST,60623.0,1151588.32490746,1893784.0481175,24.0,10.0,29.0,41.86442174589495,-87.71899871371781,"(41.86442174589495,-87.7189987137178)",2012-06-08
25634,06/08/2012,Completed - Dup,06/14/2012,12-01051535,Street Light - 1/Out,7317 S EMERALD AVE,60621.0,1172567.00998579,1856353.05036603,17.0,7.0,68.0,41.761269638050535,-87.64309026529202,"(41.76126963805054,-87.64309026529202)",2012-06-08
