,Creation Date,Status,Completion Date,Service Request Number,Type of Service Request,What is the Nature of this Code Violation?,Street Address,ZIP Code,X Coordinate,Y Coordinate,Ward,Police District,Community Area,Latitude,Longitude,Location,date
262,06/08/2013,Completed,07/05/2013,13-00720141,Sanitation Code Violation,Other,1113 N HAMLIN AVE,60651.0,,,27.0,11.0,23.0,,,,2013-06-08
43568,06/02/2013,Completed,06/03/2013,13-00678267,Sanitation Code Violation,Garbage in yard,9656 S ESCANABA AVE,60617.0,1197064.70129097,1841477.49402804,10.0,4.0,51.0,41.71987545706215,-87.5537996717076,"(41.719875457062145, -87.5537996717076)",2013-06-02
43569,06/02/2013,Completed,06/03/2013,13-00678399,Sanitation Code Violation,Garbage in alley,1431 W SHERWIN AVE,60626.0,1165383.97042983,1948756.24498984,49.0,24.0,1.0,42.0149862291817,-87.66678602385916,"(42.0149862291817, -87.66678602385915)",2013-06-02
43570,06/02/2013,Completed,06/03/2013,13-00678700,Sanitation Code Violation,Other,5240 N OLCOTT AVE,60656.0,1125345.45836676,1933938.48217623,41.0,16.0,10.0,41.97508581950638,-87.81444578671675,"(41.97508581950638, -87.81444578671675)",2013-06-02
43571,06/02/2013,Completed,06/03/2013,13-00678995,Sanitation Code Violation,Garbage in alley,3608 W WOLFRAM ST,60618.0,1151841.8891919,1918713.70486823,30.0,25.0,21.0,41.932826190040714,-87.71741085821087,"(41.932826190040714, -87.71741085821088)",2013-06-02
43572,06/02/2013,Completed,06/03/2013,13-00679040,Sanitation Code Violation,Other,1536 W DEVON AVE,60660.0,1164745.45991992,1942594.59253348,40.0,24.0,1.0,41.998092147977296,-87.66931135033647,"(41.9980921479773, -87.66931135033647)",2013-06-02
43573,06/02/2013,Completed,06/03/2013,13-00679133,Sanitation Code Violation,Dog feces in yard,7738 W VICTORIA ST,60631.0,1123689.83817588,1937609.93999226,41.0,16.0,10.0,41.9851880522697,-87.8204533577198,"(41.985188052269706, -87.82045335771979)",2013-06-02
43574,06/02/2013,Completed,06/03/2013,13-00679237,Sanitation Code Violation,Garbage in yard,2317 N MARMORA AVE,60639.0,1136678.06997119,1914794.66592144,30.0,25.0,19.0,41.922357318889496,-87.77323128900369,"(41.922357318889496, -87.77323128900368)",2013-06-02
43575,06/02/2013,Completed,06/03/2013,13-00679312,Sanitation Code Violation,Dumpster not being emptied,3420 N SOUTHPORT AVE,60657.0,1166361.26759083,1922897.36990581,44.0,19.0,6.0,41.944007754157795,-87.66393353494055,"(41.9440077541578, -87.66393353494055)",2013-06-02
43576,06/02/2013,Completed,06/03/2013,13-00679314,Sanitation Code Violation,Dog feces in yard,7746 W VICTORIA ST,60631.0,1123637.13817588,1937608.03999226,41.0,16.0,10.0,41.985183704274895,-87.82064723030341,"(41.9851837042749, -87.8206472303034)",2013-06-02
43577,06/03/2013,Completed,06/03/2013,13-00680031,Sanitation Code Violation,Garbage in alley,424 W DIVERSEY PKWY,60614.0,1173089.01921984,1918906.91652233,44.0,19.0,6.0,41.93291097050661,-87.63932430377326,"(41.932910970506605, -87.63932430377326)",2013-06-03
43578,06/03/2013,Completed,06/03/2013,13-00681282,Sanitation Code Violation,Overflowing carts,2417 N WESTERN AVE,60647.0,1159955.91322953,1916111.14009286,1.0,14.0,22.0,41.92552074937429,-87.68766454992546,"(41.92552074937429, -87.68766454992547)",2013-06-03
43579,06/01/2013,Completed - Dup,06/03/2013,13-00676550,Sanitation Code Violation,,12351 S WENTWORTH AVE,60628.0,1177172.23110459,1823040.08718667,9.0,5.0,53.0,41.66975170727664,-87.62721318126074,"(41.66975170727664, -87.62721318126073)",2013-06-01
43580,06/01/2013,Completed,06/03/2013,13-00675921,Sanitation Code Violation,Garbage in yard,1703 S CARPENTER ST,60608.0,1169470.1108751998,1891897.1500231002,25.0,12.0,31.0,41.85887404723589,-87.65340997211166,"(41.85887404723589, -87.65340997211166)",2013-06-01
43581,06/01/2013,Completed,06/03/2013,13-00676283,Sanitation Code Violation,Garbage in alley,1902 W ARMITAGE AVE,60622.0,1163351.63771347,1913324.30188354,32.0,14.0,22.0,41.917802643310594,-87.6752656070834,"(41.917802643310594, -87.6752656070834)",2013-06-01
43582,06/01/2013,Completed,06/03/2013,13-00676457,Sanitation Code Violation,Other,4023 N MEADE AVE,60634.0,1134970.55788988,1926116.62830571,38.0,16.0,15.0,41.953456457096216,-87.7792364281604,"(41.95345645709622, -87.7792364281604)",2013-06-01
43583,06/01/2013,Completed,06/03/2013,13-00676528,Sanitation Code Violation,Other,12351 S WENTWORTH AVE,60628.0,1177172.23110459,1823040.08718667,9.0,5.0,53.0,41.66975170727664,-87.62721318126074,"(41.66975170727664, -87.62721318126073)",2013-06-01
43584,06/01/2013,Completed,06/03/2013,13-00676698,Sanitation Code Violation,Dumpster not being emptied,7247 N CLAREMONT AVE,60645.0,1159380.12997165,1948035.09080937,49.0,24.0,2.0,42.01313352292451,-87.68889790804464,"(42.013133522924505, -87.68889790804464)",2013-06-01
43585,06/01/2013,Completed,06/03/2013,13-00676837,Sanitation Code Violation,Standing water,4829 N CLAREMONT AVE,60625.0,1159824.44011594,1932015.10660805,47.0,20.0,4.0,41.969164889357685,-87.68770745011341,"(41.96916488935769, -87.6877074501134)",2013-06-01
43586,06/01/2013,Completed,06/03/2013,13-00676863,Sanitation Code Violation,Garbage in alley,1259 W DEVON AVE,60660.0,1166638.65697816,1942636.7890139,40.0,24.0,77.0,41.99816743839028,-87.66234573949897,"(41.99816743839028, -87.66234573949897)",2013-06-01
43587,06/01/2013,Completed,06/03/2013,13-00676974,Sanitation Code Violation,Other,4039 N KENNETH AVE,60641.0,1145828.66947352,1926483.91880746,38.0,17.0,16.0,41.9542647529064,-87.73931118629756,"(41.9542647529064, -87.73931118629754)",2013-06-01
43588,06/01/2013,Completed,06/03/2013,13-00677104,Sanitation Code Violation,Other,5515 N VIRGINIA AVE,60625.0,1155185.89698175,1936550.45053089,40.0,20.0,4.0,41.98170477206405,-87.70464100048717,"(41.98170477206405, -87.70464100048717)",2013-06-01
43589,06/01/2013,Completed,06/03/2013,13-00677365,Sanitation Code Violation,Other,10831 S AVENUE H,60617.0,1202852.39269785,1833748.30239024,10.0,4.0,52.0,41.69852017884976,-87.53286466848783,"(41.698520178849755, -87.53286466848783)",2013-06-01
43590,06/01/2013,Completed,06/03/2013,13-00677946,Sanitation Code Violation,Dumpster not being emptied,1155 W WRIGHTWOOD AVE,60614.0,1168153.88359415,1917421.18639225,32.0,19.0,7.0,41.928942242634136,-87.65750339978315,"(41.92894224263413, -87.65750339978315)",2013-06-01
43657,06/04/2013,Completed - Dup,06/04/2013,13-00688555,Sanitation Code Violation,Garbage in alley,4235 N MARMORA AVE,60634.0,1136256.06920868,1927554.46009654,38.0,16.0,15.0,41.9573791053264,-87.77447622525206,"(41.95737910532641, -87.77447622525207)",2013-06-04
43658,06/04/2013,Completed - Dup,06/04/2013,13-00689816,Sanitation Code Violation,Garbage in alley,2706 S KARLOV AVE,60623.0,1149485.56371467,1885695.50240313,22.0,10.0,30.0,41.842266800629275,-87.72692767211672,"(41.84226680062927, -87.72692767211672)",2013-06-04
43659,06/04/2013,Completed,06/04/2013,13-00688172,Sanitation Code Violation,Other,848 W ALDINE AVE,60657.0,1169830.00709534,1922112.82482699,44.0,19.0,6.0,41.941779889006646,-87.65120704548691,"(41.941779889006646, -87.6512070454869)",2013-06-04
43660,06/04/2013,Completed,06/04/2013,13-00689516,Sanitation Code Violation,Garbage in yard,3849 W MAYPOLE AVE,60624.0,1150711.29067235,1900938.98057872,28.0,11.0,26.0,41.884072860074525,-87.72203125150558,"(41.88407286007452, -87.7220312515056)",2013-06-04
43661,06/04/2013,Completed,06/04/2013,13-00691801,Sanitation Code Violation,Dumpster not being emptied,4200 W GLADYS AVE,60624.0,1148447.97142235,1898023.4503168,28.0,11.0,26.0,41.87611625471713,-87.73041768885281,"(41.876116254717125, -87.73041768885282)",2013-06-04
43662,06/03/2013,Completed,06/04/2013,13-00679967,Sanitation Code Violation,Other,813 W FULTON MARKET,60607.0,1170863.78273393,1902082.20347873,27.0,12.0,28.0,41.886792174824116,-87.64799580140931,"(41.886792174824116, -87.6479958014093)",2013-06-03
43663,06/03/2013,Completed,06/04/2013,13-00680601,Sanitation Code Violation,Other,2030 W SUMMERDALE AVE,60625.0,1161832.08187818,1935523.66828226,40.0,20.0,4.0,41.97875077827962,-87.68022701568188,"(41.97875077827962, -87.68022701568187)",2013-06-03
43664,06/03/2013,Completed,06/04/2013,13-00680868,Sanitation Code Violation,Other,2723 N FAIRFIELD AVE,60647.0,1157565.88750724,1917958.56711441,35.0,14.0,22.0,41.930639272027264,-87.69639625380256,"(41.930639272027264, -87.69639625380256)",2013-06-03
43665,06/03/2013,Completed,06/04/2013,13-00681245,Sanitation Code Violation,Garbage in alley,2706 S KARLOV AVE,60623.0,1149485.56371467,1885695.50240313,22.0,10.0,30.0,41.842266800629275,-87.72692767211672,"(41.84226680062927, -87.72692767211672)",2013-06-03
43666,06/03/2013,Completed,06/04/2013,13-00681728,Sanitation Code Violation,Other,5501 N NEENAH AVE,60656.0,1131926.31502968,1936167.12028696,41.0,16.0,10.0,41.98108948203107,-87.79019332904919,"(41.98108948203106, -87.79019332904919)",2013-06-03
43667,06/03/2013,Completed,06/04/2013,13-00682661,Sanitation Code Violation,Overflowing carts,1023 W BELMONT AVE,60657.0,1168801.33900601,1921418.60859269,44.0,19.0,6.0,41.93989732891496,-87.65500799840902,"(41.93989732891496, -87.65500799840902)",2013-06-03
43668,06/03/2013,Completed,06/04/2013,13-00682872,Sanitation Code Violation,Garbage in yard,3227 W HOLLYWOOD AVE,60659.0,1153816.18063028,1937725.13430457,40.0,17.0,13.0,41.984955644096644,-87.70964699026737,"(41.98495564409665, -87.70964699026737)",2013-06-03
43669,06/03/2013,Completed,06/04/2013,13-00682904,Sanitation Code Violation,Garbage in yard,3230 W BRYN MAWR AVE,60659.0,1153705.68873088,1937032.20809349,40.0,17.0,13.0,41.983056424762346,-87.71007191566437,"(41.98305642476234, -87.71007191566437)",2013-06-03
43670,06/03/2013,Completed,06/04/2013,13-00682905,Sanitation Code Violation,Garbage in yard,3246 W BRYN MAWR AVE,60659.0,1153628.18873088,1937030.20809349,40.0,17.0,13.0,41.98305248378904,-87.71035699943104,"(41.98305248378904, -87.71035699943103)",2013-06-03
43671,06/03/2013,Completed,06/04/2013,13-00682906,Sanitation Code Violation,Garbage in yard,5551 N SAWYER AVE,60625.0,1153713.18873088,1936711.80809349,40.0,17.0,13.0,41.98217708011309,-87.7100529068987,"(41.98217708011309, -87.71005290689868)",2013-06-03
43672,06/03/2013,Completed,06/04/2013,13-00682959,Sanitation Code Violation,Other,5440 N OCTAVIA AVE,60656.0,1126563.52257605,1935522.47000426,41.0,16.0,10.0,41.979412114480674,-87.80993086681076,"(41.97941211448067, -87.80993086681076)",2013-06-03
43673,06/03/2013,Completed,06/04/2013,13-00683015,Sanitation Code Violation,Garbage in yard,2754 W RASCHER AVE,60625.0,1157005.161299,1936084.65387637,40.0,20.0,4.0,41.980389766668175,-87.69796295429394,"(41.980389766668175, -87.69796295429393)",2013-06-03
43674,06/03/2013,Completed,06/04/2013,13-00683016,Sanitation Code Violation,Garbage in yard,5349 N CALIFORNIA AVE,60625.0,1156722.44488252,1935506.94148589,40.0,20.0,4.0,41.978810245053566,-87.69901841918647,"(41.97881024505356, -87.69901841918649)",2013-06-03
43675,06/03/2013,Completed,06/04/2013,13-00683018,Sanitation Code Violation,Other,5467 N OCTAVIA AVE,,1126565.2245264,1935778.4458797001,41.0,16.0,10.0,41.98011451018649,-87.80991885523817,"(41.98011451018649, -87.80991885523817)",2013-06-03
43676,06/03/2013,Completed,06/04/2013,13-00683175,Sanitation Code Violation,Dumpster not being emptied,2020 W ARMITAGE AVE,60647.0,1162574.57349626,1913298.25199459,32.0,14.0,22.0,41.91774748716584,-87.67812130117628,"(41.91774748716584, -87.67812130117628)",2013-06-03
43677,06/03/2013,Completed,06/04/2013,13-00683384,Sanitation Code Violation,Garbage in yard,549 E 104TH PL,60628.0,1181893.68128821,1835791.27001951,9.0,5.0,49.0,41.70463526287961,-87.6095412836505,"(41.704635262879606, -87.60954128365049)",2013-06-03
43678,06/03/2013,Completed,06/04/2013,13-00683588,Sanitation Code Violation,Other,11821 S INDIANA AVE,60628.0,1179699.67170566,1826533.45012872,9.0,5.0,53.0,41.67928081638085,-87.61785695450679,"(41.679280816380846, -87.6178569545068)",2013-06-03
43679,06/03/2013,Completed,06/04/2013,13-00683607,Sanitation Code Violation,Other,300 E 118TH ST,60628.0,1180031.73659373,1826776.29987826,9.0,5.0,53.0,41.679939658354094,-87.61663407228569,"(41.679939658354094, -87.61663407228568)",2013-06-03
43680,06/03/2013,Completed,06/04/2013,13-00683664,Sanitation Code Violation,Garbage in yard,608 N LARAMIE AVE,60644.0,1141587.28322814,1903557.52988354,28.0,15.0,25.0,41.89143194104327,-87.75547124266787,"(41.891431941043265, -87.75547124266787)",2013-06-03
43681,06/03/2013,Completed,06/04/2013,13-00683899,Sanitation Code Violation,Other,2532 S ALBANY AVE,60623.0,1156099.42437046,1887022.98939562,12.0,10.0,30.0,41.84577887215951,-87.70262077398377,"(41.84577887215951, -87.70262077398377)",2013-06-03
43682,06/03/2013,Completed,06/04/2013,13-00684153,Sanitation Code Violation,Dumpster not being emptied,3101 W WASHINGTON BLVD,60612.0,1155696.1145243999,1900518.64458981,28.0,12.0,27.0,41.88282051890713,-87.70373766988233,"(41.88282051890713, -87.70373766988233)",2013-06-03
43683,06/03/2013,Completed,06/04/2013,13-00684265,Sanitation Code Violation,Garbage in alley,3452 W BELMONT AVE,60618.0,1152595.67989922,1921059.99427694,35.0,17.0,21.0,41.93924969957077,-87.71457850062009,"(41.939249699570766, -87.71457850062009)",2013-06-03
43684,06/03/2013,Completed,06/04/2013,13-00684728,Sanitation Code Violation,Garbage in alley,2012 W RICE ST,60622.0,1162836.07562777,1905676.32991047,32.0,12.0,24.0,41.89682689382792,-87.67737467927881,"(41.89682689382792, -87.67737467927881)",2013-06-03
43685,06/03/2013,Completed,06/04/2013,13-00685165,Sanitation Code Violation,Overflowing carts,5748 W DIVERSEY AVE,60639.0,1137479.74051495,1918030.1777156997,30.0,25.0,19.0,41.931221514938024,-87.77020758514067,"(41.93122151493802, -87.77020758514067)",2013-06-03
43686,06/03/2013,Completed,06/04/2013,13-00685304,Sanitation Code Violation,Garbage in alley,2320 S KOSTNER AVE,60623.0,1147423.0405153,1888191.54160539,22.0,10.0,29.0,41.84915597388404,-87.73443274322668,"(41.84915597388404, -87.73443274322668)",2013-06-03
43687,06/03/2013,Completed,06/04/2013,13-00686231,Sanitation Code Violation,Garbage in yard,4111 W ADDISON ST,60641.0,1148475.22991355,1923616.31288645,30.0,17.0,16.0,41.94634506351501,-87.72965623343231,"(41.94634506351501, -87.72965623343232)",2013-06-03
43688,06/03/2013,Completed,06/04/2013,13-00686324,Sanitation Code Violation,Dumpster not being emptied,5044 N WOLCOTT AVE,60640.0,1162905.52119402,1933656.68630624,47.0,20.0,4.0,41.97360518066889,-87.67633205994117,"(41.97360518066889, -87.67633205994117)",2013-06-03
43689,06/03/2013,Completed,06/04/2013,13-00686342,Sanitation Code Violation,Dumpster not being emptied,1622 W SHERWIN AVE,60626.0,1164304.95073213,1948723.48017796,49.0,24.0,1.0,42.01491930915185,-87.67075733902965,"(42.014919309151864, -87.67075733902966)",2013-06-03
43690,06/03/2013,Completed,06/04/2013,13-00686345,Sanitation Code Violation,Garbage in alley,2045 N WINCHESTER AVE,60614.0,1163032.09790302,1913614.72687017,32.0,14.0,22.0,41.91860631117178,-87.67643143469202,"(41.918606311171786, -87.67643143469202)",2013-06-03
43691,06/03/2013,Completed,06/04/2013,13-00686769,Sanitation Code Violation,Garbage in alley,4235 N MARMORA AVE,60634.0,1136256.06920868,1927554.46009654,38.0,16.0,15.0,41.9573791053264,-87.77447622525206,"(41.95737910532641, -87.77447622525207)",2013-06-03
43692,06/03/2013,Completed,06/04/2013,13-00686924,Sanitation Code Violation,Other,4038 W 31ST ST,60623.0,1149840.29709554,1883729.51677262,22.0,10.0,30.0,41.83686499896618,-87.7256769318482,"(41.83686499896618, -87.7256769318482)",2013-06-03
43693,06/03/2013,Completed,06/04/2013,13-00687016,Sanitation Code Violation,Other,5928 N NEWARK AVE,60631.0,1130124.88962775,1938957.75301326,41.0,16.0,10.0,41.98877839717851,-87.7967542273782,"(41.988778397178514, -87.7967542273782)",2013-06-03
43694,06/03/2013,Completed,06/04/2013,13-00687166,Sanitation Code Violation,,2140 N TRIPP AVE,60639.0,1147701.21152636,1913884.91229495,30.0,25.0,20.0,41.919656154847075,-87.7327518734346,"(41.919656154847075, -87.7327518734346)",2013-06-03
43695,06/03/2013,Completed,06/04/2013,13-00687185,Sanitation Code Violation,,3228 N KEATING AVE,60641.0,1144259.4800158,1921043.65907026,30.0,17.0,15.0,41.93936589797728,-87.74521702977808,"(41.939365897977275, -87.74521702977808)",2013-06-03
43696,06/03/2013,Completed,06/04/2013,13-00687370,Sanitation Code Violation,Dumpster not being emptied,731 W BELMONT AVE,60657.0,1170817.35997768,1921473.70121776,44.0,19.0,6.0,41.94000449121627,-87.64759692814768,"(41.94000449121627, -87.64759692814768)",2013-06-03
43697,06/03/2013,Completed,06/04/2013,13-00687395,Sanitation Code Violation,Overflowing carts,600 N LA SALLE DR,60654.0,1175037.39122442,1904162.64397626,42.0,18.0,8.0,41.89240852962642,-87.6326069643812,"(41.89240852962642, -87.63260696438121)",2013-06-03
43698,06/03/2013,Completed,06/04/2013,13-00687458,Sanitation Code Violation,Other,710 N LEAMINGTON AVE,60644.0,1141897.54768267,1904205.76162274,28.0,15.0,25.0,41.893205026931525,-87.75431570660645,"(41.89320502693152, -87.75431570660645)",2013-06-03
43699,06/03/2013,Completed,06/04/2013,13-00687479,Sanitation Code Violation,Dumpster not being emptied,732 W BRIAR PL,60657.0,1170821.75207806,1921146.74818158,44.0,19.0,6.0,41.93910722247497,-87.64759039844508,"(41.93910722247498, -87.64759039844508)",2013-06-03
43700,06/03/2013,Completed,06/04/2013,13-00687530,Sanitation Code Violation,Other,5926 S CAMPBELL AVE,60629.0,1160719.06481979,1865289.6547333,16.0,8.0,66.0,41.786045619442405,-87.6862676442218,"(41.78604561944241, -87.68626764422179)",2013-06-03
43701,06/03/2013,Completed,06/04/2013,13-00687532,Sanitation Code Violation,Other,5928 S CAMPBELL AVE,60629.0,1160719.46481979,1865276.2547333,16.0,8.0,66.0,41.78600883976514,-87.68626654736502,"(41.78600883976514, -87.68626654736501)",2013-06-03
43702,06/03/2013,Completed,06/04/2013,13-00687535,Sanitation Code Violation,Other,5930 S CAMPBELL AVE,60629.0,1160719.86481979,1865262.8547333,16.0,8.0,66.0,41.78597206008763,-87.68626545050924,"(41.78597206008763, -87.68626545050923)",2013-06-03
43703,06/03/2013,Completed,06/04/2013,13-00687581,Sanitation Code Violation,Dumpster not being emptied,4606 N PAULINA ST,60640.0,1164398.03791451,1930649.93138651,47.0,19.0,3.0,41.96532298666431,-87.67092920514813,"(41.96532298666431, -87.67092920514813)",2013-06-03
43704,06/03/2013,Completed,06/04/2013,13-00687616,Sanitation Code Violation,Construction Site Cleanliness/Fence,1709 W DIVISION ST,60622.0,1164654.7999759,1908047.32021125,1.0,12.0,24.0,41.90329471124928,-87.67062754251741,"(41.90329471124928, -87.67062754251742)",2013-06-03
43705,06/01/2013,Completed,06/04/2013,13-00675944,Sanitation Code Violation,Other,402 N LOCKWOOD AVE,,1140966.35932689,1902229.45658677,28.0,15.0,25.0,41.887798997572496,-87.75778435094419,"(41.88779899757249, -87.75778435094419)",2013-06-01
43706,06/01/2013,Completed,06/04/2013,13-00676676,Sanitation Code Violation,Garbage in alley,5628 S WABASH AVE,60637.0,1177674.47716734,1867723.27251772,20.0,2.0,40.0,41.792356732846315,-87.62402737955404,"(41.79235673284631, -87.62402737955405)",2013-06-01
43707,06/01/2013,Completed,06/04/2013,13-00676772,Sanitation Code Violation,Other,5012 W WEST END AVE,60644.0,1142943.61498607,1900517.12558002,28.0,15.0,25.0,41.883063532547936,-87.75056584075813,"(41.883063532547936, -87.75056584075814)",2013-06-01
43708,06/01/2013,Completed,06/04/2013,13-00676849,Sanitation Code Violation,Other,2216 S ST LOUIS AVE,60623.0,1153382.60011318,1888934.06549164,22.0,10.0,30.0,41.851077412770145,-87.71254064762967,"(41.851077412770145, -87.71254064762965)",2013-06-01
43709,06/02/2013,Completed,06/04/2013,13-00678632,Sanitation Code Violation,Garbage in yard,3323 N KENMORE AVE,60657.0,1168690.59422683,1922238.27639868,44.0,19.0,6.0,41.94214893748961,-87.65539119241001,"(41.942148937489605, -87.65539119241002)",2013-06-02
43710,06/02/2013,Completed,06/04/2013,13-00678763,Sanitation Code Violation,Other,3842 N BERNARD ST,60618.0,1152710.85487875,1925332.41422577,35.0,17.0,16.0,41.95097125432174,-87.71404174879173,"(41.95097125432174, -87.71404174879173)",2013-06-02
43711,06/02/2013,Completed,06/04/2013,13-00678865,Sanitation Code Violation,Other,6051 S MASON AVE,60638.0,1137769.72436859,1863816.44040219,13.0,8.0,64.0,41.78244598272229,-87.77044799851616,"(41.782445982722294, -87.77044799851616)",2013-06-02
43712,06/02/2013,Completed,06/04/2013,13-00679017,Sanitation Code Violation,Other,2245 S DRAKE AVE,60623.0,1153053.96138095,1888808.01790888,22.0,10.0,30.0,41.85073803639893,-87.7137501693415,"(41.85073803639893, -87.71375016934148)",2013-06-02
43713,06/03/2013,Completed - Dup,06/04/2013,13-00685565,Sanitation Code Violation,Overflowing carts,3452 W BELMONT AVE,60618.0,1152595.67989922,1921059.99427694,35.0,17.0,21.0,41.93924969957077,-87.71457850062009,"(41.939249699570766, -87.71457850062009)",2013-06-03
43714,06/03/2013,Completed,06/04/2013,13-00679919,Sanitation Code Violation,Garbage in alley,2608 W LUTHER ST,60608.0,1159369.4642828999,1887541.82978706,12.0,10.0,30.0,41.847136098980336,-87.69060571977526,"(41.847136098980336, -87.69060571977525)",2013-06-03
43715,06/03/2013,Completed,06/04/2013,13-00679920,Sanitation Code Violation,Garbage in alley,2601 W 24TH PL,60608.0,1159410.73000936,1887751.93998168,12.0,10.0,30.0,41.84771181654149,-87.69044850200706,"(41.84771181654149, -87.69044850200706)",2013-06-03
43757,06/05/2013,Completed,06/05/2013,13-00697069,Sanitation Code Violation,Other,1826 W 17TH ST,60608.0,1164470.38779877,1891769.21799478,25.0,12.0,31.0,41.858630171551866,-87.67176584614586,"(41.858630171551866, -87.67176584614586)",2013-06-05
43758,06/05/2013,Completed,06/05/2013,13-00701062,Sanitation Code Violation,Other,2623 N PULASKI RD,60639.0,1149274.45123219,1917140.97846737,30.0,25.0,22.0,41.92856071652438,-87.72688690008327,"(41.92856071652438, -87.72688690008326)",2013-06-05
43759,06/05/2013,Completed,06/05/2013,13-00701159,Sanitation Code Violation,Garbage in alley,4605 N RACINE AVE,60640.0,1167470.97003123,1930723.74746826,46.0,19.0,3.0,41.965459794475706,-87.65962865157152,"(41.9654597944757, -87.65962865157151)",2013-06-05
43760,06/05/2013,Completed,06/05/2013,13-00702770,Sanitation Code Violation,Overflowing carts,1344 W HOOD AVE,60660.0,1166219.61002889,1940963.44967587,48.0,24.0,77.0,41.99358475772368,-87.66393538530018,"(41.99358475772368, -87.66393538530019)",2013-06-05
43761,06/04/2013,Completed - Dup,06/05/2013,13-00693923,Sanitation Code Violation,Garbage in alley,6738 N WESTERN AVE,60645.0,1159094.4206129,1944666.83008352,50.0,24.0,2.0,42.003896808747704,-87.69004231218695,"(42.0038968087477, -87.69004231218695)",2013-06-04
43762,06/04/2013,Completed,06/05/2013,13-00689548,Sanitation Code Violation,Garbage in yard,3302 W LE MOYNE ST,60651.0,1154071.18856593,1909775.43709328,26.0,14.0,23.0,41.90825459869483,-87.70945731834587,"(41.90825459869483, -87.70945731834588)",2013-06-04
43763,06/04/2013,Completed,06/05/2013,13-00689996,Sanitation Code Violation,Garbage in yard,2959 N HAMLIN AVE,60618.0,1150542.8763801001,1919447.17750146,30.0,25.0,21.0,41.93486440903565,-87.72216542466057,"(41.93486440903565, -87.72216542466057)",2013-06-04
43764,06/04/2013,Completed,06/05/2013,13-00690110,Sanitation Code Violation,Other,918 W 64TH ST,60621.0,1171214.19486789,1862396.9846061,16.0,7.0,68.0,41.77788461200269,-87.64787188784607,"(41.77788461200269, -87.64787188784607)",2013-06-04
43765,06/04/2013,Completed,06/05/2013,13-00691980,Sanitation Code Violation,Garbage in alley,1451 W CARMEN AVE,60640.0,1165574.81412747,1933963.80318903,46.0,20.0,3.0,41.974391326095635,-87.66650764786581,"(41.97439132609563, -87.66650764786581)",2013-06-04
43766,06/04/2013,Completed,06/05/2013,13-00692484,Sanitation Code Violation,Other,2229 S KILDARE AVE,60623.0,1148291.8145193001,1888830.48169396,22.0,10.0,29.0,41.85089263692383,-87.73122777439467,"(41.85089263692383, -87.73122777439465)",2013-06-04
43767,06/04/2013,Completed,06/05/2013,13-00692489,Sanitation Code Violation,Other,2233 S KILDARE AVE,60623.0,1148292.6145193002,1888802.38169396,22.0,10.0,29.0,41.8508155115339,-87.73122556133714,"(41.85081551153391, -87.73122556133714)",2013-06-04
43768,06/04/2013,Completed,06/05/2013,13-00692588,Sanitation Code Violation,Other,2260 S KILDARE AVE,60623.0,1148297.71553398,1888612.51757133,22.0,10.0,29.0,41.850294401900676,-87.73121172551546,"(41.85029440190068, -87.73121172551545)",2013-06-04
43769,06/04/2013,Completed,06/05/2013,13-00693384,Sanitation Code Violation,Other,3103 S RACINE AVE,60608.0,1168820.35010985,1884221.72766877,11.0,9.0,60.0,41.83782610137596,-87.65601722439492,"(41.83782610137596, -87.6560172243949)",2013-06-04
43770,06/04/2013,Completed,06/05/2013,13-00693882,Sanitation Code Violation,Garbage in alley,6738 N WESTERN AVE,60645.0,1159094.4206129,1944666.83008352,50.0,24.0,2.0,42.003896808747704,-87.69004231218695,"(42.0038968087477, -87.69004231218695)",2013-06-04
43771,06/04/2013,Completed,06/05/2013,13-00693921,Sanitation Code Violation,Garbage in alley,6736 N WESTERN AVE,60645.0,1159094.8206129,1944653.23008352,50.0,24.0,2.0,42.003859481649855,-87.69004121652625,"(42.003859481649855, -87.69004121652627)",2013-06-04
43772,06/04/2013,Completed,06/05/2013,13-00693922,Sanitation Code Violation,Garbage in alley,6740 N WESTERN AVE,60645.0,1159094.1206129,1944680.43008352,50.0,24.0,2.0,42.00393413378354,-87.69004303994886,"(42.00393413378354, -87.69004303994886)",2013-06-04
43773,06/04/2013,Completed,06/05/2013,13-00694383,Sanitation Code Violation,,4500 S NORMAL AVE,60609.0,1173710.11112443,1875087.51732301,11.0,9.0,61.0,41.81265379903297,-87.6383457027241,"(41.81265379903298, -87.6383457027241)",2013-06-04
43774,06/04/2013,Completed,06/05/2013,13-00694681,Sanitation Code Violation,Overflowing carts,2412 W CERMAK RD,60608.0,1160635.11778424,1889334.41098793,25.0,10.0,31.0,41.85202904280051,-87.68591117472981,"(41.85202904280051, -87.68591117472982)",2013-06-04
43775,06/04/2013,Completed,06/05/2013,13-00694715,Sanitation Code Violation,Other,1720 N ST LOUIS AVE,60647.0,1152991.6723695,1911294.01810684,26.0,14.0,23.0,41.912443199301904,-87.7133826164853,"(41.91244319930191, -87.71338261648532)",2013-06-04
43776,06/04/2013,Completed,06/05/2013,13-00695212,Sanitation Code Violation,Other,5158 W GRAND AVE,60639.0,1141620.74006678,1912836.02661123,37.0,25.0,19.0,41.9168925784483,-87.75511868464363,"(41.9168925784483, -87.75511868464362)",2013-06-04
43777,06/04/2013,Completed,06/05/2013,13-00695505,Sanitation Code Violation,Garbage in yard,1650 N ALBANY AVE,60647.0,1155411.54916785,1910475.65312424,26.0,14.0,23.0,41.91014919472042,-87.70451463262293,"(41.910149194720425, -87.70451463262292)",2013-06-04
43778,06/04/2013,Completed,06/05/2013,13-00695854,Sanitation Code Violation,Garbage in alley,1329 W TOUHY AVE,60626.0,1166099.16728349,1947971.44499004,49.0,24.0,1.0,42.0128174148427,-87.66417694838646,"(42.0128174148427, -87.66417694838646)",2013-06-04
43779,06/04/2013,Completed,06/05/2013,13-00696034,Sanitation Code Violation,Construction Site Cleanliness/Fence,4336 N MONTICELLO AVE,60618.0,1151278.42699698,1928574.63437065,33.0,17.0,16.0,41.95989642078357,-87.71922190438542,"(41.959896420783565, -87.7192219043854)",2013-06-04
43780,06/04/2013,Completed,06/05/2013,13-00696223,Sanitation Code Violation,Garbage in alley,5054 N WINTHROP AVE,60640.0,1167952.81138092,1933965.6297983,48.0,20.0,3.0,41.97434521216717,-87.65776304528431,"(41.974345212167165, -87.65776304528431)",2013-06-04
43781,06/04/2013,Completed,06/05/2013,13-00696378,Sanitation Code Violation,Standing water,4933 W NEWPORT AVE,60641.0,1142849.84976681,1922484.48681576,38.0,16.0,15.0,41.94334608553309,-87.75036186503344,"(41.943346085533086, -87.75036186503344)",2013-06-04
43782,06/04/2013,Completed,06/05/2013,13-00696573,Sanitation Code Violation,Dumpster not being emptied,6217 N RAVENSWOOD AVE,60660.0,1163097.57722267,1941424.81659067,40.0,24.0,77.0,41.99491715536673,-87.6754063960165,"(41.99491715536673, -87.6754063960165)",2013-06-04
43783,06/02/2013,Completed - Dup,06/05/2013,13-00678356,Sanitation Code Violation,Garbage in alley,3133 W AUGUSTA BLVD,60622.0,1155264.33391524,1906487.88428685,26.0,12.0,23.0,41.89920936342888,-87.70516272152302,"(41.899209363428874, -87.70516272152301)",2013-06-02
43784,06/02/2013,Completed - Dup,06/05/2013,13-00678357,Sanitation Code Violation,Garbage in alley,3133 W AUGUSTA BLVD,60622.0,1155264.33391524,1906487.88428685,26.0,12.0,23.0,41.89920936342888,-87.70516272152302,"(41.899209363428874, -87.70516272152301)",2013-06-02
43785,06/02/2013,Completed,06/05/2013,13-00678338,Sanitation Code Violation,Garbage in alley,3130 W WALTON ST,60622.0,1155293.92796843,1906164.39540269,26.0,12.0,23.0,41.89832108564496,-87.70506272400145,"(41.89832108564496, -87.70506272400144)",2013-06-02
43786,06/02/2013,Completed,06/05/2013,13-00678341,Sanitation Code Violation,Standing water,3128 W WALTON ST,60622.0,1155306.42796843,1906164.59540269,26.0,12.0,23.0,41.898321383263365,-87.70501680686738,"(41.89832138326337, -87.70501680686738)",2013-06-02
43787,06/02/2013,Completed,06/05/2013,13-00678352,Sanitation Code Violation,Garbage in alley,3133 W AUGUSTA BLVD,60622.0,1155264.33391524,1906487.88428685,26.0,12.0,23.0,41.89920936342888,-87.70516272152302,"(41.899209363428874, -87.70516272152301)",2013-06-02
43788,06/02/2013,Completed,06/05/2013,13-00678596,Sanitation Code Violation,Garbage in yard,2620 W RICE ST,60622.0,1158786.95000363,1905563.11999749,26.0,12.0,24.0,41.89660022478528,-87.6922495875603,"(41.896600224785274, -87.6922495875603)",2013-06-02
43789,06/02/2013,Completed,06/05/2013,13-00679462,Sanitation Code Violation,Garbage in alley,1921 N SAWYER AVE,60647.0,1154274.7831008001,1912669.85709442,35.0,14.0,22.0,41.91619307311702,-87.70863196851104,"(41.91619307311702, -87.70863196851104)",2013-06-02
43790,06/03/2013,Completed - Dup,06/05/2013,13-00679964,Sanitation Code Violation,Other,4810 W CONCORD PL,60639.0,1143974.5388132,1910534.00652225,37.0,25.0,25.0,41.91053171946671,-87.74652861182281,"(41.91053171946671, -87.74652861182282)",2013-06-03
43791,06/03/2013,Completed - Dup,06/05/2013,13-00679965,Sanitation Code Violation,Other,4810 W CONCORD PL,60639.0,1143974.5388132,1910534.00652225,37.0,25.0,25.0,41.91053171946671,-87.74652861182281,"(41.91053171946671, -87.74652861182282)",2013-06-03
43792,06/03/2013,Completed - Dup,06/05/2013,13-00685285,Sanitation Code Violation,Dog feces in yard,647 W 48TH ST,60609.0,1172788.0460156,1873059.95989589,11.0,9.0,61.0,41.80711039339565,-87.6417876774963,"(41.80711039339565, -87.6417876774963)",2013-06-03
43793,06/03/2013,Completed,06/05/2013,13-00679963,Sanitation Code Violation,Other,4810 W CONCORD PL,60639.0,1143974.5388132,1910534.00652225,37.0,25.0,25.0,41.91053171946671,-87.74652861182281,"(41.91053171946671, -87.74652861182282)",2013-06-03
43794,06/03/2013,Completed,06/05/2013,13-00680242,Sanitation Code Violation,Other,2853 W LOGAN BLVD,60647.0,1156821.35720657,1917155.99291955,35.0,14.0,22.0,41.928452094071204,-87.69915405990339,"(41.9284520940712, -87.69915405990339)",2013-06-03
43795,06/03/2013,Completed,06/05/2013,13-00681660,Sanitation Code Violation,Dog feces in yard,647 W 48TH ST,60609.0,1172788.0460156,1873059.95989589,11.0,9.0,61.0,41.80711039339565,-87.6417876774963,"(41.80711039339565, -87.6417876774963)",2013-06-03
43796,06/03/2013,Completed,06/05/2013,13-00683614,Sanitation Code Violation,Dumpster not being emptied,1448 W ELMDALE AVE,60660.0,1165572.3041323,1939959.09139685,48.0,24.0,77.0,41.99084263275609,-87.66634519911068,"(41.99084263275609, -87.66634519911068)",2013-06-03
43797,06/03/2013,Completed,06/05/2013,13-00685914,Sanitation Code Violation,Other,4651 N BEACON ST,60640.0,1166284.02512129,1931001.10890226,46.0,19.0,3.0,41.9662464114516,-87.6639848001342,"(41.9662464114516, -87.6639848001342)",2013-06-03
43798,06/03/2013,Completed,06/05/2013,13-00686258,Sanitation Code Violation,,2929 E 78TH ST,60649.0,1197068.4610165001,1853987.22746868,7.0,4.0,43.0,41.754203069867394,-87.55337065305315,"(41.75420306986739, -87.55337065305316)",2013-06-03
43799,06/03/2013,Completed,06/05/2013,13-00687344,Sanitation Code Violation,Garbage in alley,4330 W POTOMAC AVE,60651.0,1147270.30262225,1908304.45311218,37.0,25.0,23.0,41.904351085264324,-87.73447826952697,"(41.904351085264324, -87.73447826952699)",2013-06-03
43805,06/01/2013,Completed,06/05/2013,13-00676124,Sanitation Code Violation,Other,3105 W 53RD PL,60632.0,1156586.82678498,1868993.77228568,14.0,9.0,63.0,41.79629457913128,-87.70131873523675,"(41.79629457913128, -87.70131873523677)",2013-06-01
43806,06/01/2013,Completed,06/05/2013,13-00676859,Sanitation Code Violation,Garbage in alley,1942 N MONTICELLO AVE,60647.0,1151730.65536846,1912818.73607259,26.0,25.0,22.0,41.91665208200021,-87.71797509823982,"(41.916652082000205, -87.71797509823983)",2013-06-01
43875,06/05/2013,Completed,06/06/2013,13-00697233,Sanitation Code Violation,Garbage in yard,2818 E 97TH ST,60617.0,1196317.03613083,1841169.46988522,10.0,4.0,51.0,41.719048755859546,-87.55654828255443,"(41.719048755859546, -87.55654828255444)",2013-06-05
43876,06/05/2013,Completed,06/06/2013,13-00697261,Sanitation Code Violation,Other,1346 W HOWARD ST,60626.0,1165870.34157235,1950319.99462637,49.0,24.0,1.0,42.01926677211827,-87.66495143357406,"(42.01926677211827, -87.66495143357406)",2013-06-05
43877,06/05/2013,Completed,06/06/2013,13-00697869,Sanitation Code Violation,Other,6458 S WOOD ST,60636.0,1165450.09612553,1861855.56142371,15.0,7.0,67.0,41.77652301395371,-87.66901857923122,"(41.776523013953714, -87.66901857923122)",2013-06-05
43878,06/05/2013,Completed,06/06/2013,13-00698000,Sanitation Code Violation,Garbage in yard,4538 S LAMON AVE,60638.0,1144454.28987464,1874099.18452144,23.0,8.0,56.0,41.81054079835236,-87.74568230736269,"(41.810540798352356, -87.74568230736269)",2013-06-05
43879,06/05/2013,Completed,06/06/2013,13-00699183,Sanitation Code Violation,Dumpster not being emptied,3221 W ARMITAGE AVE,60647.0,1154474.95000542,1913107.53997699,35.0,14.0,22.0,41.91739010860058,-87.70788483480665,"(41.91739010860058, -87.70788483480665)",2013-06-05
43880,06/05/2013,Completed,06/06/2013,13-00699283,Sanitation Code Violation,Overflowing carts,1133 S CENTRAL PARK AVE,60624.0,1152548.82399319,1894808.44160372,24.0,11.0,29.0,41.86721388201864,-87.71544564771355,"(41.86721388201864, -87.71544564771355)",2013-06-05
43881,06/05/2013,Completed,06/06/2013,13-00701093,Sanitation Code Violation,Overflowing carts,3644 W DIVERSEY AVE,60647.0,1151503.25991293,1918370.68147239,35.0,25.0,21.0,41.93189157433206,-87.7186643341131,"(41.93189157433206, -87.71866433411309)",2013-06-05
43882,06/05/2013,Completed,06/06/2013,13-00701694,Sanitation Code Violation,Other,10229 S EWING AVE,60617.0,1202154.16536668,1837746.71032297,10.0,4.0,52.0,41.7095099233013,-87.53528549974608,"(41.7095099233013, -87.53528549974608)",2013-06-05
43883,06/05/2013,Completed,06/06/2013,13-00701720,Sanitation Code Violation,Other,5206 S NEWLAND AVE,60638.0,1130934.36972078,1869277.50960016,23.0,8.0,56.0,41.79755223756885,-87.79538369069809,"(41.797552237568844, -87.7953836906981)",2013-06-05
43884,06/05/2013,Completed,06/06/2013,13-00701788,Sanitation Code Violation,Other,5426 S RUTHERFORD AVE,60638.0,1132304.06561569,1867846.9443160999,23.0,8.0,56.0,41.793602873226575,-87.79039382405949,"(41.79360287322658, -87.79039382405949)",2013-06-05
43885,06/05/2013,Completed,06/06/2013,13-00701915,Sanitation Code Violation,Other,5201 S SAYRE AVE,60638.0,1130601.5358943997,1869302.3364261002,23.0,8.0,56.0,41.79762607623022,-87.79660370390923,"(41.797626076230216, -87.79660370390923)",2013-06-05
43886,06/05/2013,Completed,06/06/2013,13-00701925,Sanitation Code Violation,Other,5213 S SAYRE AVE,60638.0,1130603.5358943997,1869222.4364261,23.0,8.0,56.0,41.797406781598866,-87.79659819893928,"(41.79740678159887, -87.79659819893928)",2013-06-05
43887,06/05/2013,Completed,06/06/2013,13-00702039,Sanitation Code Violation,Other,5339 S SAYRE AVE,60638.0,1130624.97971768,1868389.49926691,23.0,8.0,56.0,41.79512068021005,-87.79653863332018,"(41.79512068021005, -87.79653863332018)",2013-06-05
43888,06/05/2013,Completed,06/06/2013,13-00702217,Sanitation Code Violation,Other,5352 S NEWLAND AVE,60638.0,1130959.62230687,1868311.38757888,23.0,8.0,56.0,41.79490058649992,-87.79531325767553,"(41.794900586499914, -87.79531325767553)",2013-06-05
43889,06/05/2013,Completed,06/06/2013,13-00702350,Sanitation Code Violation,Overflowing carts,5421 S OAK PARK AVE,60638.0,1131970.29616866,1867873.85752941,23.0,8.0,56.0,41.793682506065494,-87.79161713885878,"(41.79368250606549, -87.79161713885878)",2013-06-05
43890,06/05/2013,Completed,06/06/2013,13-00702378,Sanitation Code Violation,Other,5418 S OAK PARK AVE,60638.0,1131969.69616866,1867895.25752941,23.0,8.0,56.0,41.79374124198557,-87.79161884458128,"(41.793741241985565, -87.79161884458128)",2013-06-05
43891,06/05/2013,Completed,06/06/2013,13-00702803,Sanitation Code Violation,Other,1705 N KEELER AVE,60639.0,1148124.22556587,1911002.48110639,30.0,25.0,23.0,41.91173834445458,-87.73127198827747,"(41.91173834445458, -87.73127198827747)",2013-06-05
43892,06/05/2013,Completed,06/06/2013,13-00703097,Sanitation Code Violation,Other,7134 W 63RD PL,60638.0,1129997.42980376,1861593.77900522,23.0,8.0,64.0,41.77648265317234,-87.79899479312763,"(41.776482653172344, -87.79899479312763)",2013-06-05
43893,06/05/2013,Completed,06/06/2013,13-00704228,Sanitation Code Violation,Garbage in alley,2312 N JANSSEN AVE,60614.0,1166260.2915216002,1915467.01421638,32.0,18.0,7.0,41.92362063008038,-87.66451772810038,"(41.92362063008038, -87.66451772810038)",2013-06-05
43894,06/05/2013,Completed,06/06/2013,13-00704322,Sanitation Code Violation,Other,3350 W DIVERSEY AVE,60647.0,1153476.30000824,1918418.6904696,35.0,14.0,21.0,41.93198427038082,-87.71141238559099,"(41.93198427038083, -87.71141238559098)",2013-06-05
43895,06/05/2013,Completed,06/06/2013,13-00704352,Sanitation Code Violation,Garbage in alley,1848 N HOYNE AVE,60647.0,1162063.78121372,1912344.06856968,32.0,14.0,22.0,41.91513983472437,-87.68002467548362,"(41.91513983472437, -87.68002467548362)",2013-06-05
43896,06/05/2013,Completed,06/06/2013,13-00704521,Sanitation Code Violation,Other,2645 N MARSHFIELD AVE,60614.0,1164882.66458203,1917639.51912411,32.0,19.0,7.0,41.92961148473884,-87.66951783243162,"(41.929611484738835, -87.66951783243162)",2013-06-05
43897,06/05/2013,Completed,06/06/2013,13-00704612,Sanitation Code Violation,Garbage in yard,3636 W 61ST PL,60629.0,1153153.06258404,1863587.07012618,13.0,8.0,65.0,41.78152637037292,-87.71405354926368,"(41.781526370372916, -87.71405354926368)",2013-06-05
43898,06/04/2013,Completed - Dup,06/06/2013,13-00696111,Sanitation Code Violation,Other,6828 W HIGHLAND AVE,60631.0,1129931.89001562,1941583.73002246,41.0,16.0,10.0,41.995987634845314,-87.79740367134167,"(41.99598763484531, -87.79740367134167)",2013-06-04
43899,06/04/2013,Completed,06/06/2013,13-00688413,Sanitation Code Violation,Dumpster not being emptied,3441 W BELLE PLAINE AVE,60618.0,1152604.06421588,1927038.77761861,35.0,17.0,16.0,41.955655752196705,-87.71438900693508,"(41.9556557521967, -87.71438900693508)",2013-06-04
43900,06/04/2013,Completed,06/06/2013,13-00688606,Sanitation Code Violation,Other,5300 S MONITOR AVE,60638.0,1138263.63930292,1868872.71697498,23.0,8.0,56.0,41.79631240742207,-87.76851534110756,"(41.79631240742207, -87.76851534110756)",2013-06-04
43901,06/04/2013,Completed,06/06/2013,13-00689757,Sanitation Code Violation,Other,5934 S MENARD AVE,60638.0,1138739.99262192,1864622.82509803,13.0,8.0,64.0,41.78464136095021,-87.76687116677975,"(41.784641360950204, -87.76687116677975)",2013-06-04
43902,06/04/2013,Completed,06/06/2013,13-00690379,Sanitation Code Violation,Other,6056 S RUTHERFORD AVE,60638.0,1132444.88489675,1863622.2113656001,23.0,8.0,64.0,41.78200697680325,-87.78997534336699,"(41.782006976803245, -87.78997534336698)",2013-06-04
43903,06/04/2013,Completed,06/06/2013,13-00690530,Sanitation Code Violation,Other,5337 S NEENAH AVE,60638.0,1133618.26058445,1868478.76889728,23.0,8.0,56.0,41.795313837072186,-87.78555989539753,"(41.795313837072186, -87.78555989539753)",2013-06-04
43904,06/04/2013,Completed,06/06/2013,13-00690942,Sanitation Code Violation,Garbage in yard,2306 N LAWNDALE AVE,60647.0,1151329.82867397,1915076.09502148,35.0,25.0,22.0,41.922854358305905,-87.71938836167914,"(41.92285435830591, -87.71938836167912)",2013-06-04
43905,06/04/2013,Completed,06/06/2013,13-00691035,Sanitation Code Violation,Other,7016 N OLEANDER AVE,60631.0,1125109.7789733,1945986.47987629,41.0,16.0,9.0,42.00815064281416,-87.81504433972488,"(42.00815064281416, -87.81504433972488)",2013-06-04
43906,06/04/2013,Completed,06/06/2013,13-00691131,Sanitation Code Violation,Overflowing carts,2004 N HALSTED ST,60614.0,1170631.86502003,1913545.42042056,43.0,18.0,7.0,41.91825299508182,-87.64851140989725,"(41.91825299508182, -87.64851140989725)",2013-06-04
43907,06/04/2013,Completed,06/06/2013,13-00691717,Sanitation Code Violation,Other,5701 N OSCEOLA AVE,60631.0,1125666.4421020001,1937222.71003091,41.0,16.0,10.0,41.984092743775456,-87.8131920580368,"(41.98409274377545, -87.81319205803682)",2013-06-04
43908,06/04/2013,Completed,06/06/2013,13-00693228,Sanitation Code Violation,Overflowing carts,555 W SURF ST,60657.0,1171955.15998668,1919391.7801998002,44.0,19.0,6.0,41.93426656662278,-87.64347676036587,"(41.93426656662278, -87.64347676036587)",2013-06-04
43909,06/04/2013,Completed,06/06/2013,13-00693791,Sanitation Code Violation,Other,7337 W TOUHY AVE,60631.0,1126335.11998789,1947256.11767719,41.0,16.0,9.0,42.01161419736757,-87.81050738871258,"(42.011614197367564, -87.81050738871258)",2013-06-04
43910,06/04/2013,Completed,06/06/2013,13-00693804,Sanitation Code Violation,Other,7333 W TOUHY AVE,60631.0,1126373.81998789,1947257.81767719,41.0,16.0,9.0,42.01161821364806,-87.8103649531151,"(42.01161821364806, -87.8103649531151)",2013-06-04
43911,06/04/2013,Completed,06/06/2013,13-00694350,Sanitation Code Violation,Other,7045 W HIGGINS AVE,60656.0,1128251.28359907,1935895.65292561,41.0,16.0,10.0,41.98040769892746,-87.80371536709734,"(41.98040769892746, -87.80371536709734)",2013-06-04
43912,06/04/2013,Completed,06/06/2013,13-00694482,Sanitation Code Violation,Other,2828 N MILWAUKEE AVE,60618.0,1152983.56812923,1918644.88752776,35.0,14.0,21.0,41.93261476673783,-87.713217102037,"(41.93261476673783, -87.71321710203702)",2013-06-04
43913,06/04/2013,Completed,06/06/2013,13-00694899,Sanitation Code Violation,Other,6540 S FAIRFIELD AVE,60629.0,1159170.4426855,1861149.23849627,15.0,8.0,66.0,41.77471557313981,-87.6920589021115,"(41.77471557313981, -87.6920589021115)",2013-06-04
43914,06/04/2013,Completed,06/06/2013,13-00695353,Sanitation Code Violation,Other,6140 S KEDVALE AVE,60629.0,1149757.15989636,1863560.01419546,13.0,8.0,65.0,41.781518563454156,-87.72650458013578,"(41.781518563454156, -87.72650458013578)",2013-06-04
43915,06/04/2013,Completed,06/06/2013,13-00695746,Sanitation Code Violation,Other,4623 S WHIPPLE ST,60632.0,1156813.40356679,1873835.67990792,14.0,9.0,58.0,41.80957685333452,-87.70035709599108,"(41.80957685333452, -87.70035709599108)",2013-06-04
43916,06/04/2013,Completed,06/06/2013,13-00696009,Sanitation Code Violation,Garbage in yard,3611 W WOLFRAM ST,60618.0,1151821.6891919,1918713.20486823,35.0,25.0,21.0,41.932825216187,-87.71748510495348,"(41.932825216187, -87.71748510495348)",2013-06-04
43917,06/04/2013,Completed,06/06/2013,13-00696098,Sanitation Code Violation,Garbage in yard,6828 W HIGHLAND AVE,60631.0,1129931.89001562,1941583.73002246,41.0,16.0,10.0,41.995987634845314,-87.79740367134167,"(41.99598763484531, -87.79740367134167)",2013-06-04
43918,06/04/2013,Completed,06/06/2013,13-00696158,Sanitation Code Violation,Garbage in yard,3309 W WELLINGTON AVE,60618.0,1153729.12210845,1919765.72271332,35.0,14.0,21.0,41.93567559515572,-87.71044733126314,"(41.935675595155715, -87.71044733126314)",2013-06-04
43919,06/04/2013,Completed,06/06/2013,13-00696852,Sanitation Code Violation,Other,4616 S MOZART ST,60632.0,1158144.02148937,1873921.02677394,14.0,9.0,58.0,41.80978405923751,-87.69547425117668,"(41.80978405923751, -87.69547425117669)",2013-06-04
43920,06/01/2013,Completed,06/06/2013,13-00675862,Sanitation Code Violation,Other,6518 S WESTERN AVE,60636.0,1161493.14861511,1861368.40898607,15.0,8.0,66.0,41.7752691642344,-87.68353810222683,"(41.7752691642344, -87.68353810222683)",2013-06-01
43921,06/01/2013,Completed,06/06/2013,13-00676110,Sanitation Code Violation,Dog feces in yard,2441 N RUTHERFORD AVE,60707.0,1131009.95987761,1915489.23287792,36.0,25.0,18.0,41.92436299862357,-87.79404199110306,"(41.924362998623565, -87.79404199110306)",2013-06-01
43922,06/01/2013,Completed,06/06/2013,13-00676305,Sanitation Code Violation,Garbage in alley,3837 N DES PLAINES RIVER,60634.0,1114848.23702431,1924306.18949192,36.0,16.0,76.0,41.948821544168204,-87.85324708511112,"(41.9488215441682, -87.85324708511112)",2013-06-01
43923,06/01/2013,Completed,06/06/2013,13-00677173,Sanitation Code Violation,Other,4719 S TRIPP AVE,60632.0,1148820.42982205,1873000.62468092,23.0,8.0,57.0,41.8074431446822,-87.72969586241587,"(41.8074431446822, -87.72969586241588)",2013-06-01
43924,06/03/2013,Completed,06/06/2013,13-00680114,Sanitation Code Violation,Other,13123 S AVENUE M,60633.0,1201734.5691743998,1818464.57059005,10.0,4.0,55.0,41.65660856555232,-87.53747437794338,"(41.65660856555232, -87.53747437794337)",2013-06-03
43925,06/03/2013,Completed,06/06/2013,13-00684573,Sanitation Code Violation,Overflowing carts,6748 W DIVERSEY AVE,60707.0,1130853.26930529,1917868.58831892,36.0,25.0,18.0,41.93089494171825,-87.79456281405442,"(41.93089494171825, -87.7945628140544)",2013-06-03
43926,06/03/2013,Completed,06/06/2013,13-00684679,Sanitation Code Violation,Other,2525 N NEVA AVE,60707.0,1127997.86997191,1915990.88069943,36.0,25.0,18.0,41.925791033430684,-87.80509855016307,"(41.92579103343068, -87.80509855016307)",2013-06-03
43927,06/03/2013,Completed,06/06/2013,13-00684685,Sanitation Code Violation,Other,2543 N NEVA AVE,60707.0,1127994.16997191,1916110.68069943,36.0,25.0,18.0,41.926119842389724,-87.80510943430137,"(41.926119842389724, -87.80510943430137)",2013-06-03
43928,06/03/2013,Completed,06/06/2013,13-00685547,Sanitation Code Violation,Standing water,3044 N OLCOTT AVE,60707.0,1125560.44211078,1919396.02428597,36.0,25.0,17.0,41.935176040293314,-87.81397929230997,"(41.93517604029331, -87.81397929230997)",2013-06-03
43954,06/07/2013,Completed,06/07/2013,13-00712127,Sanitation Code Violation,Other,2400 W WARREN BLVD,60612.0,1160403.78066964,1900285.74356611,2.0,12.0,28.0,41.88208534375463,-87.68645736518826,"(41.882085343754625, -87.68645736518825)",2013-06-07
43955,06/07/2013,Completed,06/07/2013,13-00712242,Sanitation Code Violation,Garbage in yard,5611 S SEELEY AVE,60636.0,1163651.16622253,1867437.19218694,15.0,7.0,67.0,41.79187768228557,-87.67545682587017,"(41.79187768228558, -87.67545682587017)",2013-06-07
43956,06/07/2013,Completed,06/07/2013,13-00712741,Sanitation Code Violation,Garbage in alley,7644 W RASCHER AVE,60656.0,1124377.97360547,1935283.64013194,41.0,16.0,10.0,41.97879310414124,-87.81797387410307,"(41.97879310414124, -87.81797387410307)",2013-06-07
43957,06/07/2013,Completed,06/07/2013,13-00712910,Sanitation Code Violation,Other,3603 N KEDVALE AVE,60641.0,1148209.87999734,1923629.79997641,30.0,17.0,16.0,41.94638719734695,-87.73063123498007,"(41.94638719734695, -87.73063123498007)",2013-06-07
43958,06/07/2013,Completed,06/07/2013,13-00714370,Sanitation Code Violation,Other,5029 N MEADE AVE,60630.0,1134537.2352096,1933099.39249606,45.0,16.0,11.0,41.972625524343435,-87.78066382077817,"(41.972625524343435, -87.78066382077819)",2013-06-07
43959,06/07/2013,Completed,06/07/2013,13-00714754,Sanitation Code Violation,Overflowing carts,5810 N ORIOLE AVE,60631.0,1124677.84576933,1937774.88006825,41.0,16.0,10.0,41.98562437242548,-87.81681580602303,"(41.98562437242548, -87.81681580602303)",2013-06-07
43960,06/06/2013,Completed - Dup,06/07/2013,13-00705322,Sanitation Code Violation,Garbage in alley,3124 W WALTON ST,60622.0,1155331.42796843,1906164.99540269,26.0,12.0,23.0,41.8983219784451,-87.70492497259865,"(41.89832197844509, -87.70492497259865)",2013-06-06
43961,06/06/2013,Completed - Dup,06/07/2013,13-00705339,Sanitation Code Violation,Garbage in alley,3137 W AUGUSTA BLVD,60622.0,1155239.33391524,1906487.38428685,26.0,12.0,23.0,41.899208493656616,-87.70525455975239,"(41.89920849365662, -87.70525455975239)",2013-06-06
43962,06/06/2013,Completed - Dup,06/07/2013,13-00710294,Sanitation Code Violation,Other,4200 W IOWA ST,60651.0,1148217.61469633,1905673.56671348,37.0,11.0,23.0,41.897113459293706,-87.73106634840191,"(41.897113459293706, -87.73106634840191)",2013-06-06
43963,06/06/2013,Completed,06/07/2013,13-00705206,Sanitation Code Violation,Dumpster not being emptied,424 W DIVERSEY PKWY,60614.0,1173089.01921984,1918906.91652233,44.0,19.0,6.0,41.93291097050661,-87.63932430377326,"(41.932910970506605, -87.63932430377326)",2013-06-06
43964,06/06/2013,Completed,06/07/2013,13-00705286,Sanitation Code Violation,Garbage in alley,3130 W WALTON ST,60622.0,1155293.92796843,1906164.39540269,26.0,12.0,23.0,41.89832108564496,-87.70506272400145,"(41.89832108564496, -87.70506272400144)",2013-06-06
43965,06/06/2013,Completed,06/07/2013,13-00705321,Sanitation Code Violation,Garbage in alley,3124 W WALTON ST,60622.0,1155331.42796843,1906164.99540269,26.0,12.0,23.0,41.8983219784451,-87.70492497259865,"(41.89832197844509, -87.70492497259865)",2013-06-06
43966,06/06/2013,Completed,06/07/2013,13-00705331,Sanitation Code Violation,Garbage in alley,3137 W AUGUSTA BLVD,60622.0,1155239.33391524,1906487.38428685,26.0,12.0,23.0,41.899208493656616,-87.70525455975239,"(41.89920849365662, -87.70525455975239)",2013-06-06
43967,06/06/2013,Completed,06/07/2013,13-00706526,Sanitation Code Violation,Dumpster not being emptied,6351 N LAKEWOOD AVE,60660.0,1166460.72688078,1942312.63099498,40.0,24.0,77.0,41.99728176603252,-87.66300961631502,"(41.997281766032515, -87.66300961631502)",2013-06-06
43968,06/06/2013,Completed,06/07/2013,13-00706706,Sanitation Code Violation,Other,2954 W PRATT BLVD,60645.0,1155339.57999315,1944957.04000688,50.0,24.0,2.0,42.00476974081784,-87.70384853069176,"(42.004769740817835, -87.70384853069176)",2013-06-06
43969,06/06/2013,Completed,06/07/2013,13-00706777,Sanitation Code Violation,Other,2030 W SUMMERDALE AVE,60625.0,1161832.08187818,1935523.66828226,40.0,20.0,4.0,41.97875077827962,-87.68022701568188,"(41.97875077827962, -87.68022701568187)",2013-06-06
43970,06/06/2013,Completed,06/07/2013,13-00707255,Sanitation Code Violation,Other,244 W 24TH ST,60616.0,1175012.38216767,1888395.57223415,25.0,9.0,34.0,41.84914322278423,-87.63317113193729,"(41.84914322278423, -87.63317113193729)",2013-06-06
43971,06/06/2013,Completed,06/07/2013,13-00707544,Sanitation Code Violation,Garbage in alley,1864 N HOYNE AVE,60647.0,1162060.48121372,1912477.06856968,32.0,14.0,22.0,41.91550486503817,-87.68003307724794,"(41.91550486503817, -87.68003307724793)",2013-06-06
43972,06/06/2013,Completed,06/07/2013,13-00708474,Sanitation Code Violation,Garbage in yard,5771 N LINCOLN AVE,60659.0,1156258.1519965,1938264.13236709,40.0,20.0,2.0,41.98638553380947,-87.7006509851663,"(41.98638553380947, -87.70065098516629)",2013-06-06
43973,06/06/2013,Completed,06/07/2013,13-00708520,Sanitation Code Violation,Garbage in yard,5738 N SACRAMENTO AVE,60659.0,1155324.33821984,1937975.44396854,40.0,20.0,2.0,41.985612236320904,-87.70409334984707,"(41.98561223632091, -87.70409334984708)",2013-06-06
43974,06/06/2013,Completed,06/07/2013,13-00708521,Sanitation Code Violation,Garbage in yard,2332 W FOSTER AVE,60625.0,1159729.5098839,1934471.51389614,40.0,20.0,4.0,41.975907349122465,-87.6879884686508,"(41.975907349122465, -87.6879884686508)",2013-06-06
43975,06/06/2013,Completed,06/07/2013,13-00708700,Sanitation Code Violation,Garbage in yard,5424 N WESTERN AVE,60625.0,1159358.5210923,1935950.65998239,40.0,20.0,4.0,41.97997385390417,-87.68931184156678,"(41.979973853904184, -87.68931184156678)",2013-06-06
43976,06/06/2013,Completed,06/07/2013,13-00709344,Sanitation Code Violation,Other,2623 N LINCOLN AVE,60614.0,1169004.52437943,1917616.36430567,32.0,19.0,7.0,41.92945937926486,-87.65437190482426,"(41.92945937926487, -87.65437190482427)",2013-06-06
43977,06/06/2013,Completed,06/07/2013,13-00709369,Sanitation Code Violation,Dumpster not being emptied,2739 N MILDRED AVE,60614.0,1169807.55256857,1918395.05792205,43.0,19.0,7.0,41.931578663694985,-87.65139826840334,"(41.931578663694985, -87.65139826840334)",2013-06-06
43978,06/06/2013,Completed,06/07/2013,13-00709415,Sanitation Code Violation,Dumpster not being emptied,433 W DIVERSEY PKWY,60614.0,1172711.46997137,1918893.65832534,43.0,19.0,7.0,41.93288296746093,-87.64071214411379,"(41.93288296746093, -87.64071214411379)",2013-06-06
43979,06/06/2013,Completed,06/07/2013,13-00710827,Sanitation Code Violation,Other,6010 W SEMINOLE ST,60646.0,1135127.18217358,1937515.0721983002,45.0,16.0,10.0,41.98473208103562,-87.77838924077378,"(41.98473208103562, -87.77838924077376)",2013-06-06
43980,06/06/2013,Completed,06/07/2013,13-00710838,Sanitation Code Violation,Other,1734 N KEYSTONE AVE,60639.0,1149113.86058692,1911227.87370559,30.0,25.0,23.0,41.91233772371096,-87.7276304931455,"(41.91233772371096, -87.7276304931455)",2013-06-06
43981,06/06/2013,Completed,06/07/2013,13-00710881,Sanitation Code Violation,Overflowing carts,2601 N HALSTED ST,60614.0,1170497.39091054,1917500.37371504,43.0,19.0,7.0,41.92910852536123,-87.6488894918057,"(41.92910852536123, -87.6488894918057)",2013-06-06
43982,06/06/2013,Completed,06/07/2013,13-00710910,Sanitation Code Violation,Other,3145 N SAWYER AVE,60618.0,1154166.62160415,1920736.8473966,35.0,14.0,21.0,41.93833170046444,-87.70881348368391,"(41.93833170046444, -87.70881348368391)",2013-06-06
43983,06/06/2013,Completed,06/07/2013,13-00711204,Sanitation Code Violation,Construction Site Cleanliness/Fence,5139 W AINSLIE ST,60630.0,1141230.0438668998,1932096.65318097,45.0,16.0,11.0,41.96975280728376,-87.75607756843155,"(41.969752807283754, -87.75607756843154)",2013-06-06
43984,06/06/2013,Completed,06/07/2013,13-00711420,Sanitation Code Violation,Garbage in yard,2938 N SPAULDING AVE,60618.0,1153869.68639744,1919520.45553365,35.0,14.0,21.0,41.93499975958643,-87.70993729974172,"(41.93499975958643, -87.70993729974172)",2013-06-06
43985,06/06/2013,Completed,06/07/2013,13-00711575,Sanitation Code Violation,Other,2701 W BELMONT AVE,60618.0,1157841.15368566,1921155.52352637,1.0,14.0,21.0,41.93940632528145,-87.69529727674488,"(41.93940632528145, -87.69529727674488)",2013-06-06
43986,06/06/2013,Completed,06/07/2013,13-00711733,Sanitation Code Violation,Other,250 W SCOTT ST,60610.0,1174479.79146572,1908728.06002657,43.0,18.0,8.0,41.90494874824275,-87.6345182033844,"(41.90494874824275, -87.6345182033844)",2013-06-06
43987,06/05/2013,Completed,06/07/2013,13-00699206,Sanitation Code Violation,Garbage in yard,3127 S SPRINGFIELD AVE,60623.0,1150871.2480926001,1883577.89171032,22.0,10.0,30.0,41.83642884402777,-87.72189788280775,"(41.836428844027765, -87.72189788280775)",2013-06-05
43988,06/05/2013,Completed,06/07/2013,13-00699230,Sanitation Code Violation,Garbage in yard,3131 S SPRINGFIELD AVE,60623.0,1150871.8480926,1883551.09171032,22.0,10.0,30.0,41.83635528961809,-87.7218963811746,"(41.83635528961809, -87.7218963811746)",2013-06-05
43989,06/05/2013,Completed,06/07/2013,13-00699294,Sanitation Code Violation,Other,6909 W BLOOMINGDALE AVE,60707.0,1130046.52820246,1911207.0991163002,36.0,25.0,25.0,41.91262885113112,-87.79768039219152,"(41.91262885113112, -87.79768039219152)",2013-06-05
43990,06/05/2013,Completed,06/07/2013,13-00699494,Sanitation Code Violation,Overflowing carts,5636 N CENTRAL AVE,60646.0,1137864.82709535,1937121.85288981,45.0,16.0,11.0,41.98360393932763,-87.76832986863562,"(41.98360393932763, -87.76832986863563)",2013-06-05
43991,06/05/2013,Completed,06/07/2013,13-00699497,Sanitation Code Violation,Overflowing carts,5634 N CENTRAL AVE,60646.0,1137864.72709535,1937108.35288981,45.0,16.0,11.0,41.983566896024,-87.7683305639499,"(41.983566896023994, -87.7683305639499)",2013-06-05
43992,06/05/2013,Completed,06/07/2013,13-00699505,Sanitation Code Violation,Other,5630 N CENTRAL AVE,60646.0,1137864.42709535,1937081.45288981,45.0,16.0,11.0,41.983493085634386,-87.76833231993656,"(41.98349308563438, -87.76833231993656)",2013-06-05
43993,06/05/2013,Completed,06/07/2013,13-00699557,Sanitation Code Violation,Other,2833 N MAPLEWOOD AVE,60618.0,1158868.73443082,1918735.8163231998,1.0,14.0,21.0,41.93274543866828,-87.69158719240244,"(41.93274543866827, -87.69158719240244)",2013-06-05
43994,06/05/2013,Completed,06/07/2013,13-00699560,Sanitation Code Violation,Other,5616 N CENTRAL AVE,60646.0,1137863.52709535,1936987.35288981,45.0,16.0,11.0,41.98323488375181,-87.76833791295877,"(41.98323488375181, -87.76833791295878)",2013-06-05
43995,06/05/2013,Completed,06/07/2013,13-00700203,Sanitation Code Violation,Other,5881 N ELSTON AVE,60646.0,1136110.99087151,1938832.9913217,45.0,16.0,11.0,41.98833101328551,-87.77473922784391,"(41.98833101328551, -87.77473922784391)",2013-06-05
43996,06/05/2013,Completed,06/07/2013,13-00701521,Sanitation Code Violation,Other,7704 S SEELEY AVE,60620.0,1164031.85467663,1853559.93553121,18.0,6.0,71.0,41.75378860954122,-87.67445074762148,"(41.75378860954122, -87.67445074762148)",2013-06-05
43997,06/05/2013,Completed,06/07/2013,13-00701522,Sanitation Code Violation,Other,7706 S SEELEY AVE,60620.0,1164032.25467663,1853546.53553121,18.0,6.0,71.0,41.753751829597796,-87.67444965782913,"(41.753751829597796, -87.67444965782913)",2013-06-05
43998,06/05/2013,Completed,06/07/2013,13-00701775,Sanitation Code Violation,Dog feces in yard,3020 W WASHINGTON BLVD,60612.0,1156237.17421991,1900530.30018945,2.0,12.0,27.0,41.88284159341391,-87.70175055633464,"(41.88284159341391, -87.70175055633464)",2013-06-05
43999,06/05/2013,Completed,06/07/2013,13-00702362,Sanitation Code Violation,Other,550 W 126TH PL,60628.0,1174885.2948853998,1821015.83023377,9.0,5.0,53.0,41.66424793217704,-87.63564303744724,"(41.66424793217704, -87.63564303744725)",2013-06-05
44000,06/05/2013,Completed,06/07/2013,13-00703391,Sanitation Code Violation,Other,1708 N OAK PARK AVE,60707.0,1130820.46007757,1910613.35473119,36.0,25.0,25.0,41.910986241224606,-87.79485080051697,"(41.9109862412246, -87.79485080051697)",2013-06-05
44001,06/05/2013,Completed,06/07/2013,13-00704152,Sanitation Code Violation,Other,5422 N PAULINA ST,60640.0,1164014.66536668,1936139.15472141,40.0,20.0,77.0,41.9803937501417,-87.67218301487966,"(41.9803937501417, -87.67218301487965)",2013-06-05
44002,06/05/2013,Completed,06/07/2013,13-00704443,Sanitation Code Violation,Dumpster not being emptied,1144 N MILWAUKEE AVE,60642.0,1166131.62319773,1907784.5038001998,1.0,12.0,24.0,41.90254209037629,-87.6652103977747,"(41.9025420903763, -87.66521039777471)",2013-06-05
44003,06/05/2013,Completed,06/07/2013,13-00704478,Sanitation Code Violation,Garbage in yard,55 W JACKSON BLVD,60604.0,1175844.68358904,1898976.81819175,2.0,1.0,32.0,41.87816020348887,-87.62979828572479,"(41.87816020348887, -87.62979828572479)",2013-06-05
44004,06/05/2013,Completed,06/07/2013,13-00704483,Sanitation Code Violation,Other,6016 N AUSTIN AVE,60646.0,1135250.08249607,1939597.75910617,45.0,16.0,10.0,41.990444965101815,-87.77788754082536,"(41.990444965101815, -87.77788754082536)",2013-06-05
44005,06/05/2013,Completed,06/07/2013,13-00704594,Sanitation Code Violation,Other,4400 S HOMAN AVE,60632.0,1154421.22903001,1875266.59612535,14.0,8.0,58.0,41.813551494722546,-87.70909315241668,"(41.81355149472255, -87.70909315241668)",2013-06-05
44006,06/05/2013,Completed,06/07/2013,13-00704675,Sanitation Code Violation,Garbage in yard,1810 N NORMANDY AVE,60707.0,1131466.23471564,1911305.06820163,36.0,25.0,25.0,41.912873241857696,-87.79246237820111,"(41.912873241857696, -87.79246237820111)",2013-06-05
44007,06/05/2013,Completed,06/07/2013,13-00704705,Sanitation Code Violation,Other,4928 W ALTGELD ST,60639.0,1143116.51830096,1916185.3781757,31.0,25.0,19.0,41.92605574032034,-87.74953936797375,"(41.92605574032034, -87.74953936797375)",2013-06-05
44008,06/05/2013,Completed,06/07/2013,13-00704762,Sanitation Code Violation,Other,3701 N OTTAWA AVE,60634.0,1124360.71469136,1923541.52018382,36.0,16.0,17.0,41.946571660707676,-87.81829690655424,"(41.94657166070768, -87.81829690655424)",2013-06-05
44009,06/05/2013,Completed,06/07/2013,13-00705057,Sanitation Code Violation,Other,4580 N ELSTON AVE,60630.0,1147134.06097895,1930106.36110632,45.0,17.0,16.0,41.9641800867087,-87.73441927034081,"(41.9641800867087, -87.73441927034082)",2013-06-05
44010,06/01/2013,Completed,06/07/2013,13-00675856,Sanitation Code Violation,Dumpster not being emptied,8136 S PAULINA ST,60620.0,1166426.07538288,1850747.70430684,18.0,6.0,71.0,41.74602079805322,-87.66575669870468,"(41.74602079805323, -87.66575669870468)",2013-06-01
44011,06/01/2013,Completed,06/07/2013,13-00676158,Sanitation Code Violation,Other,2948 W MADISON ST,60612.0,1156737.78551774,1899877.15378871,2.0,12.0,27.0,41.88103917175015,-87.69992998787454,"(41.88103917175015, -87.69992998787455)",2013-06-01
44012,06/01/2013,Completed,06/07/2013,13-00676733,Sanitation Code Violation,Other,5701 N MCVICKER AVE,60646.0,1134903.68122451,1937520.99292116,45.0,16.0,10.0,41.98475229881479,-87.77921112559449,"(41.98475229881479, -87.77921112559449)",2013-06-01
44013,06/01/2013,Completed,06/07/2013,13-00677188,Sanitation Code Violation,Garbage in yard,5232 N LIEB AVE,60630.0,1139106.33956949,1934568.87041849,45.0,16.0,11.0,41.97657578206875,-87.76382616513874,"(41.97657578206875, -87.76382616513874)",2013-06-01
44014,06/02/2013,Completed,06/07/2013,13-00678339,Sanitation Code Violation,Overflowing carts,5430 W GALE ST,60630.0,1139023.37261442,1932214.09618267,45.0,16.0,11.0,41.970115593573176,-87.76418880455488,"(41.97011559357318, -87.76418880455489)",2013-06-02
44015,06/02/2013,Completed,06/07/2013,13-00678417,Sanitation Code Violation,Other,5754 W GIDDINGS ST,60630.0,1137116.27598996,1931000.8241298,45.0,16.0,15.0,41.96682081551226,-87.7712306681605,"(41.96682081551226, -87.7712306681605)",2013-06-02
44016,06/02/2013,Completed,06/07/2013,13-00678748,Sanitation Code Violation,Other,5106 W PENSACOLA AVE,60641.0,1141508.79870157,1928440.65001858,45.0,16.0,15.0,41.95971526460222,-87.75514328237931,"(41.95971526460222, -87.7551432823793)",2013-06-02
44017,06/03/2013,Completed,06/07/2013,13-00680953,Sanitation Code Violation,Garbage in yard,2424 W LEXINGTON ST,60612.0,1160344.43989822,1896633.63999791,2.0,11.0,28.0,41.87206486213514,-87.68677628775677,"(41.87206486213514, -87.68677628775676)",2013-06-03
44018,06/03/2013,Completed,06/07/2013,13-00683413,Sanitation Code Violation,Other,5600 S SEELEY AVE,60636.0,1163649.16622253,1867510.99218694,15.0,7.0,67.0,41.792080240842026,-87.67546208874028,"(41.79208024084202, -87.67546208874026)",2013-06-03
44019,06/03/2013,Completed,06/07/2013,13-00683415,Sanitation Code Violation,Other,5600 S SEELEY AVE,60636.0,1163649.16622253,1867510.99218694,15.0,7.0,67.0,41.792080240842026,-87.67546208874028,"(41.79208024084202, -87.67546208874026)",2013-06-03
44020,06/03/2013,Completed,06/07/2013,13-00683419,Sanitation Code Violation,Other,5600 S DAMEN AVE,60636.0,1163980.86583299,1867519.18512855,15.0,7.0,67.0,41.79209575155365,-87.67424556665794,"(41.79209575155365, -87.67424556665794)",2013-06-03
44021,06/03/2013,Completed,06/07/2013,13-00683839,Sanitation Code Violation,Garbage in alley,3030 W WASHINGTON BLVD,60612.0,1156169.47421991,1900528.80018945,2.0,12.0,27.0,41.88283884421134,-87.70199919474263,"(41.88283884421134, -87.70199919474263)",2013-06-03
44022,06/03/2013,Completed,06/07/2013,13-00686333,Sanitation Code Violation,Other,4200 W IOWA ST,60651.0,1148217.61469633,1905673.56671348,37.0,11.0,23.0,41.897113459293706,-87.73106634840191,"(41.897113459293706, -87.73106634840191)",2013-06-03
44023,06/04/2013,Completed,06/07/2013,13-00689357,Sanitation Code Violation,,1617 W LE MOYNE ST,60622.0,1165335.26001269,1910170.49009049,1.0,14.0,24.0,41.90910638168004,-87.66806759322328,"(41.90910638168004, -87.66806759322328)",2013-06-04
44024,06/04/2013,Completed,06/07/2013,13-00689617,Sanitation Code Violation,Garbage in yard,18 E 120TH PL,60628.0,1178524.19318402,1825070.95011849,9.0,5.0,53.0,41.67529420100277,-87.62220385374334,"(41.67529420100277, -87.62220385374334)",2013-06-04
44025,06/04/2013,Completed,06/07/2013,13-00689884,Sanitation Code Violation,Garbage in yard,3050 N NATOMA AVE,60634.0,1131564.44090063,1919214.87531873,36.0,25.0,18.0,41.93457701904773,-87.79191811148839,"(41.93457701904773, -87.79191811148837)",2013-06-04
44026,06/04/2013,Completed,06/07/2013,13-00690102,Sanitation Code Violation,Other,12438 S PERRY AVE,60628.0,1177851.20012844,1822481.75392203,9.0,5.0,53.0,41.66820425950325,-87.62474505198732,"(41.66820425950325, -87.62474505198733)",2013-06-04
44027,06/04/2013,Completed,06/07/2013,13-00690727,Sanitation Code Violation,Other,4935 W ALTGELD ST,60639.0,1143069.51830096,1916184.1781757,31.0,25.0,19.0,41.92605332535632,-87.74971210235351,"(41.92605332535632, -87.74971210235351)",2013-06-04
44028,06/04/2013,Completed,06/07/2013,13-00690754,Sanitation Code Violation,Other,12137 S PERRY AVE,60628.0,1177783.47990033,1824454.2048092,9.0,5.0,53.0,41.67361850003078,-87.6249335504726,"(41.67361850003077, -87.62493355047259)",2013-06-04
44029,06/04/2013,Completed,06/07/2013,13-00691629,Sanitation Code Violation,Other,2216 N LAVERGNE AVE,60639.0,1142695.65311444,1914273.64847612,31.0,25.0,19.0,41.92081760946163,-87.75113355687051,"(41.92081760946163, -87.75113355687051)",2013-06-04
44030,06/04/2013,Completed,06/07/2013,13-00694328,Sanitation Code Violation,Other,4400 W WILSON AVE,60630.0,1146010.70772451,1930206.6147279998,45.0,17.0,16.0,41.9644766627328,-87.73854699243601,"(41.9644766627328, -87.73854699243601)",2013-06-04
44031,06/04/2013,Completed,06/07/2013,13-00694595,Sanitation Code Violation,Other,12319 S PERRY AVE,60628.0,1177820.67313338,1823267.06287942,9.0,5.0,53.0,41.67035995903097,-87.62483314484354,"(41.67035995903097, -87.62483314484354)",2013-06-04
44032,06/04/2013,Completed,06/07/2013,13-00694622,Sanitation Code Violation,Other,7148 S KEDZIE AVE,60629.0,1156273.98112201,1857040.70818837,18.0,8.0,66.0,41.76349991700976,-87.70278738839596,"(41.76349991700976, -87.70278738839596)",2013-06-04
44033,06/04/2013,Completed,06/07/2013,13-00695514,Sanitation Code Violation,Garbage in yard,556 W 125TH PL,60628.0,1174747.8065073,1821673.1302292,9.0,5.0,53.0,41.66605472515068,-87.63612672454687,"(41.66605472515068, -87.63612672454688)",2013-06-04
44034,06/04/2013,Completed,06/07/2013,13-00696178,Sanitation Code Violation,Garbage in alley,6338 W RAVEN ST,60646.0,1133016.06582987,1940943.54712043,45.0,16.0,10.0,41.99417738989824,-87.78607325374527,"(41.99417738989824, -87.78607325374526)",2013-06-04
44035,06/04/2013,Completed,06/07/2013,13-00696219,Sanitation Code Violation,Garbage in alley,1735 N FAIRFIELD AVE,60647.0,1157763.29049557,1911559.65849769,1.0,14.0,24.0,41.9130761569281,-87.69584564626396,"(41.91307615692809, -87.69584564626396)",2013-06-04
44036,06/04/2013,Completed,06/07/2013,13-00696310,Sanitation Code Violation,Other,4258 W MONTROSE AVE,60641.0,1147070.34593348,1928899.72069479,45.0,17.0,16.0,41.96087019533244,-87.73468452975075,"(41.96087019533244, -87.73468452975075)",2013-06-04
44037,06/04/2013,Completed,06/07/2013,13-00696435,Sanitation Code Violation,Dog feces in yard,5526 S SEELEY AVE,60636.0,1163638.06990459,1867903.07239645,15.0,7.0,67.0,41.793156391547754,-87.67549177593912,"(41.79315639154775, -87.67549177593912)",2013-06-04
44038,06/04/2013,Completed,06/07/2013,13-00696519,Sanitation Code Violation,Dumpster not being emptied,814 N LECLAIRE AVE,60651.0,1142206.85393039,1904939.44408622,37.0,15.0,25.0,41.89521260486501,-87.75316150328823,"(41.89521260486501, -87.75316150328823)",2013-06-04
44039,06/04/2013,Completed,06/07/2013,13-00696663,Sanitation Code Violation,Garbage in yard,5154 N LOTUS AVE,60630.0,1139077.41009997,1933748.0476755002,45.0,16.0,11.0,41.97432390296876,-87.7639526155547,"(41.974323902968756, -87.7639526155547)",2013-06-04
44110,06/09/2013,Completed,06/10/2013,13-00720996,Sanitation Code Violation,Garbage in yard,5152 S HERMITAGE AVE,60609.0,1165551.26053277,1870531.6363246997,16.0,9.0,61.0,41.80032910005218,-87.66840173044798,"(41.80032910005218, -87.66840173044798)",2013-06-09
44111,06/09/2013,Completed,06/10/2013,13-00721099,Sanitation Code Violation,Other,5325 W MELROSE ST,60641.0,1140293.31553206,1921092.25950488,38.0,16.0,15.0,41.939573003577856,-87.75979279407689,"(41.939573003577856, -87.75979279407687)",2013-06-09
44112,06/09/2013,Completed,06/10/2013,13-00721188,Sanitation Code Violation,Garbage in alley,7842 S KEATING AVE,60652.0,1146104.90981699,1852132.47752754,13.0,8.0,70.0,41.750229372365816,-87.74018369769587,"(41.75022937236581, -87.74018369769587)",2013-06-09
44113,06/09/2013,Completed,06/10/2013,13-00721201,Sanitation Code Violation,Standing water,3447 W MONTROSE AVE,60618.0,1152514.54948141,1929025.78519779,33.0,17.0,16.0,41.96111000971553,-87.7146653473364,"(41.961110009715526, -87.7146653473364)",2013-06-09
44114,06/09/2013,Completed,06/10/2013,13-00721500,Sanitation Code Violation,Overflowing carts,3020 S SPRINGFIELD AVE,60623.0,1150852.35548517,1884293.20137593,22.0,10.0,30.0,41.83839211557977,-87.72194852495213,"(41.838392115579765, -87.72194852495213)",2013-06-09
44115,06/09/2013,Completed,06/10/2013,13-00721525,Sanitation Code Violation,Garbage in yard,5615 S CARPENTER ST,60621.0,1170271.86136819,1867578.41418304,16.0,7.0,68.0,41.792123618896106,-87.65117579859789,"(41.7921236188961, -87.65117579859789)",2013-06-09
44116,06/09/2013,Completed,06/10/2013,13-00721549,Sanitation Code Violation,Garbage in yard,5610 S MORGAN ST,60621.0,1170601.28050343,1867620.71739488,16.0,7.0,68.0,41.79223252452528,-87.64996664115642,"(41.79223252452528, -87.64996664115642)",2013-06-09
44117,06/09/2013,Completed,06/10/2013,13-00721655,Sanitation Code Violation,Other,5139 S LEAMINGTON AVE,60638.0,1142897.72242698,1870060.23697894,23.0,8.0,56.0,41.799486345980846,-87.751492011056,"(41.79948634598084, -87.751492011056)",2013-06-09
44118,06/09/2013,Completed,06/10/2013,13-00722027,Sanitation Code Violation,Dog feces in yard,4826 N CALIFORNIA AVE,60625.0,1156830.70758549,1932043.03998312,40.0,20.0,4.0,41.969302918368356,-87.69871464503544,"(41.969302918368356, -87.69871464503544)",2013-06-09
44119,06/09/2013,Completed,06/10/2013,13-00722071,Sanitation Code Violation,Other,1400 W FARWELL AVE,60626.0,1165703.56177885,1945737.55378019,49.0,24.0,1.0,42.00669605607849,-87.66569667864695,"(42.00669605607849, -87.66569667864694)",2013-06-09
44120,06/10/2013,Completed,06/10/2013,13-00723904,Sanitation Code Violation,Garbage in yard,5706 S ADA ST,60636.0,1168301.28929212,1866921.57598027,16.0,7.0,67.0,41.79036385771675,-87.65842047111498,"(41.79036385771675, -87.65842047111498)",2013-06-10
44121,06/10/2013,Completed,06/10/2013,13-00723917,Sanitation Code Violation,Garbage in yard,5719 S ADA ST,60636.0,1168303.68929212,1866834.57598027,16.0,7.0,67.0,41.79012506773845,-87.65841417524916,"(41.790125067738444, -87.65841417524916)",2013-06-10
44122,06/10/2013,Completed,06/10/2013,13-00723929,Sanitation Code Violation,Other,6605 S GREEN ST,60621.0,1171774.11018875,1861051.93402516,16.0,7.0,68.0,41.77418136917877,-87.64585864771126,"(41.77418136917877, -87.64585864771125)",2013-06-10
44123,06/10/2013,Completed,06/10/2013,13-00723931,Sanitation Code Violation,Garbage in yard,5720 S ADA ST,60636.0,1168303.78929212,1866827.87598027,16.0,7.0,67.0,41.79010667999236,-87.65841400143582,"(41.790106679992356, -87.65841400143582)",2013-06-10
44124,06/10/2013,Completed,06/10/2013,13-00723938,Sanitation Code Violation,Garbage in yard,5725 S ADA ST,60636.0,1168304.78929212,1866794.37598027,16.0,7.0,67.0,41.79001473048998,-87.65841129901081,"(41.79001473048998, -87.65841129901082)",2013-06-10
44125,06/10/2013,Completed,06/10/2013,13-00725163,Sanitation Code Violation,Overflowing carts,600 W HUBBARD ST,60654.0,1172237.89001842,1903317.59997987,42.0,12.0,24.0,41.890151954424994,-87.64291325423538,"(41.890151954424994, -87.64291325423538)",2013-06-10
44126,06/10/2013,Completed,06/10/2013,13-00725724,Sanitation Code Violation,Overflowing carts,2912 W 60TH ST,60629.0,1157945.02239441,1864719.26388884,16.0,8.0,66.0,41.78453722442423,-87.69645420904608,"(41.78453722442423, -87.69645420904608)",2013-06-10
44127,06/10/2013,Completed,06/10/2013,13-00725782,Sanitation Code Violation,Garbage in alley,5708 S BISHOP ST,60636.0,1167639.03559065,1866890.0349931999,16.0,7.0,67.0,41.790291546142605,-87.66084968694305,"(41.7902915461426, -87.66084968694304)",2013-06-10
44128,06/07/2013,Completed,06/10/2013,13-00713006,Sanitation Code Violation,Other,849 W BUCKINGHAM PL,60657.0,1169877.07652206,1922412.12458852,44.0,19.0,6.0,41.94260015190726,-87.6510252906795,"(41.94260015190726, -87.65102529067948)",2013-06-07
44129,06/07/2013,Completed,06/10/2013,13-00713224,Sanitation Code Violation,Other,11836 S INDIANA AVE,60628.0,1179703.47170566,1826409.85012872,9.0,5.0,53.0,41.67894155312445,-87.61784680201971,"(41.67894155312445, -87.61784680201971)",2013-06-07
44130,06/07/2013,Completed,06/10/2013,13-00713327,Sanitation Code Violation,Garbage in yard,3724 N FREMONT ST,60613.0,1169595.96929794,1925035.05001253,44.0,19.0,6.0,41.94980369880029,-87.65198184963889,"(41.94980369880029, -87.65198184963887)",2013-06-07
44131,06/07/2013,Completed,06/10/2013,13-00714251,Sanitation Code Violation,Other,3136 N PAULINA ST,60657.0,1164434.62211398,1920986.77741721,32.0,19.0,6.0,41.938806056486115,-87.67106924248773,"(41.93880605648612, -87.67106924248773)",2013-06-07
44132,06/07/2013,Completed,06/10/2013,13-00714424,Sanitation Code Violation,,717 E 105TH PL,60628.0,1182960.58700068,1835155.66887626,9.0,5.0,50.0,41.70286641832535,-87.60565413133097,"(41.70286641832535, -87.60565413133097)",2013-06-07
44133,06/07/2013,Completed,06/10/2013,13-00714447,Sanitation Code Violation,Other,2902 W FLETCHER ST,60618.0,1156472.98828244,1920802.88671431,33.0,14.0,21.0,41.938466498235314,-87.7003352550944,"(41.93846649823531, -87.70033525509439)",2013-06-07
44134,06/07/2013,Completed,06/10/2013,13-00715098,Sanitation Code Violation,Dog feces in yard,1537 W BARRY AVE,60657.0,1165522.67509125,1920659.40082484,32.0,19.0,6.0,41.93788458280552,-87.66707974227822,"(41.93788458280552, -87.66707974227822)",2013-06-07
44135,06/07/2013,Completed,06/10/2013,13-00715379,Sanitation Code Violation,Dog feces in yard,6634 N NEWGARD AVE,60626.0,1165395.79607367,1944172.03461346,40.0,24.0,1.0,42.00240682027877,-87.6668738273748,"(42.00240682027877, -87.6668738273748)",2013-06-07
44136,06/07/2013,Completed,06/10/2013,13-00716044,Sanitation Code Violation,Garbage in alley,1616 W JONQUIL TER,60626.0,1164121.08311425,1950997.69140491,49.0,24.0,1.0,42.021163684885465,-87.67136918306295,"(42.021163684885465, -87.67136918306296)",2013-06-07
44137,06/07/2013,Completed,06/10/2013,13-00716350,Sanitation Code Violation,Garbage in yard,3729 S ALBANY AVE,60632.0,1156314.96507467,1879588.32863295,12.0,9.0,58.0,41.82537292282935,-87.70203028222015,"(41.825372922829345, -87.70203028222015)",2013-06-07
44138,06/07/2013,Completed,06/10/2013,13-00716392,Sanitation Code Violation,Other,1349 W GARFIELD BLVD,60636.0,1168187.65006737,1868151.53502866,16.0,7.0,67.0,41.79374145712171,-87.65880177090666,"(41.79374145712171, -87.65880177090665)",2013-06-07
44139,06/07/2013,Completed,06/10/2013,13-00716927,Sanitation Code Violation,Other,56 E 100TH ST,60628.0,1178557.10559338,1838686.97132043,9.0,5.0,49.0,41.71265776543676,-87.62167162718376,"(41.71265776543676, -87.62167162718377)",2013-06-07
44140,06/07/2013,Completed,06/10/2013,13-00717347,Sanitation Code Violation,Other,4558 S LEAMINGTON AVE,60638.0,1142791.8391161002,1873924.29143203,23.0,8.0,56.0,41.8100918969705,-87.75178443826323,"(41.8100918969705, -87.75178443826323)",2013-06-07
44141,06/07/2013,Completed,06/10/2013,13-00717371,Sanitation Code Violation,Other,4444 S LEAMINGTON AVE,60638.0,1142782.20769856,1874684.56042084,23.0,8.0,56.0,41.81217837348076,-87.75180089568678,"(41.81217837348076, -87.75180089568678)",2013-06-07
44142,06/07/2013,Completed,06/10/2013,13-00718006,Sanitation Code Violation,Other,6929 W HURLBUT ST,60631.0,1129148.44130822,1937716.17089627,41.0,16.0,10.0,41.985388108631135,-87.80037421495247,"(41.985388108631135, -87.80037421495247)",2013-06-07
44143,06/07/2013,Completed,06/10/2013,13-00718831,Sanitation Code Violation,Other,4750 S LAPORTE AVE,60638.0,1144148.00012211,1873015.7873779,23.0,8.0,56.0,41.807573529586776,-87.74683288160627,"(41.807573529586776, -87.74683288160627)",2013-06-07
44144,06/08/2013,Completed,06/10/2013,13-00719137,Sanitation Code Violation,Garbage in yard,10299 S YALE AVE,60628.0,1176432.82002713,1836640.12122594,9.0,5.0,49.0,41.7070888395666,-87.62951265620535,"(41.707088839566595, -87.62951265620534)",2013-06-08
44145,06/08/2013,Completed,06/10/2013,13-00719337,Sanitation Code Violation,Other,6318 S PULASKI RD,60629.0,1150791.30555,1862317.419325,13.0,8.0,65.0,41.77808859755577,-87.72274546029922,"(41.778088597555765, -87.72274546029922)",2013-06-08
44146,06/08/2013,Completed,06/10/2013,13-00719375,Sanitation Code Violation,Dumpster not being emptied,5615 S ARTESIAN AVE,60629.0,1160987.41996633,1867365.60998708,16.0,8.0,63.0,41.791736771944976,-87.68522633966373,"(41.791736771944976, -87.68522633966373)",2013-06-08
44147,06/08/2013,Completed,06/10/2013,13-00719416,Sanitation Code Violation,Other,1628 W COLUMBIA AVE,60626.0,1164216.22081695,1944895.71003046,49.0,24.0,1.0,42.00441771534213,-87.6711927712012,"(42.00441771534213, -87.67119277120122)",2013-06-08
44148,06/08/2013,Completed,06/10/2013,13-00719505,Sanitation Code Violation,Other,3407 N CLARK ST,60657.0,1169141.46248219,1922817.23479501,44.0,19.0,6.0,41.94372782698213,-87.65371719228175,"(41.943727826982126, -87.65371719228173)",2013-06-08
44149,06/08/2013,Completed,06/10/2013,13-00719619,Sanitation Code Violation,Dumpster not being emptied,410 E 107TH ST,60628.0,1180914.78778454,1834099.82979822,9.0,5.0,49.0,41.70001624568383,-87.61317761494932,"(41.70001624568383, -87.61317761494931)",2013-06-08
44150,06/08/2013,Completed,06/10/2013,13-00719662,Sanitation Code Violation,Garbage in yard,2725 W FITCH AVE,60645.0,1156924.02392653,1947314.47267781,50.0,24.0,2.0,42.01120650486167,-87.69795490848672,"(42.01120650486167, -87.69795490848674)",2013-06-08
44151,06/08/2013,Completed,06/10/2013,13-00719666,Sanitation Code Violation,Other,6041 S MASON AVE,60638.0,1137767.28541448,1863883.96998193,13.0,8.0,64.0,41.78263133985057,-87.77045531988699,"(41.78263133985056, -87.77045531988699)",2013-06-08
44152,06/08/2013,Completed,06/10/2013,13-00719840,Sanitation Code Violation,Other,1701 W LAWRENCE AVE,60640.0,1164353.07270997,1931939.27677075,47.0,19.0,3.0,41.968861956306135,-87.67105788739265,"(41.96886195630613, -87.67105788739265)",2013-06-08
44153,06/08/2013,Completed,06/10/2013,13-00719953,Sanitation Code Violation,Other,5408 S KEELER AVE,60632.0,1149284.91642388,1868416.26119774,23.0,8.0,62.0,41.794853997583644,-87.72811062781841,"(41.79485399758364, -87.7281106278184)",2013-06-08
44154,06/08/2013,Completed,06/10/2013,13-00719955,Sanitation Code Violation,Dog feces in yard,6037 S NATOMA AVE,60638.0,1133106.09446906,1863768.42458836,23.0,8.0,64.0,41.78239672215717,-87.78754771528169,"(41.782396722157166, -87.78754771528169)",2013-06-08
44155,06/08/2013,Completed,06/10/2013,13-00719968,Sanitation Code Violation,Other,917 W WOLFRAM ST,60657.0,1169670.40849169,1919122.38020449,44.0,19.0,6.0,41.933577461774775,-87.65188100255106,"(41.93357746177477, -87.65188100255106)",2013-06-08
44156,06/08/2013,Completed,06/10/2013,13-00720721,Sanitation Code Violation,Dog feces in yard,3203 S KOMENSKY AVE,60623.0,1149886.06579585,1883050.31890547,22.0,10.0,30.0,41.83500030154968,-87.72552662163578,"(41.835000301549684, -87.72552662163578)",2013-06-08
44157,06/06/2013,Completed,06/10/2013,13-00707519,Sanitation Code Violation,Garbage in yard,5124 S PAULINA ST,60609.0,1165877.22387933,1870725.39806588,16.0,9.0,61.0,41.80085387951427,-87.6672008143086,"(41.80085387951427, -87.66720081430861)",2013-06-06
44158,06/06/2013,Completed,06/10/2013,13-00708581,Sanitation Code Violation,Garbage in yard,2345 W FOSTER AVE,60625.0,1159668.2098839,1934469.91389614,47.0,20.0,4.0,41.97590422563498,-87.68821393652658,"(41.97590422563498, -87.68821393652658)",2013-06-06
44159,06/06/2013,Completed,06/10/2013,13-00709187,Sanitation Code Violation,Garbage in alley,6802 S CORNELL AVE,60649.0,1188374.97060187,1860205.35506736,5.0,3.0,43.0,41.77147801215925,-87.58503069557129,"(41.77147801215925, -87.5850306955713)",2013-06-06
44160,06/06/2013,Completed,06/10/2013,13-00710211,Sanitation Code Violation,Garbage in yard,12508 S INDIANA AVE,60628.0,1179871.64043417,1821717.419391,9.0,5.0,53.0,41.666060982666586,-87.61737395009888,"(41.666060982666586, -87.61737395009888)",2013-06-06
44161,06/06/2013,Completed,06/10/2013,13-00710919,Sanitation Code Violation,Other,6357 S MAPLEWOOD AVE,60629.0,1160465.95077254,1862413.04019497,15.0,8.0,66.0,41.77815701569895,-87.6872749350252,"(41.77815701569895, -87.6872749350252)",2013-06-06
44162,06/06/2013,Completed,06/10/2013,13-00711501,Sanitation Code Violation,Other,2353 S HOMAN AVE,60623.0,1154068.84220409,1888152.70572666,22.0,10.0,30.0,41.84891962844132,-87.71004278907847,"(41.848919628441315, -87.71004278907847)",2013-06-06
44163,06/07/2013,Completed,06/10/2013,13-00712679,Sanitation Code Violation,Other,5718 S ARTESIAN AVE,60629.0,1161011.34842563,1866682.72698768,16.0,8.0,63.0,41.78986235534913,-87.68515747654791,"(41.78986235534913, -87.6851574765479)",2013-06-07
44164,06/07/2013,Completed,06/10/2013,13-00712731,Sanitation Code Violation,Other,5720 S ARTESIAN AVE,60629.0,1161011.74842563,1866669.32698768,16.0,8.0,63.0,41.78982557568965,-87.68515638028839,"(41.78982557568965, -87.68515638028839)",2013-06-07
44165,06/04/2013,Completed,06/10/2013,13-00688232,Sanitation Code Violation,Other,3337 S CARPENTER ST,60608.0,1169858.46657214,1882710.92062876,11.0,9.0,60.0,41.833657780054715,-87.65225187412304,"(41.833657780054715, -87.65225187412304)",2013-06-04
44166,06/04/2013,Completed,06/10/2013,13-00689769,Sanitation Code Violation,Other,2317 W WINNEMAC AVE,60625.0,1159919.16002038,1933430.69947475,47.0,20.0,4.0,41.97304738410028,-87.68731991585321,"(41.97304738410028, -87.68731991585322)",2013-06-04
44167,06/04/2013,Completed,06/10/2013,13-00690228,Sanitation Code Violation,Garbage in alley,1617 W BERTEAU AVE,60613.0,1164828.69778674,1927964.78460001,47.0,19.0,6.0,41.957945683748605,-87.6694222659766,"(41.957945683748605, -87.6694222659766)",2013-06-04
44168,06/04/2013,Completed,06/10/2013,13-00691439,Sanitation Code Violation,Overflowing carts,7226 S CHAMPLAIN AVE,60619.0,1181814.98268142,1857246.37328173,6.0,3.0,69.0,41.76351237809306,-87.60916842380475,"(41.76351237809306, -87.60916842380473)",2013-06-04
44169,06/04/2013,Completed,06/10/2013,13-00692375,Sanitation Code Violation,Other,7615 S DANTE AVE,60619.0,1187193.9503948,1854787.38448197,5.0,4.0,43.0,41.75663873109401,-87.58953158478903,"(41.75663873109401, -87.58953158478903)",2013-06-04
44170,06/04/2013,Completed,06/10/2013,13-00693616,Sanitation Code Violation,Other,533 E 88TH PL,60619.0,1181345.8936201,1846419.38962098,6.0,6.0,44.0,41.7338127643504,-87.61122075260704,"(41.7338127643504, -87.61122075260705)",2013-06-04
44171,06/04/2013,Completed,06/10/2013,13-00694548,Sanitation Code Violation,Dumpster not being emptied,5452 S ELLIS AVE,60615.0,1183875.83417242,1869289.80931088,5.0,2.0,41.0,41.79651278588872,-87.6012392573558,"(41.79651278588872, -87.60123925735579)",2013-06-04
44172,06/04/2013,Completed,06/10/2013,13-00695281,Sanitation Code Violation,Garbage in yard,11416 S OAKLEY AVE,60643.0,1163008.30997283,1828800.21003215,19.0,22.0,75.0,41.68586533405416,-87.67889144578602,"(41.685865334054164, -87.67889144578602)",2013-06-04
44173,06/04/2013,Completed,06/10/2013,13-00695656,Sanitation Code Violation,Other,6800 S CORNELL AVE,60649.0,1188374.57060187,1860218.65506736,5.0,3.0,43.0,41.77151451801832,-87.58503173762733,"(41.77151451801832, -87.58503173762733)",2013-06-04
44174,06/05/2013,Completed,06/10/2013,13-00699486,Sanitation Code Violation,Other,3221 W 61ST ST,60629.0,1155867.57007062,1863996.1361673,15.0,8.0,66.0,41.78259482973552,-87.7040904596632,"(41.782594829735515, -87.7040904596632)",2013-06-05
44175,06/05/2013,Completed,06/10/2013,13-00702283,Sanitation Code Violation,Overflowing carts,3640 N ASHLAND AVE,60613.0,1165005.59188242,1924242.22719368,47.0,19.0,6.0,41.94772705241192,-87.66887804811658,"(41.94772705241192, -87.6688780481166)",2013-06-05
44176,06/05/2013,Completed,06/10/2013,13-00703513,Sanitation Code Violation,Other,12238 S LA SALLE ST,60628.0,1177475.24446847,1823796.51648745,9.0,5.0,53.0,41.67182064903691,-87.62608147357237,"(41.67182064903691, -87.62608147357238)",2013-06-05
44177,06/05/2013,Completed,06/10/2013,13-00703642,Sanitation Code Violation,Other,12053 S LA SALLE ST,60628.0,1177435.03011339,1825040.13056805,9.0,5.0,53.0,41.67523422498087,-87.62619130492952,"(41.67523422498087, -87.62619130492953)",2013-06-05
44178,06/05/2013,Completed,06/10/2013,13-00703661,Sanitation Code Violation,Garbage in yard,1228 W 32ND PL,60608.0,1168661.16557103,1883256.02279656,11.0,9.0,60.0,41.83517955858019,-87.65662926029682,"(41.83517955858019, -87.65662926029682)",2013-06-05
44179,06/05/2013,Completed,06/10/2013,13-00703695,Sanitation Code Violation,Construction Site Cleanliness/Fence,1804 W WILSON AVE,60640.0,1163377.799373,1930582.94030557,47.0,19.0,4.0,41.96516074263647,-87.67468227437767,"(41.96516074263647, -87.67468227437767)",2013-06-05
44180,06/05/2013,Completed,06/10/2013,13-00703994,Sanitation Code Violation,Garbage in yard,3518 W 59TH PL,60629.0,1153970.03396855,1864938.63941654,16.0,8.0,66.0,41.78521909436935,-87.7110224466433,"(41.78521909436935, -87.7110224466433)",2013-06-05
44181,06/05/2013,Completed,06/10/2013,13-00704606,Sanitation Code Violation,Garbage in alley,2724 S WALLACE ST,60616.0,1172742.21560281,1886597.62992674,11.0,9.0,60.0,41.844260011880436,-87.64155597208952,"(41.844260011880436, -87.64155597208952)",2013-06-05
44182,06/05/2013,Completed,06/10/2013,13-00704784,Sanitation Code Violation,Other,2156 W EASTWOOD AVE,60625.0,1161183.92090065,1930855.81443272,47.0,19.0,4.0,41.965955516704454,-87.68274101897867,"(41.96595551670445, -87.68274101897867)",2013-06-05
44190,06/01/2013,Completed,06/10/2013,13-00676710,Sanitation Code Violation,Garbage in yard,733 E 69TH PL,60637.0,1182218.91872093,1858957.0584924,6.0,3.0,42.0,41.768197328177344,-87.60763503047052,"(41.76819732817734, -87.60763503047053)",2013-06-01
44191,06/01/2013,Completed,06/10/2013,13-00676889,Sanitation Code Violation,Other,6649 S ROCKWELL ST,60629.0,1160185.81217939,1860463.83330803,15.0,8.0,66.0,41.77281388654675,-87.68835553444124,"(41.77281388654675, -87.68835553444123)",2013-06-01
44192,06/01/2013,Completed,06/10/2013,13-00676894,Sanitation Code Violation,Other,726 E 90TH PL,60619.0,1182657.54462074,1845127.91398537,6.0,6.0,44.0,41.730238507015244,-87.60645550239143,"(41.73023850701524, -87.60645550239144)",2013-06-01
44193,06/02/2013,Completed,06/10/2013,13-00678387,Sanitation Code Violation,Other,6048 S WASHTENAW AVE,60629.0,1159411.9984783002,1864439.06478323,15.0,8.0,66.0,41.783738375651076,-87.69108331687887,"(41.78373837565108, -87.69108331687887)",2013-06-02
44194,06/03/2013,Completed,06/10/2013,13-00681842,Sanitation Code Violation,Other,4306 N ALBANY AVE,60618.0,1154944.26170053,1928453.76479881,33.0,17.0,16.0,41.959491864904244,-87.70574780081503,"(41.95949186490424, -87.70574780081503)",2013-06-03
44195,06/03/2013,Completed,06/10/2013,13-00684321,Sanitation Code Violation,,7119 S PRINCETON AVE,60621.0,1175525.69151008,1857753.57203381,6.0,7.0,69.0,41.7650471732369,-87.63220467348673,"(41.765047173236894, -87.63220467348674)",2013-06-03
44196,06/03/2013,Completed,06/10/2013,13-00684605,Sanitation Code Violation,Dog feces in yard,3324 W SUNNYSIDE AVE,60625.0,1153316.75809262,1929710.67229084,33.0,17.0,14.0,41.96297345291311,-87.71169772034806,"(41.96297345291311, -87.71169772034804)",2013-06-03
44291,06/11/2013,Completed,06/11/2013,13-00730746,Sanitation Code Violation,Overflowing carts,925 N WILLARD CT,60642.0,1167951.12982922,1906387.07507237,27.0,12.0,24.0,41.89866837441511,-87.65856745062064,"(41.89866837441511, -87.65856745062062)",2013-06-11
44292,06/11/2013,Completed,06/11/2013,13-00731101,Sanitation Code Violation,Other,3256 W POTOMAC AVE,60651.0,1154414.73339262,1908464.32703162,26.0,14.0,23.0,41.90464993171757,-87.70823040077637,"(41.90464993171757, -87.70823040077636)",2013-06-11
44293,06/11/2013,Completed,06/11/2013,13-00733859,Sanitation Code Violation,Garbage in alley,7012 S STONY ISLAND AVE,60649.0,1188024.22452284,1858760.27089394,5.0,3.0,43.0,41.767520945265154,-87.58636239698579,"(41.76752094526516, -87.58636239698579)",2013-06-11
44294,06/10/2013,Completed,06/11/2013,13-00729345,Sanitation Code Violation,Garbage in yard,10704 S HOXIE AVE,60617.0,1195220.25729977,1834542.77749158,10.0,4.0,51.0,41.700891552176095,-87.56078310321327,"(41.70089155217609, -87.56078310321328)",2013-06-10
44295,06/10/2013,Completed,06/11/2013,13-00729540,Sanitation Code Violation,Garbage in alley,847 W GRAND AVE,60642.0,1170562.89837652,1903674.02153266,27.0,12.0,24.0,41.891166816534636,-87.64905410503772,"(41.891166816534636, -87.64905410503772)",2013-06-10
44296,06/10/2013,Completed,06/11/2013,13-00729845,Sanitation Code Violation,Garbage in yard,3428 W BELDEN AVE,60647.0,1153201.33812609,1915080.44519523,26.0,14.0,22.0,41.922829321307894,-87.71251165854963,"(41.9228293213079, -87.71251165854964)",2013-06-10
44297,06/10/2013,Completed,06/11/2013,13-00729848,Sanitation Code Violation,Garbage in yard,3424 W BELDEN AVE,60647.0,1153219.23812609,1915080.84519523,26.0,14.0,22.0,41.922830063314116,-87.71244587702942,"(41.92283006331412, -87.71244587702942)",2013-06-10
44298,06/10/2013,Completed,06/11/2013,13-00729857,Sanitation Code Violation,Garbage in yard,3414 W BELDEN AVE,60647.0,1153264.03812609,1915081.94519523,26.0,14.0,22.0,41.92283219157944,-87.71228123684556,"(41.92283219157944, -87.71228123684554)",2013-06-10
44299,06/10/2013,Completed,06/11/2013,13-00729911,Sanitation Code Violation,Other,12351 S PERRY AVE,60628.0,1177829.20012844,1823054.15392203,9.0,5.0,53.0,41.669775511200754,-87.62480834365148,"(41.669775511200754, -87.62480834365148)",2013-06-10
44300,06/10/2013,Completed,06/11/2013,13-00729947,Sanitation Code Violation,Garbage in alley,1354 W ESTES AVE,60626.0,1166010.91170229,1947521.77873082,49.0,24.0,1.0,42.01158541646157,-87.66451461095338,"(42.01158541646157, -87.66451461095338)",2013-06-10
44301,06/10/2013,Completed,06/11/2013,13-00730131,Sanitation Code Violation,Overflowing carts,1552 W OLIVE AVE,60660.0,1164830.09678939,1937614.84629247,40.0,20.0,77.0,41.98442578480504,-87.66914207787848,"(41.98442578480504, -87.66914207787848)",2013-06-10
44302,06/10/2013,Completed,06/11/2013,13-00730241,Sanitation Code Violation,Garbage in yard,2817 N WHIPPLE ST,60618.0,1155557.3863796,1918572.94861518,35.0,14.0,21.0,41.932365887418975,-87.70376049791389,"(41.93236588741898, -87.70376049791389)",2013-06-10
44303,06/08/2013,Completed,06/11/2013,13-00719153,Sanitation Code Violation,Garbage in alley,2715 W MADISON ST,60612.0,1158274.03190235,1899906.42801298,2.0,11.0,27.0,41.881088251355024,-87.69428817676916,"(41.881088251355024, -87.69428817676916)",2013-06-08
44304,06/08/2013,Completed,06/11/2013,13-00719713,Sanitation Code Violation,Garbage in yard,2913 W WILCOX ST,60612.0,1156990.78193432,1899215.94282363,2.0,11.0,27.0,41.879219616916025,-87.69901894326942,"(41.87921961691602, -87.69901894326942)",2013-06-08
44305,06/08/2013,Completed,06/11/2013,13-00719753,Sanitation Code Violation,Dumpster not being emptied,5710 W FULLERTON AVE,60639.0,1137869.15522845,1915377.87348233,30.0,25.0,19.0,41.92393627407595,-87.76884070422977,"(41.92393627407595, -87.76884070422976)",2013-06-08
44306,06/08/2013,Completed,06/11/2013,13-00719836,Sanitation Code Violation,Garbage in yard,8748 S HOUSTON AVE,60617.0,1198041.25998114,1847549.34170348,10.0,4.0,46.0,41.73651278289315,-87.55002050915859,"(41.73651278289315, -87.5500205091586)",2013-06-08
44307,06/08/2013,Completed,06/11/2013,13-00719908,Sanitation Code Violation,Other,9901 S HALSTED ST,60628.0,1172728.51839872,1839199.94299385,34.0,22.0,73.0,41.71419564936865,-87.64300260788343,"(41.71419564936865, -87.64300260788343)",2013-06-08
44308,06/08/2013,Completed,06/11/2013,13-00720249,Sanitation Code Violation,Dog feces in yard,2822 W PALMER ST,60647.0,1157099.06989378,1914690.80027903,35.0,14.0,22.0,41.921681778835335,-87.69820065688202,"(41.921681778835335, -87.69820065688201)",2013-06-08
44309,06/08/2013,Completed,06/11/2013,13-00720356,Sanitation Code Violation,Other,400 S ASHLAND AVE,60607.0,1165809.8440014,1898237.40710664,2.0,12.0,28.0,41.87635101066566,-87.66666479808036,"(41.87635101066566, -87.66666479808038)",2013-06-08
44310,06/08/2013,Completed,06/11/2013,13-00720462,Sanitation Code Violation,Other,1636 W CHICAGO AVE,60622.0,1165226.07988401,1905412.31011844,1.0,12.0,24.0,41.8960519259706,-87.66860411268715,"(41.8960519259706, -87.66860411268716)",2013-06-08
44311,06/08/2013,Completed,06/11/2013,13-00720535,Sanitation Code Violation,Garbage in yard,3565 W MCLEAN AVE,60647.0,1152300.58197035,1913390.87520016,26.0,14.0,22.0,41.9182108417545,-87.7158660540247,"(41.9182108417545, -87.7158660540247)",2013-06-08
44312,06/09/2013,Completed - Dup,06/11/2013,13-00721450,Sanitation Code Violation,Dumpster not being emptied,5402 W VAN BUREN ST,60644.0,1140502.65819467,1897486.0534749,29.0,15.0,25.0,41.874791017206675,-87.75960368661505,"(41.874791017206675, -87.75960368661504)",2013-06-09
44313,06/09/2013,Completed,06/11/2013,13-00721130,Sanitation Code Violation,Other,819 N BISHOP ST,60642.0,1166586.23016834,1905653.21452256,27.0,12.0,24.0,41.896683958562214,-87.66360167150731,"(41.89668395856221, -87.6636016715073)",2013-06-09
44314,06/09/2013,Completed,06/11/2013,13-00721174,Sanitation Code Violation,Dumpster not being emptied,5402 W VAN BUREN ST,60644.0,1140502.65819467,1897486.0534749,29.0,15.0,25.0,41.874791017206675,-87.75960368661505,"(41.874791017206675, -87.75960368661504)",2013-06-09
44315,06/09/2013,Completed,06/11/2013,13-00721205,Sanitation Code Violation,Overflowing carts,2000 W WARREN BLVD,60612.0,1163070.50287546,1900359.41060246,2.0,12.0,28.0,41.882231916784725,-87.67666311282741,"(41.882231916784725, -87.67666311282741)",2013-06-09
44316,06/09/2013,Completed,06/11/2013,13-00721278,Sanitation Code Violation,Dog feces in yard,4432 W PARKER AVE,60639.0,1146359.64747408,1917877.81002585,31.0,25.0,20.0,41.930638723732685,-87.73757910084187,"(41.93063872373269, -87.73757910084186)",2013-06-09
44317,06/09/2013,Completed,06/11/2013,13-00721286,Sanitation Code Violation,Dumpster not being emptied,1126 N KILBOURN AVE,60651.0,1146163.03267162,1907222.45007073,37.0,11.0,23.0,41.90140309299532,-87.73857316905061,"(41.90140309299532, -87.73857316905061)",2013-06-09
44318,06/09/2013,Completed,06/11/2013,13-00721469,Sanitation Code Violation,Garbage in yard,2838 N CHRISTIANA AVE,60618.0,1153562.90000824,1918678.1904696,35.0,14.0,21.0,41.93269463456143,-87.71108722026148,"(41.93269463456143, -87.71108722026149)",2013-06-09
44319,06/09/2013,Completed,06/11/2013,13-00721825,Sanitation Code Violation,Garbage in alley,4128 W ADDISON ST,60641.0,1148295.17999734,1923611.69997641,30.0,17.0,16.0,41.94633588314663,-87.73031816451133,"(41.94633588314663, -87.73031816451135)",2013-06-09
44320,06/09/2013,Completed,06/11/2013,13-00721907,Sanitation Code Violation,Garbage in yard,3142 W BLOOMINGDALE AVE,60647.0,1155010.1299253001,1911776.55218895,26.0,14.0,23.0,41.913727039303005,-87.7059543371058,"(41.913727039303, -87.7059543371058)",2013-06-09
44321,06/10/2013,Completed - Dup,06/11/2013,13-00725265,Sanitation Code Violation,Other,560 W GRAND AVE,60654.0,1172402.04003213,1903743.6106091,27.0,12.0,24.0,41.8913173275258,-87.64229782570108,"(41.8913173275258, -87.64229782570108)",2013-06-10
44322,06/10/2013,Completed,06/11/2013,13-00722731,Sanitation Code Violation,Dumpster not being emptied,3441 W BELLE PLAINE AVE,60618.0,1152604.06421588,1927038.77761861,35.0,17.0,16.0,41.955655752196705,-87.71438900693508,"(41.9556557521967, -87.71438900693508)",2013-06-10
44323,06/10/2013,Completed,06/11/2013,13-00723709,Sanitation Code Violation,Other,6532 N OAK PARK AVE,60631.0,1130423.64978123,1943063.94989745,41.0,16.0,10.0,42.000041028916286,-87.7955604814438,"(42.000041028916286, -87.7955604814438)",2013-06-10
44324,06/10/2013,Completed,06/11/2013,13-00724357,Sanitation Code Violation,Dog feces in yard,10634 S PRAIRIE AVE,60628.0,1179797.53519165,1834506.81002711,9.0,5.0,49.0,41.70115861875749,-87.61725612056688,"(41.701158618757496, -87.61725612056689)",2013-06-10
44325,06/10/2013,Completed,06/11/2013,13-00725115,Sanitation Code Violation,Garbage in yard,7640 W RASCHER AVE,60656.0,1124405.07360547,1935284.74013194,41.0,16.0,10.0,41.978795675209646,-87.81787418589617,"(41.97879567520965, -87.81787418589617)",2013-06-10
44326,06/10/2013,Completed,06/11/2013,13-00725228,Sanitation Code Violation,Other,560 W GRAND AVE,60654.0,1172402.04003213,1903743.6106091,27.0,12.0,24.0,41.8913173275258,-87.64229782570108,"(41.8913173275258, -87.64229782570108)",2013-06-10
44327,06/10/2013,Completed,06/11/2013,13-00725237,Sanitation Code Violation,Other,16 E 124TH ST,60628.0,1178592.96832897,1822749.88877151,9.0,5.0,53.0,41.66892329432736,-87.62202225144425,"(41.668923294327364, -87.62202225144425)",2013-06-10
44328,06/10/2013,Completed,06/11/2013,13-00725246,Sanitation Code Violation,Other,560 W GRAND AVE,60654.0,1172402.04003213,1903743.6106091,27.0,12.0,24.0,41.8913173275258,-87.64229782570108,"(41.8913173275258, -87.64229782570108)",2013-06-10
44329,06/10/2013,Completed,06/11/2013,13-00725400,Sanitation Code Violation,Dog feces in yard,7750 W VICTORIA ST,60631.0,1123610.73817588,1937607.13999226,41.0,16.0,10.0,41.98518166818107,-87.82074434938605,"(41.98518166818107, -87.82074434938605)",2013-06-10
44330,06/10/2013,Completed,06/11/2013,13-00726686,Sanitation Code Violation,Other,5945 W TOUHY AVE,60646.0,1135873.81103191,1947446.30801458,41.0,16.0,12.0,42.01197086718592,-87.775405177932,"(42.01197086718592, -87.775405177932)",2013-06-10
44331,06/10/2013,Completed,06/11/2013,13-00726894,Sanitation Code Violation,Other,5958 S FRANCISCO AVE,60629.0,1158065.82239441,1864997.96388884,16.0,8.0,66.0,41.78529956039782,-87.69600372980112,"(41.78529956039782, -87.69600372980113)",2013-06-10
44332,06/10/2013,Completed,06/11/2013,13-00726967,Sanitation Code Violation,Garbage in yard,3575 W MCLEAN AVE,60647.0,1152225.85122421,1913389.06988257,26.0,14.0,22.0,41.91820736395378,-87.71614066912134,"(41.91820736395378, -87.71614066912134)",2013-06-10
44333,06/10/2013,Completed,06/11/2013,13-00727040,Sanitation Code Violation,Overflowing carts,1627 W FARWELL AVE,60626.0,1164284.26729567,1945692.29948651,49.0,24.0,1.0,42.006602129923905,-87.67091975233197,"(42.00660212992391, -87.67091975233195)",2013-06-10
44334,06/10/2013,Completed,06/11/2013,13-00727748,Sanitation Code Violation,Garbage in alley,906 N CALIFORNIA AVE,60622.0,1157558.16069083,1905934.10997791,26.0,12.0,24.0,41.89764336082012,-87.69675261781418,"(41.89764336082012, -87.69675261781417)",2013-06-10
44335,06/10/2013,Completed,06/11/2013,13-00727969,Sanitation Code Violation,Garbage in yard,10400 S INDIANA AVE,60628.0,1179419.53407866,1836054.96210711,9.0,5.0,49.0,41.705415575895366,-87.61859317476244,"(41.70541557589537, -87.61859317476244)",2013-06-10
