Creation Date,Status,Completion Date,Service Request Number,Type of Service Request,Location of Trees,Street Address,ZIP Code,X Coordinate,Y Coordinate,Ward,Police District,Community Area,Latitude,Longitude,Location,date
05/01/2010,Completed - Dup,01/27/2011,10-00588201,Tree Trim,Parkway,8552 S LOOMIS BLVD,60620.0,1168489.21501188,1848040.4755895,21.0,6.0,71.0,41.738547608500404,-87.65827472969255,"(41.73854760850041, -87.65827472969255)",2010-05-01
05/01/2010,Completed,01/25/2011,10-00588202,Tree Trim,Vacant Lot,6649 S RHODES AVE,60637.0,1181046.69369864,1861044.67010717,20.0,3.0,42.0,41.773953003671814,-87.61186755789362,"(41.773953003671814, -87.61186755789363)",2010-05-01
05/01/2010,Completed,01/27/2011,10-00587906,Tree Trim,Parkway,8552 S LOOMIS BLVD,60620.0,1168489.21501188,1848040.4755895,21.0,6.0,71.0,41.738547608500404,-87.65827472969255,"(41.73854760850041, -87.65827472969255)",2010-05-01
05/01/2010,Completed,01/27/2011,10-00588206,Tree Trim,Parkway,8556 S LOOMIS BLVD,60620.0,1168490.01501188,1848013.6755895,21.0,6.0,71.0,41.73847404825214,-87.65827256886476,"(41.73847404825214, -87.65827256886476)",2010-05-01
05/01/2010,Completed,02/17/2011,10-00588621,Tree Trim,Parkway,5457 W HUTCHINSON ST,60641.0,1139201.46111157,1927723.03180402,38.0,16.0,15.0,41.95778846191438,-87.76364375254333,"(41.95778846191438, -87.76364375254335)",2010-05-01
05/02/2010,Completed - Dup,01/11/2011,10-00590117,Tree Trim,,3356 W 60TH PL,60629.0,1155052.90788902,1864305.6188041,16.0,8.0,66.0,41.78346041667118,-87.70706901546906,"(41.78346041667118, -87.70706901546906)",2010-05-02
05/02/2010,Completed,01/11/2011,10-00590109,Tree Trim,Parkway,3356 W 60TH PL,60629.0,1155052.90788902,1864305.6188041,16.0,8.0,66.0,41.78346041667118,-87.70706901546906,"(41.78346041667118, -87.70706901546906)",2010-05-02
05/02/2010,Completed,01/14/2011,10-00590751,Tree Trim,Parkway,6152 W LAWRENCE AVE,60630.0,1134484.04478118,1931254.05473262,38.0,16.0,15.0,41.9675626839355,-87.78090317055587,"(41.96756268393549, -87.78090317055587)",2010-05-02
05/02/2010,Completed,01/26/2011,10-00590048,Tree Trim,Parkway,4957 N KEYSTONE AVE,60630.0,1148496.73011628,1932636.43759238,39.0,17.0,14.0,41.971096550267184,-87.72934351474258,"(41.97109655026719, -87.7293435147426)",2010-05-02
05/02/2010,Completed,03/01/2011,10-00589055,Tree Trim,Parkway,6714 S MORGAN ST,60621.0,1170800.87039009,1860302.75413433,17.0,7.0,68.0,41.772146822496154,-87.64944819671587,"(41.77214682249616, -87.64944819671588)",2010-05-02
05/02/2010,Completed,03/10/2011,10-00589589,Tree Trim,Parkway,4827 S JUSTINE ST,60609.0,1166819.35009409,1872718.1460819,20.0,9.0,61.0,41.80630212133424,-87.66368877997137,"(41.80630212133424, -87.66368877997137)",2010-05-02
05/02/2010,Completed,04/29/2011,10-00589284,Tree Trim,Parkway,4005 W OAKDALE AVE,60641.0,1149179.55562376,1919313.27992567,31.0,25.0,21.0,41.93452354260696,-87.72717917662075,"(41.93452354260696, -87.72717917662075)",2010-05-02
05/03/2010,Completed - Dup,01/14/2011,10-00594044,Tree Trim,Parkway,4535 N AUSTIN AVE,60630.0,1135528.57131248,1929544.52998961,38.0,16.0,15.0,41.96285303969103,-87.77710329100908,"(41.962853039691026, -87.77710329100908)",2010-05-03
05/03/2010,Completed - Dup,01/28/2011,10-00598944,Tree Trim,Parkway,7423 S PAXTON AVE,60649.0,1192167.54878358,1856175.73033257,7.0,3.0,43.0,41.760329018854186,-87.57125951128674,"(41.760329018854186, -87.57125951128673)",2010-05-03
05/03/2010,Completed,01/03/2011,10-00598587,Tree Trim,Parkway,41 N LOREL AVE,60644.0,1140716.7498802,1899801.68209539,28.0,15.0,25.0,41.881141470269476,-87.75876070379759,"(41.881141470269476, -87.75876070379759)",2010-05-03
05/03/2010,Completed,01/04/2011,10-00598112,Tree Trim,Parkway,5238 N MASON AVE,60630.0,1135537.7883995,1934468.8338112,45.0,16.0,11.0,41.97636562453565,-87.77695182604698,"(41.97636562453566, -87.77695182604698)",2010-05-03
05/03/2010,Completed,01/05/2011,10-00594604,Tree Trim,,5342 N MEADE AVE,60630.0,1134453.35297781,1935148.26316738,45.0,16.0,11.0,41.978249299120606,-87.78092369309256,"(41.9782492991206, -87.78092369309255)",2010-05-03
05/03/2010,Completed,01/10/2011,10-00590912,Tree Trim,Parkway,5811 S CLAREMONT AVE,60636.0,1161747.74187234,1866025.69077139,16.0,8.0,63.0,41.78804409455511,-87.68247556078899,"(41.78804409455511, -87.68247556078899)",2010-05-03
05/03/2010,Completed,01/10/2011,10-00596217,Tree Trim,Parkway,3259 W 66TH ST,60629.0,1155794.0452949,1860675.30157491,15.0,8.0,66.0,41.773483440668116,-87.704449064415,"(41.773483440668116, -87.704449064415)",2010-05-03
05/03/2010,Completed,01/11/2011,10-00598903,Tree Trim,Parkway,6009 W HENDERSON ST,60634.0,1135732.60307179,1921651.24320077,36.0,16.0,17.0,41.94118942300163,-87.77654167002373,"(41.94118942300163, -87.77654167002373)",2010-05-03
05/03/2010,Completed,01/19/2011,10-00594539,Tree Trim,Parkway,8546 S KNOX AVE,60652.0,1146924.42998106,1847463.24131078,18.0,8.0,70.0,41.737400594064056,-87.73729907285534,"(41.737400594064056, -87.73729907285535)",2010-05-03
05/03/2010,Completed,01/25/2011,10-00596215,Tree Trim,Parkway,12804 S EMERALD AVE,60628.0,1173659.73822345,1819926.81560514,34.0,5.0,53.0,41.66128663010633,-87.64016008576546,"(41.66128663010633, -87.64016008576546)",2010-05-03
05/03/2010,Completed,01/27/2011,10-00594119,Tree Trim,Parkway,8531 S LOOMIS BLVD,60620.0,1168485.32201207,1848181.17581976,21.0,6.0,71.0,41.73893379381203,-87.65828494930409,"(41.73893379381203, -87.65828494930409)",2010-05-03
05/03/2010,Completed,01/27/2011,10-00595988,Tree Trim,Parkway,1732 N ALBANY AVE,60647.0,1155385.62451279,1911338.90971564,26.0,14.0,23.0,41.91251856593114,-87.70458662285189,"(41.91251856593113, -87.70458662285189)",2010-05-03
05/03/2010,Completed,01/27/2011,10-00597411,Tree Trim,Parkway,12347 S WENTWORTH AVE,60628.0,1177171.36612028,1823066.72370494,9.0,5.0,53.0,41.66982482153561,-87.62721554819122,"(41.669824821535606, -87.62721554819122)",2010-05-03
05/03/2010,Completed,01/28/2011,10-00598590,Tree Trim,Parkway,7423 S PAXTON AVE,60649.0,1192167.54878358,1856175.73033257,7.0,3.0,43.0,41.760329018854186,-87.57125951128674,"(41.760329018854186, -87.57125951128673)",2010-05-03
05/03/2010,Completed,02/16/2011,10-00598288,Tree Trim,,3839 N KEELER AVE,60641.0,1147721.09060219,1925192.93103431,38.0,17.0,16.0,41.9506859740859,-87.73238760120954,"(41.9506859740859, -87.73238760120954)",2010-05-03
05/03/2010,Completed,02/16/2011,10-00598738,Tree Trim,Parkway,3700 N MONTICELLO AVE,60618.0,1151399.43439421,1924352.81398814,39.0,17.0,16.0,41.948309060316824,-87.71888830690521,"(41.94830906031682, -87.71888830690521)",2010-05-03
05/03/2010,Completed,02/17/2011,10-00596925,Tree Trim,Parkway,800 W CORNELIA AVE,60657.0,1170302.81190254,1923458.18186701,44.0,23.0,6.0,41.94546126452331,-87.64942985003228,"(41.94546126452331, -87.64942985003226)",2010-05-03
05/03/2010,Completed,02/22/2011,10-00595794,Tree Trim,Parkway,5216 W NEWPORT AVE,60641.0,1140981.47030438,1922439.98801686,38.0,16.0,15.0,41.943258639991626,-87.75723030004774,"(41.943258639991626, -87.75723030004775)",2010-05-03
05/03/2010,Completed,03/01/2011,10-00596907,Tree Trim,Parkway,14 N SANGAMON ST,60607.0,1170094.83498368,1900292.63998252,27.0,12.0,28.0,41.88189830686724,-87.65087182416259,"(41.88189830686724, -87.65087182416259)",2010-05-03
05/03/2010,Completed,03/04/2011,10-00597450,Tree Trim,Parkway,1332 S KEELER AVE,60623.0,1148596.5610771999,1893494.22463292,24.0,10.0,29.0,41.86368465842474,-87.7299890000058,"(41.863684658424745, -87.7299890000058)",2010-05-03
05/03/2010,Completed,03/09/2011,10-00596202,Tree Trim,Parkway,6115 S WHIPPLE ST,60629.0,1157098.77462248,1863929.62096884,15.0,8.0,66.0,41.782387489424316,-87.69957826023511,"(41.78238748942431, -87.69957826023511)",2010-05-03
05/03/2010,Completed,03/09/2011,10-00596349,Tree Trim,Parkway,2842 S NORMAL AVE,60616.0,1173204.15056579,1885976.92671485,11.0,9.0,60.0,41.842546528532736,-87.63987915575079,"(41.842546528532736, -87.63987915575079)",2010-05-03
05/03/2010,Completed,03/09/2011,10-00597091,Tree Trim,Parkway,2036 W 82ND PL,60620.0,1164068.30992714,1849944.63433217,18.0,6.0,71.0,41.74386692579324,-87.67441861058997,"(41.74386692579324, -87.67441861058997)",2010-05-03
05/03/2010,Completed,03/09/2011,10-00597162,Tree Trim,Parkway,4249 N BELL AVE,60618.0,1160600.5610808001,1928178.25388561,47.0,19.0,5.0,41.95862029084304,-87.68496041537315,"(41.95862029084304, -87.68496041537315)",2010-05-03
05/03/2010,Completed,03/10/2011,10-00597518,Tree Trim,Parkway,4135 N MAPLEWOOD AVE,60618.0,1158653.87836566,1927379.9333314998,47.0,19.0,5.0,41.95646984872556,-87.69213914091297,"(41.95646984872556, -87.69213914091297)",2010-05-03
05/03/2010,Completed,03/11/2011,10-00598221,Tree Trim,Parkway,537 N TROY ST,60612.0,1155280.50007764,1903465.41499462,27.0,13.0,23.0,41.89091510061913,-87.70518461985372,"(41.89091510061913, -87.70518461985374)",2010-05-03
05/03/2010,Completed,03/14/2011,10-00598444,Tree Trim,Parkway,3725 W WRIGHTWOOD AVE,60647.0,1150989.78770036,1917024.92777144,35.0,25.0,22.0,41.928208798313364,-87.72058662395261,"(41.928208798313364, -87.72058662395261)",2010-05-03
05/03/2010,Completed,03/16/2011,10-00596997,Tree Trim,Parkway,3836 W 65TH ST,60629.0,1151914.74676652,1861226.96677716,13.0,8.0,65.0,41.775074260948145,-87.71865540661406,"(41.77507426094814, -87.71865540661405)",2010-05-03
05/03/2010,Completed,04/01/2011,10-00596708,Tree Trim,Parkway,1526 N HUDSON AVE,60610.0,1173034.27106938,1910581.39047263,43.0,18.0,8.0,41.91006657290246,-87.63977294580454,"(41.91006657290246, -87.63977294580454)",2010-05-03
05/03/2010,Completed,04/01/2011,10-00597177,Tree Trim,Vacant Lot,2423 S WESTERN AVE,60608.0,1160753.77640106,1887766.97802839,25.0,10.0,31.0,41.84772538710018,-87.68551906357247,"(41.84772538710018, -87.68551906357247)",2010-05-03
05/03/2010,Completed,04/08/2011,10-00594651,Tree Trim,Parkway,2500 N LONG AVE,60639.0,1139962.18152584,1916098.26642935,30.0,25.0,19.0,41.92587504297307,-87.76113232388616,"(41.92587504297307, -87.76113232388616)",2010-05-03
05/03/2010,Completed,04/11/2011,10-00597632,Tree Trim,Parkway,5313 S PRINCETON AVE,60609.0,1175187.49682583,1869729.87438156,3.0,9.0,37.0,41.7979189964154,-87.63308677680244,"(41.7979189964154, -87.63308677680246)",2010-05-03
05/03/2010,Completed,04/12/2011,10-00592415,Tree Trim,Parkway,3031 S MILLARD AVE,60623.0,1152515.64743383,1884269.4794043,22.0,10.0,30.0,41.83829436895464,-87.71584566716118,"(41.838294368954635, -87.71584566716118)",2010-05-03
05/03/2010,Completed,04/22/2011,10-00595165,Tree Trim,Parkway,2738 N MASON AVE,60639.0,1136257.16881356,1917587.4034660999,30.0,25.0,19.0,41.930028439924826,-87.77471098188879,"(41.930028439924826, -87.7747109818888)",2010-05-03
05/03/2010,Completed,04/22/2011,10-00597883,Tree Trim,Parkway,1816 S AVERS AVE,60623.0,1151023.02267752,1890985.06816831,24.0,10.0,29.0,41.856752095984014,-87.72114720918131,"(41.856752095984014, -87.72114720918132)",2010-05-03
05/03/2010,Completed,04/27/2011,10-00596137,Tree Trim,Parkway,2129 N DAYTON ST,60614.0,1170272.61581711,1914365.09773396,43.0,18.0,7.0,41.9205100961214,-87.64980730327316,"(41.9205100961214, -87.64980730327316)",2010-05-03
05/03/2010,Completed,04/27/2011,10-00599291,Tree Trim,Parkway,1941 N WILMOT AVE,60647.0,1160531.72258222,1912904.09472777,32.0,14.0,22.0,41.916708473801705,-87.68563775125368,"(41.9167084738017, -87.68563775125368)",2010-05-03
05/03/2010,Completed,04/28/2011,10-00594711,Tree Trim,Parkway,2557 W CHICAGO AVE,60622.0,1159123.29010624,1905238.97680032,26.0,13.0,24.0,41.895703845095476,-87.69102317965391,"(41.89570384509548, -87.6910231796539)",2010-05-03
05/03/2010,Completed,04/28/2011,10-00597668,Tree Trim,Parkway,2646 N WASHTENAW AVE,60647.0,1157913.0339723,1917530.85819618,35.0,14.0,22.0,41.92945852454958,-87.69513226366949,"(41.92945852454958, -87.69513226366949)",2010-05-03
05/03/2010,Completed,04/29/2011,10-00597417,Tree Trim,Parkway,2908 W BELDEN AVE,60647.0,1156538.32568451,1915266.62328834,35.0,14.0,22.0,41.92327325990108,-87.7002453659614,"(41.92327325990108, -87.70024536596141)",2010-05-03
05/03/2010,Completed,04/29/2011,10-00597894,Tree Trim,Parkway,1846 N CALIFORNIA AVE,60647.0,1157412.01200007,1912170.82997718,35.0,14.0,22.0,41.914760417792365,-87.697119510686,"(41.914760417792365, -87.697119510686)",2010-05-03
05/04/2010,Completed - Dup,03/03/2011,10-00607128,Tree Trim,Vacant Lot,7020 S WALLACE ST,60621.0,1173489.87866846,1858350.3451808998,6.0,7.0,68.0,41.766730084243434,-87.6396488560837,"(41.76673008424343, -87.6396488560837)",2010-05-04
05/04/2010,Completed - Dup,03/10/2011,10-00603585,Tree Trim,Parkway,4827 S JUSTINE ST,60609.0,1166819.35009409,1872718.1460819,20.0,9.0,61.0,41.80630212133424,-87.66368877997137,"(41.80630212133424, -87.66368877997137)",2010-05-04
05/04/2010,Completed - Dup,05/04/2011,10-00603771,Tree Trim,Parkway,3043 N HAMLIN AVE,60618.0,1150745.00992057,1919913.27459462,30.0,25.0,21.0,41.936139461341355,-87.7214103478742,"(41.93613946134135, -87.72141034787421)",2010-05-04
05/04/2010,Completed,01/03/2011,10-00603710,Tree Trim,Parkway,3601 N NORA AVE,60634.0,1128776.07960261,1923133.91542125,36.0,16.0,17.0,41.945379194457225,-87.8020763077616,"(41.945379194457225, -87.8020763077616)",2010-05-04
05/04/2010,Completed,01/07/2011,10-00600581,Tree Trim,Parkway,3411 N RUTHERFORD AVE,60634.0,1130809.58252752,1921930.41577643,36.0,16.0,17.0,41.942041825829264,-87.79462956233844,"(41.942041825829264, -87.79462956233846)",2010-05-04
05/04/2010,Completed,01/07/2011,10-00601296,Tree Trim,Parkway,4842 N WASHTENAW AVE,60625.0,1157491.19803104,1932199.4947707,40.0,20.0,4.0,41.969718787742785,-87.69628173787564,"(41.96971878774278, -87.69628173787562)",2010-05-04
05/04/2010,Completed,01/10/2011,10-00602255,Tree Trim,Parkway,3443 N JANSSEN AVE,60657.0,1166028.81013158,1922961.64752233,44.0,19.0,6.0,41.94419125295219,-87.6651536513076,"(41.944191252952194, -87.6651536513076)",2010-05-04
05/04/2010,Completed,01/10/2011,10-00605656,Tree Trim,Parkway,3223 N NEENAH AVE,60634.0,1132161.7967783,1920715.09870303,36.0,16.0,17.0,41.93868343167467,-87.78968782064774,"(41.93868343167467, -87.78968782064773)",2010-05-04
05/04/2010,Completed,01/11/2011,10-00600374,Tree Trim,Parkway,3429 N RUTHERFORD AVE,60634.0,1130805.18252752,1922051.71577643,36.0,16.0,17.0,41.94237476279672,-87.79464293280611,"(41.94237476279672, -87.79464293280611)",2010-05-04
05/04/2010,Completed,01/11/2011,10-00604233,Tree Trim,Parkway,3313 W 62ND PL,60629.0,1155379.87197641,1862993.2920288998,15.0,8.0,66.0,41.779852656405005,-87.70590534909933,"(41.779852656405005, -87.70590534909933)",2010-05-04
05/04/2010,Completed,01/13/2011,10-00607031,Tree Trim,Parkway,2919 S UNION AVE,60616.0,1172103.25762717,1885538.46093022,11.0,9.0,60.0,41.841367661694406,-87.64393202142564,"(41.841367661694406, -87.64393202142564)",2010-05-04
05/04/2010,Completed,01/25/2011,10-00602635,Tree Trim,Parkway,8101 S STEWART AVE,60620.0,1175033.01698759,1851218.8650231003,21.0,6.0,44.0,41.74712615560489,-87.63420510423279,"(41.74712615560489, -87.63420510423279)",2010-05-04
05/04/2010,Completed,01/25/2011,10-00604440,Tree Trim,,3940 N NEVA AVE,60634.0,1127687.99231592,1925381.14342608,38.0,16.0,17.0,41.951564286418474,-87.80602497732643,"(41.95156428641848, -87.80602497732643)",2010-05-04
05/04/2010,Completed,01/26/2011,10-00603501,Tree Trim,Parkway,4515 N MONITOR AVE,60630.0,1136530.42348669,1929437.45020644,38.0,16.0,15.0,41.962541297282705,-87.77342236335353,"(41.9625412972827, -87.77342236335355)",2010-05-04
05/04/2010,Completed,01/26/2011,10-00604082,Tree Trim,Parkway,4541 N AUSTIN AVE,60630.0,1135527.27131248,1929583.82998961,38.0,16.0,15.0,41.962960905842245,-87.77710713273477,"(41.96296090584224, -87.77710713273478)",2010-05-04
05/04/2010,Completed,02/01/2011,10-00602189,Tree Trim,Parkway,3820 S WOLCOTT AVE,60609.0,1164318.90232502,1879271.1438958,11.0,9.0,59.0,41.8243373900433,-87.67267477953544,"(41.824337390043304, -87.67267477953543)",2010-05-04
05/04/2010,Completed,02/16/2011,10-00606517,Tree Trim,Parkway,4713 N KARLOV AVE,60630.0,1148221.98450316,1930796.64476641,39.0,17.0,14.0,41.966053338595785,-87.73040140031117,"(41.96605333859578, -87.73040140031115)",2010-05-04
05/04/2010,Completed,02/18/2011,10-00601995,Tree Trim,Parkway,9618 S PROSPECT AVE,60643.0,1166746.42650914,1840879.47870472,19.0,22.0,72.0,41.718934086884545,-87.66486369484699,"(41.718934086884545, -87.66486369484699)",2010-05-04
05/04/2010,Completed,03/02/2011,10-00604151,Tree Trim,Parkway,8236 S JUSTINE ST,60620.0,1167437.26807928,1850110.41493114,21.0,6.0,71.0,41.74425039796843,-87.6620696860548,"(41.74425039796843, -87.66206968605479)",2010-05-04
05/04/2010,Completed,03/02/2011,10-00607656,Tree Trim,,12439 S UNION AVE,60628.0,1173908.91648858,1822384.67690717,34.0,5.0,53.0,41.6680259098415,-87.63917580241903,"(41.6680259098415, -87.63917580241903)",2010-05-04
05/04/2010,Completed,03/03/2011,10-00604746,Tree Trim,Vacant Lot,7020 S WALLACE ST,60621.0,1173489.87866846,1858350.3451808998,6.0,7.0,68.0,41.766730084243434,-87.6396488560837,"(41.76673008424343, -87.6396488560837)",2010-05-04
05/04/2010,Completed,03/09/2011,10-00606861,Tree Trim,Parkway,11435 S AVENUE G,60617.0,1203217.6532953002,1829757.07642413,10.0,4.0,52.0,41.687558587097946,-87.5316633086977,"(41.687558587097946, -87.5316633086977)",2010-05-04
05/04/2010,Completed,03/09/2011,10-00607728,Tree Trim,Parkway,4349 N HOYNE AVE,60618.0,1161568.22477545,1928957.38762222,47.0,19.0,5.0,41.96073812647097,-87.68138111855251,"(41.96073812647097, -87.68138111855252)",2010-05-04
05/04/2010,Completed,03/14/2011,10-00602289,Tree Trim,Parkway,6335 S LOCKWOOD AVE,60638.0,1142182.05932769,1861932.13391422,13.0,8.0,64.0,41.777194717934606,-87.75431732410748,"(41.7771947179346, -87.75431732410748)",2010-05-04
05/04/2010,Completed,03/14/2011,10-00603087,Tree Trim,Parkway,6601 S KOLIN AVE,60629.0,1148510.70562514,1860474.57007586,13.0,8.0,65.0,41.773075648802745,-87.73115364822618,"(41.77307564880275, -87.73115364822618)",2010-05-04
05/04/2010,Completed,03/15/2011,10-00604862,Tree Trim,Parkway,8639 S TRIPP AVE,60652.0,1149592.89912322,1846918.14497447,18.0,8.0,70.0,41.73585362096095,-87.72753646124114,"(41.73585362096095, -87.72753646124116)",2010-05-04
05/04/2010,Completed,03/22/2011,10-00606533,Tree Trim,Parkway,1301 W 98TH ST,60643.0,1169377.54132743,1839801.3699706001,21.0,22.0,73.0,41.715919128452114,-87.65525787950571,"(41.71591912845212, -87.6552578795057)",2010-05-04
05/04/2010,Completed,03/22/2011,10-00607376,Tree Trim,Parkway,2640 S CENTRAL PARK AVE,60623.0,1152795.26271687,1886221.01892021,22.0,10.0,30.0,41.84364411537523,-87.71476804085974,"(41.843644115375234, -87.71476804085974)",2010-05-04
05/04/2010,Completed,03/28/2011,10-00607110,Tree Trim,Parkway,1718 N TALMAN AVE,60647.0,1158433.38567267,1911392.21929933,1.0,14.0,24.0,41.91260299705274,-87.69338845481522,"(41.912602997052744, -87.69338845481522)",2010-05-04
05/04/2010,Completed,04/04/2011,10-00605855,Tree Trim,Parkway,4835 W WABANSIA AVE,60639.0,1143821.38568197,1910864.21090137,37.0,25.0,25.0,41.911440709473204,-87.74708295446777,"(41.911440709473204, -87.74708295446776)",2010-05-04
05/04/2010,Completed,04/04/2011,10-00605865,Tree Trim,Parkway,4821 W WABANSIA AVE,60639.0,1143949.48568197,1910867.11090137,37.0,25.0,25.0,41.911446263770316,-87.74661227796024,"(41.91144626377032, -87.74661227796024)",2010-05-04
05/04/2010,Completed,04/04/2011,10-00605938,Tree Trim,Parkway,4877 W WABANSIA AVE,60639.0,1143437.32592083,1910855.70507341,37.0,25.0,25.0,41.9114245633366,-87.74849409619783,"(41.911424563336595, -87.74849409619783)",2010-05-04
05/04/2010,Completed,04/04/2011,10-00605974,Tree Trim,Parkway,4864 W WABANSIA AVE,60639.0,1143556.22592083,1910858.40507341,37.0,25.0,25.0,41.911429746871846,-87.74805722311247,"(41.91142974687184, -87.74805722311247)",2010-05-04
05/04/2010,Completed,04/04/2011,10-00606162,Tree Trim,Parkway,4827 W BLOOMINGDALE AVE,60639.0,1143822.45012294,1911531.93730451,37.0,25.0,25.0,41.91327300181341,-87.74706227653068,"(41.913273001813415, -87.74706227653068)",2010-05-04
05/04/2010,Completed,04/04/2011,10-00606188,Tree Trim,Parkway,4830 W BLOOMINGDALE AVE,60639.0,1143789.35012294,1911531.13730451,37.0,25.0,25.0,41.913271427332724,-87.74718390026045,"(41.91327142733272, -87.74718390026045)",2010-05-04
05/04/2010,Completed,04/04/2011,10-00606296,Tree Trim,Parkway,4835 W ST PAUL AVE,60639.0,1143809.84409673,1911198.72999834,37.0,25.0,25.0,41.91235888202058,-87.74711695568062,"(41.912358882020584, -87.74711695568061)",2010-05-04
05/04/2010,Completed,04/11/2011,10-00603900,Tree Trim,Parkway,419 E 48TH PL,60615.0,1179875.85979125,1872955.49001754,3.0,2.0,38.0,41.80666427841352,-87.61579515305702,"(41.806664278413514, -87.61579515305701)",2010-05-04
05/04/2010,Completed,04/20/2011,10-00605473,Tree Trim,,5201 S BLACKSTONE AVE,60615.0,1186797.12066985,1870941.8117012002,4.0,21.0,41.0,41.800977232692354,-87.59047444043014,"(41.80097723269235, -87.59047444043014)",2010-05-04
05/04/2010,Completed,04/21/2011,10-00605960,Tree Trim,Parkway,5147 S CORNELL AVE,60615.0,1187911.90997938,1871258.80001829,4.0,21.0,41.0,41.801820560197406,-87.58637608710156,"(41.80182056019741, -87.58637608710154)",2010-05-04
05/04/2010,Completed,04/25/2011,10-00605964,Tree Trim,Parkway,4866 W WABANSIA AVE,60639.0,1143537.92592083,1910858.00507341,37.0,25.0,25.0,41.911428991874146,-87.7481244622335,"(41.91142899187415, -87.7481244622335)",2010-05-04
05/04/2010,Completed,04/27/2011,10-00602903,Tree Trim,Alley,1515 N RIDGEWAY AVE,60651.0,1151091.56837406,1909811.26170182,26.0,25.0,23.0,41.90841185202486,-87.7204020672183,"(41.90841185202486, -87.7204020672183)",2010-05-04
05/04/2010,Completed,04/29/2011,10-00607324,Tree Trim,Parkway,2736 N LOCKWOOD AVE,60639.0,1140573.08428945,1917802.62279519,31.0,25.0,19.0,41.9305407664472,-87.75884556603567,"(41.9305407664472, -87.75884556603567)",2010-05-04
05/04/2010,Completed,05/03/2011,10-00603427,Tree Trim,Parkway,2627 W WALTON ST,60622.0,1158710.59828535,1906224.04358926,26.0,13.0,24.0,41.898415420832116,-87.69251188324371,"(41.898415420832116, -87.69251188324372)",2010-05-04
05/04/2010,Completed,05/04/2011,10-00606457,Tree Trim,,1656 N MENARD AVE,60639.0,1137500.15637945,1910424.66099231,29.0,25.0,25.0,41.91035074571482,-87.77031605567561,"(41.91035074571482, -87.7703160556756)",2010-05-04
05/04/2010,Completed,05/05/2011,10-00600305,Tree Trim,Parkway,3010 N KILBOURN AVE,60641.0,1145857.8382793998,1919632.77048389,31.0,25.0,20.0,41.93546405116057,-87.73937847949743,"(41.935464051160565, -87.73937847949743)",2010-05-04
05/04/2010,Completed,05/05/2011,10-00605950,Tree Trim,Parkway,5139 S CORNELL AVE,60615.0,1187899.00997938,1871300.20001829,4.0,21.0,41.0,41.80193447229583,-87.58642207635029,"(41.80193447229583, -87.5864220763503)",2010-05-04
05/05/2010,Completed - Dup,02/22/2011,10-00609878,Tree Trim,Parkway,1120 N WINCHESTER AVE,60622.0,1163197.83410082,1907476.48739799,1.0,13.0,24.0,41.90175906473826,-87.67599534119165,"(41.90175906473826, -87.67599534119165)",2010-05-05
05/05/2010,Completed,01/06/2011,10-00613419,Tree Trim,,3323 N NATCHEZ AVE,60634.0,1132460.15232647,1921392.41883125,36.0,16.0,17.0,41.94053687738955,-87.78857545213627,"(41.94053687738955, -87.78857545213626)",2010-05-05
05/05/2010,Completed,01/11/2011,10-00610672,Tree Trim,Parkway,1736 N MOZART ST,60647.0,1157146.33046864,1911678.89629053,1.0,14.0,24.0,41.91341591614336,-87.69810897779188,"(41.91341591614336, -87.69810897779188)",2010-05-05
05/05/2010,Completed,01/13/2011,10-00608928,Tree Trim,Parkway,9257 S LOWE AVE,60620.0,1173597.98479049,1843485.8620665001,21.0,22.0,73.0,41.72593764208392,-87.63969181229969,"(41.72593764208392, -87.63969181229969)",2010-05-05
05/05/2010,Completed,01/13/2011,10-00610065,Tree Trim,,6801 S KEDVALE AVE,60629.0,1149875.26807677,1859177.70718348,13.0,8.0,65.0,41.76949051696104,-87.72618499297924,"(41.76949051696105, -87.72618499297923)",2010-05-05
05/05/2010,Completed,01/13/2011,10-00610483,Tree Trim,Parkway,3510 S WALLACE ST,60609.0,1172870.97228908,1881631.97360035,11.0,9.0,60.0,41.83063097883382,-87.64123029494297,"(41.83063097883382, -87.64123029494297)",2010-05-05
05/05/2010,Completed,01/13/2011,10-00611631,Tree Trim,Parkway,6829 S KARLOV AVE,60629.0,1150212.09451129,1858997.76159023,13.0,8.0,65.0,41.76899018531316,-87.7249549888874,"(41.76899018531316, -87.7249549888874)",2010-05-05
05/05/2010,Completed,01/14/2011,10-00614189,Tree Trim,Parkway,7227 S CAMPBELL AVE,60629.0,1160959.69119782,1856651.65358087,18.0,8.0,66.0,41.76233675508265,-87.68562391588621,"(41.76233675508265, -87.68562391588621)",2010-05-05
05/05/2010,Completed,01/18/2011,10-00609048,Tree Trim,Parkway,3857 N KOSTNER AVE,60641.0,1146172.78000944,1925276.69757692,38.0,17.0,16.0,41.9509454859987,-87.73807700046856,"(41.9509454859987, -87.73807700046856)",2010-05-05
05/05/2010,Completed,01/24/2011,10-00614391,Tree Trim,Parkway,4116 N MEADE AVE,60634.0,1134950.11527595,1926752.6277941002,38.0,16.0,15.0,41.95520206702176,-87.77929646341295,"(41.95520206702176, -87.77929646341296)",2010-05-05
05/05/2010,Completed,01/26/2011,10-00610833,Tree Trim,Parkway,5700 W CORNELIA AVE,60634.0,1137743.12811664,1922697.03366709,38.0,16.0,15.0,41.94402310632532,-87.76912679920223,"(41.94402310632532, -87.76912679920224)",2010-05-05
05/05/2010,Completed,01/27/2011,10-00611407,Tree Trim,Parkway,3238 W CRYSTAL ST,60651.0,1154546.1733333,1908136.8700673,26.0,14.0,23.0,41.903748730876735,-87.70775635359949,"(41.903748730876735, -87.70775635359948)",2010-05-05
05/05/2010,Completed,02/16/2011,10-00611079,Tree Trim,,4350 N LOWELL AVE,60641.0,1146453.41300367,1928221.20140752,38.0,17.0,16.0,41.95902008985831,-87.73697007677478,"(41.95902008985831, -87.73697007677478)",2010-05-05
05/05/2010,Completed,02/17/2011,10-00612463,Tree Trim,Parkway,3729 S MORGAN ST,60609.0,1170259.29431265,1880059.99021104,11.0,9.0,60.0,41.82637464552918,-87.6508584297384,"(41.82637464552918, -87.6508584297384)",2010-05-05
05/05/2010,Completed,02/18/2011,10-00609397,Tree Trim,Parkway,10157 S LEAVITT ST,60643.0,1163497.75556594,1837249.64608155,19.0,22.0,72.0,41.709041830748994,-87.67686391939534,"(41.70904183074899, -87.67686391939534)",2010-05-05
05/05/2010,Completed,02/22/2011,10-00609050,Tree Trim,Parkway,8049 S COLES AVE,60617.0,1198219.13281702,1852190.18470179,7.0,4.0,46.0,41.749243155825006,-87.54921393038515,"(41.749243155825006, -87.54921393038516)",2010-05-05
05/05/2010,Completed,02/22/2011,10-00609749,Tree Trim,,1120 N WINCHESTER AVE,60622.0,1163197.83410082,1907476.48739799,1.0,13.0,24.0,41.90175906473826,-87.67599534119165,"(41.90175906473826, -87.67599534119165)",2010-05-05
05/05/2010,Completed,02/22/2011,10-00612146,Tree Trim,Parkway,2622 W 23RD PL,60608.0,1159253.72147444,1888302.67001428,28.0,10.0,30.0,41.849226303260714,-87.69100961081058,"(41.849226303260714, -87.69100961081058)",2010-05-05
05/05/2010,Completed,02/25/2011,10-00611617,Tree Trim,Parkway,4818 N BELL AVE,60625.0,1160488.44987933,1931959.21228278,47.0,20.0,4.0,41.968997755978755,-87.68526744522823,"(41.96899775597876, -87.68526744522823)",2010-05-05
05/05/2010,Completed,02/28/2011,10-00608959,Tree Trim,Parkway,5455 W WARWICK AVE,60641.0,1139316.89360014,1924447.38008578,38.0,16.0,15.0,41.94879765709313,-87.763299476856,"(41.94879765709313, -87.763299476856)",2010-05-05
05/05/2010,Completed,02/28/2011,10-00612994,Tree Trim,Parkway,5422 W WARWICK AVE,60641.0,1139540.17548031,1924452.51992242,38.0,16.0,15.0,41.94880768339322,-87.76247859469568,"(41.94880768339322, -87.76247859469568)",2010-05-05
05/05/2010,Completed,03/02/2011,10-00610950,Tree Trim,Parkway,9921 S WINSTON AVE,60643.0,1168741.67478435,1838901.28139611,21.0,22.0,73.0,41.71346286554505,-87.65761261355982,"(41.71346286554505, -87.65761261355982)",2010-05-05
05/05/2010,Completed,03/08/2011,10-00612140,Tree Trim,Parkway,2715 W 24TH ST,60608.0,1158641.7727662,1887957.55572308,12.0,10.0,30.0,41.84829181039814,-87.69326497774901,"(41.84829181039814, -87.693264977749)",2010-05-05
05/05/2010,Completed,03/10/2011,10-00613135,Tree Trim,Parkway,4245 N LEAVITT ST,60618.0,1160931.46611817,1928160.56357586,47.0,19.0,5.0,41.958564870927205,-87.6837443737971,"(41.9585648709272, -87.6837443737971)",2010-05-05
05/05/2010,Completed,03/11/2011,10-00613632,Tree Trim,Parkway,4517 N PAULINA ST,60640.0,1164412.72427994,1930060.19296887,47.0,19.0,3.0,41.963704408366354,-87.67089197102037,"(41.963704408366354, -87.67089197102038)",2010-05-05
05/05/2010,Completed,03/11/2011,10-00614088,Tree Trim,Parkway,8517 S JUSTINE ST,60620.0,1167489.05008577,1848247.62769125,21.0,6.0,71.0,41.73913753409578,-87.66193320303421,"(41.73913753409578, -87.6619332030342)",2010-05-05
05/05/2010,Completed,03/14/2011,10-00610839,Tree Trim,Parkway,1848 W WARNER AVE,60613.0,1163227.75998684,1927586.84997182,47.0,19.0,5.0,41.956942497626784,-87.67531852552472,"(41.956942497626784, -87.67531852552472)",2010-05-05
05/05/2010,Completed,03/15/2011,10-00613893,Tree Trim,Parkway,3300 W 82ND ST,60652.0,1155809.83278094,1850035.70723288,18.0,8.0,70.0,41.744286392295884,-87.70467621106566,"(41.74428639229588, -87.70467621106565)",2010-05-05
05/05/2010,Completed,04/04/2011,10-00614349,Tree Trim,Parkway,1300 N MAYFIELD AVE,60651.0,1136786.1909110001,1908050.0267196998,29.0,25.0,25.0,41.90384729132886,-87.77299591825256,"(41.90384729132886, -87.77299591825256)",2010-05-05
05/05/2010,Completed,04/07/2011,10-00614209,Tree Trim,Parkway,1920 N KILDARE AVE,60639.0,1147416.43336925,1912411.14619275,30.0,25.0,20.0,41.91561746524224,-87.73383605233269,"(41.91561746524224, -87.73383605233269)",2010-05-05
05/05/2010,Completed,04/25/2011,10-00614566,Tree Trim,Parkway,842 W ALTGELD ST,60614.0,1170199.60998343,1916821.13010993,43.0,19.0,7.0,41.927251166486336,-87.65000362894487,"(41.927251166486336, -87.65000362894487)",2010-05-05
05/05/2010,Completed,04/26/2011,10-00611217,Tree Trim,Parkway,1359 W FILLMORE ST,60607.0,1167475.76101562,1895413.3142738,2.0,12.0,28.0,41.868565803360994,-87.66062939583357,"(41.86856580336099, -87.66062939583357)",2010-05-05
05/05/2010,Completed,04/26/2011,10-00611818,Tree Trim,Parkway,2237 W ERIE ST,60612.0,1161373.23781057,1904301.47179208,26.0,13.0,24.0,41.893084736172376,-87.68278573288998,"(41.893084736172376, -87.68278573288998)",2010-05-05
05/05/2010,Completed,04/26/2011,10-00614405,Tree Trim,Parkway,1101 W LILL AVE,60614.0,1168524.84168735,1917102.07042539,43.0,19.0,7.0,41.92805854069256,-87.65614951605022,"(41.92805854069256, -87.65614951605022)",2010-05-05
05/05/2010,Completed,04/27/2011,10-00608752,Tree Trim,Alley,3526 W CORTLAND ST,60647.0,1152677.81967323,1912403.25652324,26.0,14.0,22.0,41.915493267813,-87.71450623227112,"(41.915493267813, -87.71450623227112)",2010-05-05
05/05/2010,Completed,04/28/2011,10-00611671,Tree Trim,Parkway,3239 W EVERGREEN AVE,60651.0,1154518.51413276,1908796.76009288,26.0,14.0,23.0,41.905560082078544,-87.70784027837341,"(41.905560082078544, -87.70784027837341)",2010-05-05
05/05/2010,Completed,04/29/2011,10-00610453,Tree Trim,Parkway,4500 S WOODLAWN AVE,60653.0,1185004.41003327,1875410.96998443,4.0,21.0,39.0,41.81328325946815,-87.59690839659811,"(41.81328325946815, -87.59690839659811)",2010-05-05
05/05/2010,Completed,05/03/2011,10-00610503,Tree Trim,Parkway,203 S SANGAMON ST,60607.0,1170127.72521459,1899280.47981368,2.0,12.0,28.0,41.87912015022084,-87.65078061118376,"(41.87912015022084, -87.65078061118376)",2010-05-05
05/05/2010,Completed,05/03/2011,10-00610679,Tree Trim,Parkway,4938 S WASHINGTON PARK CT,60615.0,1180086.02010274,1872374.5863168999,4.0,2.0,38.0,41.80506541178331,-87.61504216800094,"(41.80506541178331, -87.61504216800094)",2010-05-05
05/05/2010,Completed,05/03/2011,10-00613944,Tree Trim,,2636 N MANGO AVE,60639.0,1137601.11167469,1916944.42652401,30.0,25.0,19.0,41.9282399069547,-87.76978778660197,"(41.9282399069547, -87.76978778660197)",2010-05-05
05/06/2010,Completed - Dup,01/06/2011,10-00619613,Tree Trim,Parkway,5040 W BERWYN AVE,60630.0,1141906.48718799,1935059.16771976,45.0,16.0,12.0,41.97786965078382,-87.75351650749981,"(41.97786965078382, -87.75351650749981)",2010-05-06
05/06/2010,Completed - Dup,01/10/2011,10-00622170,Tree Trim,Parkway,3223 N NEENAH AVE,60634.0,1132161.7967783,1920715.09870303,36.0,16.0,17.0,41.93868343167467,-87.78968782064774,"(41.93868343167467, -87.78968782064773)",2010-05-06
05/06/2010,Completed - Dup,01/28/2011,10-00621169,Tree Trim,Parkway,5249 S WABASH AVE,60615.0,1177607.15488995,1870158.70513094,3.0,2.0,40.0,41.79904131696497,-87.62420057061358,"(41.79904131696497, -87.62420057061358)",2010-05-06
05/06/2010,Completed - Dup,02/18/2011,10-00622525,Tree Trim,Parkway,4140 W ADDISON ST,60641.0,1148179.27999734,1923608.79997641,38.0,17.0,16.0,41.94633016200769,-87.73074425454814,"(41.94633016200769, -87.73074425454814)",2010-05-06
05/06/2010,Completed - Dup,04/26/2011,10-00619363,Tree Trim,Parkway,1505 S MICHIGAN AVE,60605.0,1177466.2395772,1893026.24372512,2.0,1.0,33.0,41.861794841412774,-87.624024917804,"(41.861794841412774, -87.624024917804)",2010-05-06
05/06/2010,Completed - Dup,05/04/2011,10-00619833,Tree Trim,Parkway,1454 N LAWLER AVE,60651.0,1142438.50508753,1909202.80850681,37.0,25.0,25.0,41.90690746280927,-87.7522046267785,"(41.906907462809265, -87.75220462677848)",2010-05-06
05/06/2010,Completed - Dup,05/04/2011,10-00620958,Tree Trim,Parkway,2725 N MONITOR AVE,60639.0,1136920.94557702,1917517.53156826,30.0,25.0,19.0,41.92982481046891,-87.7722734126111,"(41.92982481046891, -87.77227341261109)",2010-05-06
05/06/2010,Completed,01/03/2011,10-00617275,Tree Trim,Parkway,5466 N MENARD AVE,60630.0,1136539.58381744,1935921.39793149,45.0,16.0,11.0,41.98033367351536,-87.7732328283958,"(41.98033367351536, -87.7732328283958)",2010-05-06
05/06/2010,Completed,01/05/2011,10-00618260,Tree Trim,Parkway,3336 N NEWCASTLE AVE,60634.0,1130166.56559397,1921411.25199333,36.0,16.0,17.0,41.94062824474168,-87.79700491501367,"(41.94062824474168, -87.79700491501367)",2010-05-06
05/06/2010,Completed,01/07/2011,10-00621144,Tree Trim,Parkway,6499 N HERMITAGE AVE,60626.0,1163566.01998587,1942968.91100326,40.0,24.0,1.0,41.99914430381201,-87.67363948611666,"(41.99914430381201, -87.67363948611666)",2010-05-06
05/06/2010,Completed,01/11/2011,10-00620922,Tree Trim,Parkway,11057 S AVENUE C,60617.0,1204461.34003441,1832258.8336918,10.0,4.0,52.0,41.69439176982844,-87.52702470930792,"(41.69439176982844, -87.52702470930792)",2010-05-06
05/06/2010,Completed,01/13/2011,10-00618235,Tree Trim,Parkway,2817 S UNION AVE,60616.0,1172085.46702353,1886215.2955172001,11.0,9.0,60.0,41.843225345126754,-87.64397737097117,"(41.84322534512676, -87.64397737097116)",2010-05-06
05/06/2010,Completed,01/19/2011,10-00617614,Tree Trim,Parkway,8549 S KOLMAR AVE,60652.0,1147586.93988222,1847462.58263347,18.0,8.0,70.0,41.73738616989697,-87.7348718004406,"(41.73738616989697, -87.7348718004406)",2010-05-06
05/06/2010,Completed,01/20/2011,10-00616228,Tree Trim,Parkway,5326 S LAWNDALE AVE,60632.0,1152611.18287487,1869043.43328485,23.0,8.0,62.0,41.796510140618174,-87.71589656680736,"(41.796510140618174, -87.71589656680736)",2010-05-06
05/06/2010,Completed,01/20/2011,10-00617152,Tree Trim,Parkway,6920 S STONY ISLAND AVE,60649.0,1188032.79589313,1859332.37548217,5.0,3.0,43.0,41.769090645016156,-87.58631276666681,"(41.76909064501616, -87.58631276666681)",2010-05-06
05/06/2010,Completed,01/20/2011,10-00622340,Tree Trim,Parkway,6158 S FAIRFIELD AVE,60629.0,1159100.03411259,1863698.20261943,15.0,8.0,66.0,41.781711734503155,-87.69224734990227,"(41.781711734503155, -87.69224734990226)",2010-05-06
05/06/2010,Completed,01/25/2011,10-00619933,Tree Trim,Vacant Lot,6327 S CHAMPLAIN AVE,60637.0,1181655.53406605,1863199.3902173,20.0,3.0,42.0,41.77985172482076,-87.60956921427021,"(41.77985172482076, -87.6095692142702)",2010-05-06
05/06/2010,Completed,01/25/2011,10-00621956,Tree Trim,Parkway,12850 S WALLACE ST,60628.0,1174657.10670266,1819564.13063195,9.0,5.0,53.0,41.66026929232225,-87.63652105569216,"(41.66026929232225, -87.63652105569216)",2010-05-06
05/06/2010,Completed,01/26/2011,10-00617973,Tree Trim,Parkway,2159 N LECLAIRE AVE,60639.0,1142037.20640276,1913880.54810568,31.0,25.0,19.0,41.919751141717576,-87.75356262773606,"(41.91975114171758, -87.75356262773604)",2010-05-06
05/06/2010,Completed,01/26/2011,10-00618161,Tree Trim,Parkway,5145 N SPRINGFIELD AVE,60625.0,1149458.42941875,1933906.67002581,39.0,17.0,14.0,41.974563493623755,-87.72577409322174,"(41.974563493623755, -87.72577409322173)",2010-05-06
05/06/2010,Completed,01/26/2011,10-00618448,Tree Trim,Parkway,5744 W CORNELIA AVE,60634.0,1137448.82811664,1922690.63366709,38.0,16.0,15.0,41.94401085466053,-87.77020868444639,"(41.944010854660526, -87.77020868444639)",2010-05-06
05/06/2010,Completed,01/26/2011,10-00621496,Tree Trim,Parkway,1211 W NEWPORT AVE,60657.0,1167602.19911823,1923050.20687881,44.0,19.0,6.0,41.94440046244816,-87.65936803833986,"(41.94440046244816, -87.65936803833986)",2010-05-06
05/06/2010,Completed,01/27/2011,10-00616400,Tree Trim,,7115 S CHAMPLAIN AVE,60619.0,1181795.19000814,1857984.09002696,6.0,3.0,69.0,41.765537205046414,-87.60921820520771,"(41.765537205046414, -87.6092182052077)",2010-05-06
05/06/2010,Completed,01/27/2011,10-00618145,Tree Trim,Parkway,4901 N KILPATRICK AVE,60630.0,1144656.02959999,1932277.33953243,39.0,17.0,14.0,41.970184590324585,-87.74347540662714,"(41.970184590324585, -87.74347540662714)",2010-05-06
05/06/2010,Completed,02/16/2011,10-00618820,Tree Trim,Parkway,4815 N LOWELL AVE,60630.0,1146509.91319085,1931648.15503396,39.0,17.0,14.0,41.96842283411141,-87.7366746243477,"(41.96842283411141, -87.7366746243477)",2010-05-06
05/06/2010,Completed,02/16/2011,10-00622224,Tree Trim,Parkway,3818 N CENTRAL PARK AVE,60618.0,1151711.16968006,1925146.4266881,35.0,17.0,16.0,41.950480654026585,-87.71772147182024,"(41.950480654026585, -87.71772147182024)",2010-05-06
05/06/2010,Completed,02/17/2011,10-00615993,Tree Trim,Parkway,10458 S FOREST AVE,60628.0,1180095.99766969,1835684.67597098,9.0,5.0,49.0,41.70438402734942,-87.61612734278519,"(41.70438402734942, -87.61612734278518)",2010-05-06
05/06/2010,Completed,02/18/2011,10-00622521,Tree Trim,Parkway,4140 W ADDISON ST,60641.0,1148179.27999734,1923608.79997641,38.0,17.0,16.0,41.94633016200769,-87.73074425454814,"(41.94633016200769, -87.73074425454814)",2010-05-06
05/06/2010,Completed,02/22/2011,10-00618213,Tree Trim,,5649 S TRIPP AVE,60629.0,1148996.98842446,1866803.73841638,13.0,8.0,62.0,41.790434543067796,-87.72920802526886,"(41.790434543067796, -87.72920802526886)",2010-05-06
05/06/2010,Completed,02/22/2011,10-00618218,Tree Trim,,5643 S TRIPP AVE,60629.0,1148995.78842446,1866843.93841638,13.0,8.0,62.0,41.79054488127572,-87.72921138963049,"(41.79054488127572, -87.72921138963049)",2010-05-06
05/06/2010,Completed,02/28/2011,10-00622382,Tree Trim,Parkway,8515 S OGLESBY AVE,60617.0,1193300.44068587,1848951.89380756,8.0,4.0,46.0,41.74047860229809,-87.56734321611799,"(41.74047860229809, -87.56734321611799)",2010-05-06
05/06/2010,Completed,03/02/2011,10-00618189,Tree Trim,,7741 S KILPATRICK AVE,60652.0,1146416.2100326999,1852818.390022,13.0,8.0,70.0,41.75210574476456,-87.73902557312937,"(41.752105744764556, -87.73902557312937)",2010-05-06
05/06/2010,Completed,03/03/2011,10-00620981,Tree Trim,Parkway,4721 N DAMEN AVE,60625.0,1162155.92023327,1931440.53001309,47.0,19.0,4.0,41.96753969409871,-87.67915075233459,"(41.96753969409871, -87.67915075233459)",2010-05-06
05/06/2010,Completed,03/03/2011,10-00620993,Tree Trim,Parkway,4727 N DAMEN AVE,60625.0,1162154.02023327,1931505.13001309,47.0,19.0,4.0,41.96771699918975,-87.6791559248252,"(41.96771699918974, -87.67915592482518)",2010-05-06
05/06/2010,Completed,03/11/2011,10-00621099,Tree Trim,Parkway,2218 W 54TH PL,60609.0,1162290.70997698,1868484.20001017,16.0,9.0,63.0,41.79477926654885,-87.68041624148105,"(41.794779266548844, -87.68041624148107)",2010-05-06
05/06/2010,Completed,03/15/2011,10-00616004,Tree Trim,Parkway,4557 W 84TH PL,60652.0,1147503.6711811002,1847981.05697924,18.0,8.0,70.0,41.738810547486,-87.73516367546438,"(41.738810547486, -87.73516367546438)",2010-05-06
05/06/2010,Completed,03/15/2011,10-00616898,Tree Trim,Parkway,9416 S RHODES AVE,60619.0,1181559.0916137,1842657.29067428,9.0,6.0,49.0,41.72348420373346,-87.61055543543884,"(41.72348420373346, -87.61055543543884)",2010-05-06
05/06/2010,Completed,03/29/2011,10-00621769,Tree Trim,Parkway,3720 W SHAKESPEARE AVE,60647.0,1151226.17602406,1914032.25028072,26.0,25.0,22.0,41.91999199187692,-87.71979665956758,"(41.91999199187692, -87.71979665956759)",2010-05-06
05/06/2010,Completed,04/01/2011,10-00618528,Tree Trim,Parkway,650 W WILLOW ST,60614.0,1171579.49988787,1911958.40301767,43.0,18.0,7.0,41.91387732196613,-87.64507655460397,"(41.913877321966126, -87.64507655460397)",2010-05-06
05/06/2010,Completed,04/04/2011,10-00620887,Tree Trim,Parkway,1418 N LAWLER AVE,60651.0,1142444.22993077,1908962.37229384,37.0,25.0,25.0,41.90624757255761,-87.75218958053905,"(41.90624757255761, -87.75218958053907)",2010-05-06
05/06/2010,Completed,04/18/2011,10-00617008,Tree Trim,Parkway,3205 S KOMENSKY AVE,60623.0,1149886.36579585,1883039.41890547,22.0,10.0,30.0,41.834970384677746,-87.72552580383919,"(41.834970384677746, -87.72552580383918)",2010-05-06
05/06/2010,Completed,04/28/2011,10-00616483,Tree Trim,Parkway,2534 W SUPERIOR ST,60612.0,1159369.92007971,1904908.22260793,26.0,13.0,24.0,41.894791157224134,-87.69012646901,"(41.894791157224134, -87.69012646900998)",2010-05-06
05/06/2010,Completed,05/03/2011,10-00617832,Tree Trim,Parkway,3732 N SPRINGFIELD AVE,60618.0,1149730.34280457,1924457.99532941,30.0,17.0,16.0,41.94863035658389,-87.72502084483972,"(41.94863035658389, -87.72502084483972)",2010-05-06
05/06/2010,Completed,05/04/2011,10-00620875,Tree Trim,Parkway,2725 N MONITOR AVE,60639.0,1136920.94557702,1917517.53156826,30.0,25.0,19.0,41.92982481046891,-87.7722734126111,"(41.92982481046891, -87.77227341261109)",2010-05-06
05/06/2010,Completed,05/04/2011,10-00621863,Tree Trim,Parkway,4913 W RICE ST,60651.0,1143446.66321725,1905208.99376674,37.0,15.0,25.0,41.89592918436626,-87.74860119373913,"(41.89592918436626, -87.74860119373913)",2010-05-06
05/06/2010,Completed,05/05/2011,10-00618841,Tree Trim,Parkway,3025 N KOSTNER AVE,60641.0,1146522.68498501,1919755.02308341,31.0,25.0,20.0,41.93578685772274,-87.73693198044997,"(41.935786857722746, -87.73693198044995)",2010-05-06
05/06/2010,Completed,05/09/2011,10-00617991,Tree Trim,Parkway,4338 W DRUMMOND PL,60639.0,1147007.85983251,1917266.54182288,31.0,25.0,20.0,41.92894896318782,-87.73521271039692,"(41.92894896318782, -87.73521271039692)",2010-05-06
05/07/2010,Completed - Dup,01/20/2011,10-00623125,Tree Trim,Parkway,5436 S SPRINGFIELD AVE,60632.0,1151294.63797125,1868269.95193353,23.0,8.0,62.0,41.794413439971464,-87.7207447227611,"(41.79441343997146, -87.7207447227611)",2010-05-07
05/07/2010,Completed - Dup,01/26/2011,10-00624747,Tree Trim,Parkway,4949 N PULASKI RD,60630.0,1148833.5710737,1932590.77241162,39.0,17.0,14.0,41.970964718744774,-87.72810609152874,"(41.970964718744774, -87.72810609152873)",2010-05-07
05/07/2010,Completed,01/03/2011,10-00626883,Tree Trim,Parkway,5429 N MONITOR AVE,60630.0,1136206.70927853,1935547.58899451,45.0,16.0,11.0,41.97931387551292,-87.77446600908004,"(41.97931387551292, -87.77446600908004)",2010-05-07
05/07/2010,Completed,01/04/2011,10-00623808,Tree Trim,Parkway,5425 N MELVINA AVE,60630.0,1133734.65712569,1935795.59988793,45.0,16.0,11.0,41.98003833818243,-87.78355147586056,"(41.98003833818243, -87.78355147586056)",2010-05-07
05/07/2010,Completed,01/06/2011,10-00624957,Tree Trim,Parkway,5344 N MAGNET AVE,60630.0,1137157.12747287,1935064.73182723,45.0,16.0,11.0,41.97797180497326,-87.77098237517004,"(41.97797180497326, -87.77098237517005)",2010-05-07
05/07/2010,Completed,01/06/2011,10-00626468,Tree Trim,Parkway,4525 N KNOX AVE,60630.0,1144565.84669536,1929685.24891136,45.0,17.0,16.0,41.96307339275104,-87.74387259155596,"(41.96307339275104, -87.74387259155596)",2010-05-07
05/07/2010,Completed,01/07/2011,10-00626459,Tree Trim,Parkway,2710 W RASCHER AVE,60625.0,1157299.02988888,1936088.98832711,40.0,20.0,4.0,41.980395673983274,-87.69688209085841,"(41.98039567398327, -87.6968820908584)",2010-05-07
05/07/2010,Completed,01/14/2011,10-00628330,Tree Trim,Parkway,3734 N CLIFTON AVE,60613.0,1168085.98993096,1924988.24060478,44.0,23.0,6.0,41.949708057304136,-87.65753367652235,"(41.949708057304136, -87.65753367652236)",2010-05-07
05/07/2010,Completed,01/20/2011,10-00625121,Tree Trim,,6242 W GRACE ST,60634.0,1134076.95708732,1924611.13181826,38.0,16.0,17.0,41.949341024318855,-87.782557009524,"(41.94934102431885, -87.782557009524)",2010-05-07
05/07/2010,Completed,01/27/2011,10-00623678,Tree Trim,,3036 N CLIFTON AVE,60657.0,1168091.65231951,1920312.87697805,44.0,19.0,6.0,41.9368785299909,-87.65764833411455,"(41.9368785299909, -87.65764833411455)",2010-05-07
05/07/2010,Completed,01/27/2011,10-00625367,Tree Trim,Parkway,7934 S PRAIRIE AVE,60619.0,1179407.99026723,1852460.67321027,6.0,6.0,44.0,41.750435155720744,-87.61813629350853,"(41.75043515572074, -87.61813629350853)",2010-05-07
05/07/2010,Completed,02/01/2011,10-00627885,Tree Trim,Parkway,2317 W 35TH PL,60609.0,1161520.04001899,1881061.81996821,11.0,9.0,59.0,41.82930980950962,-87.68289320353327,"(41.829309809509624, -87.68289320353327)",2010-05-07
05/07/2010,Completed,02/16/2011,10-00625391,Tree Trim,Parkway,3750 W WILSON AVE,60625.0,1150894.33702621,1930315.55351014,39.0,17.0,14.0,41.96468116804963,-87.72058823556064,"(41.96468116804963, -87.72058823556064)",2010-05-07
05/07/2010,Completed,02/17/2011,10-00626434,Tree Trim,Parkway,1509 W ROSCOE ST,60657.0,1165608.97001886,1922661.09849758,44.0,19.0,6.0,41.94337550191067,-87.66670538317913,"(41.94337550191067, -87.66670538317913)",2010-05-07
05/07/2010,Completed,02/17/2011,10-00627151,Tree Trim,,3044 N SEMINARY AVE,60657.0,1168419.83229991,1920375.30687315,44.0,19.0,6.0,41.937042736389984,-87.65644042284184,"(41.937042736389984, -87.65644042284184)",2010-05-07
05/07/2010,Completed,02/17/2011,10-00627294,Tree Trim,Parkway,560 W ROSCOE ST,60657.0,1171857.58192782,1922695.48003297,44.0,23.0,6.0,41.94333420028735,-87.64373769005108,"(41.943334200287346, -87.64373769005108)",2010-05-07
05/07/2010,Completed,02/18/2011,10-00627444,Tree Trim,Parkway,4225 W 81ST ST,60652.0,1149614.05042081,1850616.25036933,13.0,8.0,70.0,41.74600147472841,-87.72736356657042,"(41.74600147472841, -87.7273635665704)",2010-05-07
05/07/2010,Completed,02/24/2011,10-00622990,Tree Trim,Parkway,2242 W CARMEN AVE,60625.0,1160477.35241075,1933784.77010328,47.0,20.0,4.0,41.974007401143815,-87.68525747192234,"(41.974007401143815, -87.68525747192234)",2010-05-07
05/07/2010,Completed,03/02/2011,10-00626121,Tree Trim,Parkway,1702 W WINONA ST,60640.0,1164051.00991956,1934251.83408835,47.0,20.0,3.0,41.975214104815315,-87.67210293117505,"(41.97521410481531, -87.67210293117505)",2010-05-07
05/07/2010,Completed,03/02/2011,10-00628305,Tree Trim,Parkway,1963 W WINONA ST,60640.0,1162329.3954674,1934056.84499945,47.0,20.0,4.0,41.974715337388865,-87.67843936511828,"(41.974715337388865, -87.67843936511827)",2010-05-07
05/07/2010,Completed,03/08/2011,10-00627975,Tree Trim,Parkway,1208 E 63RD ST,60637.0,1185333.11881898,1863475.39778884,20.0,3.0,42.0,41.780523382812156,-87.59607817398589,"(41.78052338281216, -87.59607817398589)",2010-05-07
05/07/2010,Completed,03/09/2011,10-00624601,Tree Trim,Parkway,4345 N GREENVIEW AVE,60613.0,1165284.29962009,1929044.2099841,47.0,19.0,6.0,41.96089797448703,-87.66771649622284,"(41.96089797448703, -87.66771649622285)",2010-05-07
05/07/2010,Completed,03/09/2011,10-00624605,Tree Trim,Parkway,4343 N GREENVIEW AVE,60613.0,1165284.49962009,1929034.5099841,47.0,19.0,6.0,41.960871353021076,-87.66771603794113,"(41.96087135302108, -87.66771603794112)",2010-05-07
05/07/2010,Completed,03/09/2011,10-00624627,Tree Trim,Parkway,8435 S HOYNE AVE,60620.0,1163827.90799282,1848696.04136658,18.0,6.0,71.0,41.74044564672461,-87.67533444974762,"(41.74044564672461, -87.67533444974762)",2010-05-07
05/07/2010,Completed,03/17/2011,10-00623928,Tree Trim,Parkway,1000 W 52ND ST,60609.0,1170527.8794132,1870339.3250277,16.0,9.0,61.0,41.799694285608936,-87.65015656707926,"(41.799694285608936, -87.65015656707926)",2010-05-07
05/07/2010,Completed,04/25/2011,10-00625032,Tree Trim,Parkway,2934 N SEELEY AVE,60618.0,1162173.8900014,1919480.12997779,1.0,19.0,5.0,41.934719350912815,-87.67942021797053,"(41.93471935091281, -87.67942021797052)",2010-05-07
05/07/2010,Completed,04/27/2011,10-00624134,Tree Trim,Parkway,1503 S MICHIGAN AVE,60605.0,1177465.7395772,1893047.14372512,2.0,1.0,33.0,41.861852203683355,-87.62402611935106,"(41.861852203683355, -87.62402611935106)",2010-05-07
05/07/2010,Completed,04/27/2011,10-00624576,Tree Trim,Parkway,1840 S PRAIRIE AVE,60616.0,1178370.15047288,1891427.3299171003,2.0,1.0,33.0,41.857386780580214,-87.62075556640757,"(41.85738678058021, -87.62075556640757)",2010-05-07
05/07/2010,Completed,04/28/2011,10-00626015,Tree Trim,Vacant Lot,1540 S LAWNDALE AVE,60623.0,1151958.23621894,1892189.33039089,24.0,10.0,29.0,41.86003838416921,-87.71768274644617,"(41.86003838416921, -87.71768274644617)",2010-05-07
05/07/2010,Completed,04/28/2011,10-00626908,Tree Trim,Parkway,1737 W SCHOOL ST,60657.0,1164009.1945942,1921953.16091783,32.0,19.0,6.0,41.94146687319818,-87.67260541477934,"(41.94146687319818, -87.67260541477935)",2010-05-07
05/07/2010,Completed,05/03/2011,10-00625735,Tree Trim,Parkway,3317 N HAMLIN AVE,60618.0,1150474.09421286,1921787.92819207,30.0,17.0,21.0,41.9412889654132,-87.7223568932446,"(41.9412889654132, -87.7223568932446)",2010-05-07
05/08/2010,Completed - Dup,02/22/2011,10-00629392,Tree Trim,Parkway,2020 W MAYPOLE AVE,60612.0,1162792.97348664,1901015.05488648,2.0,13.0,28.0,41.88403688277123,-87.67766380638682,"(41.884036882771234, -87.67766380638682)",2010-05-08
05/08/2010,Completed - Dup,03/01/2011,10-00628813,Tree Trim,Parkway,11127 S PEORIA ST,60643.0,1172303.40159594,1831046.46799876,34.0,22.0,75.0,41.69183061670344,-87.64479829589102,"(41.691830616703434, -87.64479829589101)",2010-05-08
05/08/2010,Completed,03/01/2011,10-00629228,Tree Trim,Parkway,1469 W GREGORY ST,60640.0,1165292.32347802,1936942.00011109,48.0,20.0,77.0,41.982569625852776,-87.66746131218937,"(41.982569625852776, -87.66746131218937)",2010-05-08
05/08/2010,Completed,03/09/2011,10-00629052,Tree Trim,Parkway,1844 W BELLE PLAINE AVE,60613.0,1163260.58302327,1927255.47010796,47.0,19.0,5.0,41.956032483786224,-87.67520721464649,"(41.95603248378623, -87.67520721464648)",2010-05-08
05/08/2010,Completed,03/10/2011,10-00629484,Tree Trim,Parkway,4237 N OAKLEY AVE,60618.0,1160270.35690805,1928175.12990924,47.0,19.0,5.0,41.95861856786893,-87.68617446046561,"(41.95861856786893, -87.6861744604656)",2010-05-08
05/08/2010,Completed,03/14/2011,10-00629212,Tree Trim,Parkway,6334 S EGGLESTON AVE,60621.0,1174365.17351635,1862828.35037041,20.0,7.0,68.0,41.77899882405523,-87.63630754460276,"(41.77899882405523, -87.63630754460276)",2010-05-08
05/08/2010,Completed,04/18/2011,10-00629863,Tree Trim,Alley,2505 S KEELER AVE,60623.0,1148784.99458365,1887002.04508749,22.0,10.0,30.0,41.84586566884488,-87.72946487275614,"(41.84586566884488, -87.72946487275614)",2010-05-08
05/08/2010,Completed,05/03/2011,10-00629492,Tree Trim,Parkway,1139 N MOZART ST,60622.0,1157179.29470993,1907450.52809993,26.0,13.0,24.0,41.90181225029988,-87.69810291320324,"(41.901812250299876, -87.69810291320324)",2010-05-08
05/09/2010,Completed,03/02/2011,10-00631649,Tree Trim,Parkway,10208 S RHODES AVE,60628.0,1181711.76127789,1837397.3646938999,9.0,5.0,49.0,41.70904678905545,-87.61015805235986,"(41.709046789055456, -87.61015805235986)",2010-05-09
05/09/2010,Completed,04/27/2011,10-00631696,Tree Trim,Parkway,1600 N NB OUTER LAKE SHORE DR,60614.0,1176853.00709931,1911029.69059664,43.0,18.0,7.0,41.911211138281864,-87.62573101406237,"(41.91121113828187, -87.62573101406238)",2010-05-09
05/10/2010,Completed - Dup,01/03/2011,10-00634741,Tree Trim,Parkway,21 N LONG AVE,60644.0,1140343.88010691,1899644.09782748,28.0,15.0,25.0,41.88071588098628,-87.76013374380663,"(41.88071588098628, -87.76013374380663)",2010-05-10
05/10/2010,Completed - Dup,01/10/2011,10-00638252,Tree Trim,Parkway,3259 W 66TH ST,60629.0,1155794.0452949,1860675.30157491,15.0,8.0,66.0,41.773483440668116,-87.704449064415,"(41.773483440668116, -87.704449064415)",2010-05-10
05/10/2010,Completed,01/03/2011,10-00636679,Tree Trim,Parkway,5764 W GUNNISON ST,60630.0,1136930.05860121,1931658.53827769,45.0,16.0,11.0,41.96862899387968,-87.77189952689875,"(41.968628993879676, -87.77189952689875)",2010-05-10
05/10/2010,Completed,01/04/2011,10-00634536,Tree Trim,Parkway,5601 S MEADE AVE,60638.0,1136664.10877928,1866795.27542104,23.0,8.0,56.0,41.790640231277045,-87.7744305961693,"(41.790640231277045, -87.7744305961693)",2010-05-10
05/10/2010,Completed,01/05/2011,10-00633810,Tree Trim,Parkway,3354 N PARIS AVE,60634.0,1121160.49809873,1921234.34867126,36.0,16.0,17.0,41.94029264902583,-87.83011000490568,"(41.94029264902583, -87.83011000490569)",2010-05-10
05/10/2010,Completed,01/07/2011,10-00637006,Tree Trim,Parkway,8622 S VERNON AVE,60619.0,1180862.71826901,1847923.16163399,6.0,6.0,44.0,41.73795040228737,-87.61294474474974,"(41.73795040228737, -87.61294474474974)",2010-05-10
05/10/2010,Completed,01/10/2011,10-00638925,Tree Trim,Parkway,3341 W 66TH ST,60629.0,1155253.3452949,1860661.60157491,15.0,8.0,66.0,41.77345667860313,-87.70643153412078,"(41.77345667860313, -87.70643153412078)",2010-05-10
05/10/2010,Completed,01/13/2011,10-00635371,Tree Trim,Parkway,3628 N FREMONT ST,60613.0,1169618.65563232,1924302.32246752,44.0,23.0,6.0,41.947792571347925,-87.6519198715285,"(41.94779257134792, -87.65191987152852)",2010-05-10
05/10/2010,Completed,01/14/2011,10-00635296,Tree Trim,Parkway,917 W ROSCOE ST,60657.0,1169465.6267118999,1922763.92849437,44.0,23.0,6.0,41.943574493435285,-87.6525272805831,"(41.943574493435285, -87.6525272805831)",2010-05-10
05/10/2010,Completed,01/18/2011,10-00634544,Tree Trim,Parkway,7010 W SCHOOL ST,60634.0,1128897.87651922,1921134.98557337,36.0,16.0,17.0,41.9398918238148,-87.80167418948122,"(41.939891823814804, -87.80167418948122)",2010-05-10
05/10/2010,Completed,01/20/2011,10-00638843,Tree Trim,Parkway,3716 N PITTSBURGH AVE,60634.0,1120405.5096892999,1923663.01259095,36.0,16.0,17.0,41.946969348053635,-87.83283279075842,"(41.94696934805363, -87.83283279075842)",2010-05-10
05/10/2010,Completed,01/25/2011,10-00638924,Tree Trim,Parkway,7223 S HOYNE AVE,60636.0,1163614.6727148,1856644.65011506,17.0,7.0,67.0,41.76226226567771,-87.67589319002553,"(41.76226226567771, -87.67589319002553)",2010-05-10
05/10/2010,Completed,01/25/2011,10-00638936,Tree Trim,Parkway,3515 W 75TH ST,60652.0,1154252.6499767,1854623.26719717,18.0,8.0,70.0,41.75690649184197,-87.71026023595299,"(41.75690649184197, -87.71026023595299)",2010-05-10
05/10/2010,Completed,01/26/2011,10-00637727,Tree Trim,Parkway,5022 W MONTANA ST,60639.0,1142503.22348419,1915839.03760243,31.0,25.0,19.0,41.925116782223526,-87.75180158874872,"(41.92511678222352, -87.75180158874872)",2010-05-10
05/10/2010,Completed,01/26/2011,10-00638137,Tree Trim,,3306 N CLIFTON AVE,60657.0,1168035.0679788,1922104.75230077,44.0,19.0,6.0,41.941796742471226,-87.65780439383327,"(41.94179674247123, -87.65780439383327)",2010-05-10
05/10/2010,Completed,01/27/2011,10-00634290,Tree Trim,Parkway,900 N FRANCISCO AVE,60622.0,1156882.75990774,1906076.90133056,26.0,13.0,24.0,41.89804891788611,-87.69922941897745,"(41.89804891788611, -87.69922941897745)",2010-05-10
05/10/2010,Completed,01/28/2011,10-00635706,Tree Trim,Vacant Lot,7402 S DREXEL AVE,60619.0,1183512.78507608,1856125.39451126,6.0,3.0,69.0,41.76039691012692,-87.60298058004562,"(41.76039691012692, -87.60298058004562)",2010-05-10
05/10/2010,Completed,02/16/2011,10-00632037,Tree Trim,Parkway,4131 N KEDVALE AVE,60641.0,1148108.12637619,1927135.99262786,39.0,17.0,16.0,41.95601043241209,-87.730914664651,"(41.956010432412086, -87.73091466465098)",2010-05-10
05/10/2010,Completed,02/17/2011,10-00637664,Tree Trim,Parkway,324 W 109TH PL,60628.0,1176093.45891705,1832314.03002052,34.0,5.0,49.0,41.69522502309701,-87.6308846032515,"(41.69522502309701, -87.6308846032515)",2010-05-10
05/10/2010,Completed,02/22/2011,10-00633446,Tree Trim,Parkway,3157 W WASHINGTON BLVD,60612.0,1155317.60330443,1900510.44696908,28.0,13.0,27.0,41.88280563545736,-87.70512780322558,"(41.88280563545736, -87.70512780322558)",2010-05-10
05/10/2010,Completed,02/22/2011,10-00633452,Tree Trim,Parkway,3153 W WASHINGTON BLVD,60612.0,1155344.60330443,1900510.94696908,28.0,13.0,27.0,41.88280646511059,-87.70502864438872,"(41.88280646511059, -87.70502864438872)",2010-05-10
05/10/2010,Completed,02/22/2011,10-00634701,Tree Trim,Parkway,3349 N CENTRAL AVE,60634.0,1138435.16177907,1921806.07431852,38.0,16.0,15.0,41.941565695888244,-87.76660480880304,"(41.94156569588824, -87.76660480880304)",2010-05-10
05/10/2010,Completed,02/22/2011,10-00638613,Tree Trim,Parkway,8126 S ELIZABETH ST,60620.0,1169404.25422924,1850895.00128594,21.0,6.0,71.0,41.74636107865492,-87.65483976207315,"(41.74636107865492, -87.65483976207315)",2010-05-10
05/10/2010,Completed,02/23/2011,10-00632032,Tree Trim,Parkway,4135 N KEDVALE AVE,60641.0,1148107.22637619,1927162.89262786,39.0,17.0,16.0,41.95608426545545,-87.73091727812422,"(41.956084265455445, -87.73091727812422)",2010-05-10
05/10/2010,Completed,02/23/2011,10-00638623,Tree Trim,Parkway,4736 N KEWANEE AVE,60630.0,1147712.02268154,1930794.3829816002,39.0,17.0,14.0,41.96605696414512,-87.73227651003039,"(41.96605696414512, -87.73227651003037)",2010-05-10
05/10/2010,Completed,03/02/2011,10-00632435,Tree Trim,Parkway,8342 S HOYNE AVE,60620.0,1163810.27529588,1849312.7591869999,18.0,6.0,71.0,41.742138383538695,-87.67538177827964,"(41.742138383538695, -87.67538177827966)",2010-05-10
05/10/2010,Completed,03/02/2011,10-00632437,Tree Trim,Parkway,8346 S HOYNE AVE,60620.0,1163811.07529588,1849285.859187,18.0,6.0,71.0,41.742064549100704,-87.67537960065714,"(41.742064549100704, -87.67537960065714)",2010-05-10
05/10/2010,Completed,03/03/2011,10-00635447,Tree Trim,Parkway,930 E 55TH ST,60615.0,1183376.4365668,1868732.73422645,5.0,21.0,41.0,41.79499578194175,-87.60308792365521,"(41.79499578194175, -87.6030879236552)",2010-05-10
05/10/2010,Completed,03/04/2011,10-00634454,Tree Trim,Parkway,9551 S DAMEN AVE,60643.0,1164703.36340628,1841304.21840619,19.0,22.0,72.0,41.720142928262725,-87.67233484296055,"(41.720142928262725, -87.67233484296054)",2010-05-10
05/10/2010,Completed,03/10/2011,10-00635121,Tree Trim,Parkway,2446 W BELLE PLAINE AVE,60618.0,1159330.85618447,1927155.42248519,47.0,19.0,5.0,41.955839852028156,-87.68965658925853,"(41.95583985202816, -87.68965658925853)",2010-05-10
05/10/2010,Completed,03/11/2011,10-00636829,Tree Trim,,4741 N PAULINA ST,60640.0,1164374.09321361,1931549.53449515,47.0,19.0,3.0,41.967792042091645,-87.67099167446791,"(41.967792042091645, -87.67099167446791)",2010-05-10
05/10/2010,Completed,03/14/2011,10-00638481,Tree Trim,Parkway,1400 N LATROBE AVE,60651.0,1141111.90832685,1908811.72877138,37.0,25.0,25.0,41.905858854149706,-87.75708748663635,"(41.90585885414971, -87.75708748663635)",2010-05-10
05/10/2010,Completed,03/14/2011,10-00638732,Tree Trim,Parkway,3618 W 65TH PL,60629.0,1153334.37420488,1860935.73008613,13.0,8.0,65.0,41.77424710010797,-87.7134588796351,"(41.774247100107964, -87.71345887963511)",2010-05-10
05/10/2010,Completed,03/16/2011,10-00638917,Tree Trim,Parkway,7251 S HOYNE AVE,60636.0,1163619.2727148,1856469.45011506,17.0,7.0,67.0,41.76178139562742,-87.67588123812193,"(41.76178139562742, -87.67588123812192)",2010-05-10
05/10/2010,Completed,04/01/2011,10-00638609,Tree Trim,Parkway,515 W 42ND ST,60609.0,1173558.81130378,1877073.34133038,11.0,9.0,61.0,41.81810644486318,-87.6388418004188,"(41.81810644486318, -87.63884180041879)",2010-05-10
05/10/2010,Completed,04/04/2011,10-00633565,Tree Trim,Parkway,1408 N MASSASOIT AVE,60651.0,1137753.46759642,1908788.49017902,29.0,25.0,25.0,41.90585633144249,-87.76942498837116,"(41.90585633144249, -87.76942498837116)",2010-05-10
05/10/2010,Completed,04/07/2011,10-00633525,Tree Trim,Parkway,1407 N SPRINGFIELD AVE,60651.0,1150122.49858311,1909081.39759667,30.0,25.0,23.0,41.906427980765294,-87.72398102193691,"(41.9064279807653, -87.7239810219369)",2010-05-10
05/10/2010,Completed,04/15/2011,10-00639091,Tree Trim,Parkway,2501 N WAYNE AVE,60614.0,1166889.57997058,1916728.99057942,32.0,19.0,7.0,41.92707007163555,-87.66216920118435,"(41.92707007163555, -87.66216920118435)",2010-05-10
05/10/2010,Completed,04/22/2011,10-00637138,Tree Trim,Parkway,3120 N LUNA AVE,60641.0,1138822.2639813998,1920194.6107792,30.0,25.0,19.0,41.93713664356184,-87.7652212811454,"(41.93713664356184, -87.76522128114541)",2010-05-10
05/10/2010,Completed,04/28/2011,10-00639202,Tree Trim,Parkway,2456 W ERIE ST,60612.0,1159917.48906944,1904261.92000634,26.0,13.0,24.0,41.89300636607154,-87.6881332476042,"(41.89300636607154, -87.68813324760421)",2010-05-10
05/10/2010,Completed,05/05/2011,10-00637936,Tree Trim,Parkway,5249 W WOLFRAM ST,60641.0,1140891.14767192,1918446.35001328,31.0,25.0,19.0,41.93230136585382,-87.75766085591495,"(41.93230136585382, -87.75766085591495)",2010-05-10
05/11/2010,Completed - Dup,01/13/2011,10-00642864,Tree Trim,Parkway,2817 S UNION AVE,60616.0,1172085.46702353,1886215.2955172001,11.0,9.0,60.0,41.843225345126754,-87.64397737097117,"(41.84322534512676, -87.64397737097116)",2010-05-11
05/11/2010,Completed - Dup,01/14/2011,10-00647027,Tree Trim,Parkway,1250 N WOLCOTT AVE,60622.0,1163494.08032743,1908563.62999701,1.0,14.0,24.0,41.904736029431426,-87.67487654381434,"(41.904736029431426, -87.67487654381435)",2010-05-11
05/11/2010,Completed - Dup,01/28/2011,10-00643880,Tree Trim,,5753 W WARWICK AVE,60634.0,1137332.45257984,1924352.05372599,38.0,16.0,15.0,41.94857205704711,-87.77059634243588,"(41.94857205704711, -87.77059634243587)",2010-05-11
05/11/2010,Completed - Dup,03/01/2011,10-00646367,Tree Trim,Parkway,11127 S PEORIA ST,60643.0,1172303.40159594,1831046.46799876,34.0,22.0,75.0,41.69183061670344,-87.64479829589102,"(41.691830616703434, -87.64479829589101)",2010-05-11
05/11/2010,Completed - Dup,04/01/2011,10-00643944,Tree Trim,,2345 W 23RD PL,60608.0,1161100.9496016002,1888352.70880463,25.0,10.0,31.0,41.84932549997126,-87.68422867901174,"(41.84932549997126, -87.68422867901175)",2010-05-11
05/11/2010,Completed - Dup,04/25/2011,10-00641797,Tree Trim,Parkway,4103 W KAMERLING AVE,60651.0,1148782.64589497,1908674.6875987,37.0,25.0,23.0,41.905337940259535,-87.72891339134036,"(41.90533794025953, -87.72891339134034)",2010-05-11
05/11/2010,Completed,01/04/2011,10-00646685,Tree Trim,Parkway,3445 N OLEANDER AVE,60634.0,1125144.03511595,1921967.89861295,36.0,16.0,17.0,41.94224049791214,-87.8154525401243,"(41.942240497912124, -87.8154525401243)",2010-05-11
05/11/2010,Completed,01/06/2011,10-00643950,Tree Trim,Parkway,6429 N HERMITAGE AVE,60626.0,1163583.2942851002,1942679.64546716,40.0,24.0,1.0,41.998350186260595,-87.67358413812114,"(41.99835018626059, -87.67358413812114)",2010-05-11
05/11/2010,Completed,01/07/2011,10-00639658,Tree Trim,Parkway,5523 W 63RD PL,60638.0,1140679.05852231,1861921.27690087,13.0,8.0,64.0,41.77719256261194,-87.75982767600254,"(41.77719256261194, -87.75982767600254)",2010-05-11
05/11/2010,Completed,01/07/2011,10-00642356,Tree Trim,Parkway,5743 N MCVICKER AVE,60646.0,1134906.18122451,1937802.29292116,45.0,16.0,10.0,41.98552416606257,-87.77919523694378,"(41.98552416606256, -87.77919523694378)",2010-05-11
05/11/2010,Completed,01/10/2011,10-00640105,Tree Trim,Parkway,3312 N LAKEWOOD AVE,60657.0,1167040.96259159,1922162.08729133,44.0,19.0,6.0,41.941975511645204,-87.66145647879006,"(41.9419755116452, -87.66145647879006)",2010-05-11
05/11/2010,Completed,01/10/2011,10-00644999,Tree Trim,Parkway,3218 W 64TH ST,60629.0,1156033.59710478,1862008.29312704,15.0,8.0,66.0,41.77713655906792,-87.7035351279109,"(41.77713655906792, -87.70353512791091)",2010-05-11
05/11/2010,Completed,01/11/2011,10-00640784,Tree Trim,Parkway,3432 S MARSHFIELD AVE,60608.0,1165909.17990038,1881977.2022926002,11.0,9.0,59.0,41.83172939311911,-87.66676352807659,"(41.831729393119105, -87.66676352807659)",2010-05-11
05/11/2010,Completed,01/20/2011,10-00641959,Tree Trim,Parkway,1347 E 71ST PL,60619.0,1186430.13289125,1857859.22932586,5.0,3.0,43.0,41.76508624667033,-87.5922338087825,"(41.76508624667033, -87.5922338087825)",2010-05-11
05/11/2010,Completed,01/24/2011,10-00643411,Tree Trim,Parkway,5135 N LOWELL AVE,60630.0,1146451.78740224,1933775.30252632,39.0,17.0,14.0,41.97426099283543,-87.73683389399109,"(41.97426099283543, -87.73683389399109)",2010-05-11
05/11/2010,Completed,01/24/2011,10-00646889,Tree Trim,Parkway,4242 N MCVICKER AVE,60634.0,1135257.70390709,1927577.62072911,38.0,16.0,15.0,41.957460467975956,-87.7781460412566,"(41.95746046797595, -87.77814604125659)",2010-05-11
05/11/2010,Completed,01/25/2011,10-00643223,Tree Trim,Parkway,12939 S LOWE AVE,60628.0,1174344.79309225,1819100.01490985,9.0,5.0,53.0,41.65900260342893,-87.63767762207395,"(41.659002603428924, -87.63767762207395)",2010-05-11
05/11/2010,Completed,01/26/2011,10-00644059,Tree Trim,Parkway,5858 W CORNELIA AVE,,1136692.95860764,1922674.47140461,38.0,16.0,15.0,41.94398009655893,-87.77298735149634,"(41.94398009655893, -87.77298735149633)",2010-05-11
05/11/2010,Completed,01/26/2011,10-00646391,Tree Trim,Parkway,3715 N GREENVIEW AVE,60613.0,1165650.76427942,1924757.81249596,44.0,19.0,6.0,41.94912809350531,-87.66649181245305,"(41.94912809350531, -87.66649181245305)",2010-05-11
05/11/2010,Completed,01/28/2011,10-00643478,Tree Trim,Parkway,5226 N MAGNOLIA AVE,60640.0,1167023.36013057,1934846.32717161,48.0,20.0,77.0,41.97678193509997,-87.66115547856813,"(41.97678193509997, -87.66115547856813)",2010-05-11
05/11/2010,Completed,01/31/2011,10-00643934,Tree Trim,Parkway,1358 W 109TH PL,60643.0,1169221.3639751002,1832148.09928068,34.0,22.0,75.0,41.69492072309496,-87.65605032960926,"(41.69492072309496, -87.65605032960926)",2010-05-11
05/11/2010,Completed,02/01/2011,10-00645481,Tree Trim,Parkway,3630 S LEAVITT ST,60609.0,1162285.76200687,1880580.07008178,11.0,9.0,59.0,41.827971890492776,-87.68009722821303,"(41.82797189049277, -87.68009722821303)",2010-05-11
05/11/2010,Completed,02/01/2011,10-00646537,Tree Trim,Parkway,3830 S WOLCOTT AVE,60609.0,1164321.89948174,1879160.66009159,11.0,9.0,59.0,41.82403414710669,-87.67266690074855,"(41.824034147106694, -87.67266690074857)",2010-05-11
05/11/2010,Completed,02/16/2011,10-00642368,Tree Trim,Parkway,13264 S RIVERDALE AVE,60827.0,1181964.93946677,1817351.53968565,9.0,5.0,54.0,41.65403236849394,-87.60984734338292,"(41.654032368493944, -87.60984734338292)",2010-05-11
05/11/2010,Completed,02/16/2011,10-00642776,Tree Trim,Parkway,4252 N KILDARE AVE,60641.0,1146833.70598495,1927913.55046808,38.0,17.0,16.0,41.958168600531,-87.73557984027313,"(41.958168600530996, -87.73557984027313)",2010-05-11
05/11/2010,Completed,02/16/2011,10-00643915,Tree Trim,,3034 N SEMINARY AVE,60657.0,1168422.03229991,1920308.40687315,44.0,19.0,6.0,41.93685911200128,-87.6564342788957,"(41.93685911200128, -87.6564342788957)",2010-05-11
05/11/2010,Completed,02/22/2011,10-00643284,Tree Trim,Parkway,1070 N PAULINA ST,60622.0,1164859.49461027,1907407.64699304,1.0,13.0,24.0,41.90153506094903,-87.66989382959541,"(41.90153506094903, -87.66989382959542)",2010-05-11
05/11/2010,Completed,02/22/2011,10-00644741,Tree Trim,Parkway,6355 S KILDARE AVE,60629.0,1148799.30730364,1862110.59637897,13.0,8.0,65.0,41.77755962258188,-87.73005361997791,"(41.77755962258188, -87.7300536199779)",2010-05-11
05/11/2010,Completed,02/28/2011,10-00644865,Tree Trim,Parkway,3343 N LONG AVE,60641.0,1139771.70173091,1921808.69376663,38.0,16.0,15.0,41.941548531314496,-87.76169234543686,"(41.941548531314496, -87.76169234543686)",2010-05-11
05/11/2010,Completed,03/01/2011,10-00643701,Tree Trim,Parkway,11640 S LONGWOOD DR,60643.0,1164242.58098258,1827330.7898215,19.0,22.0,75.0,41.68180716439944,-87.6744141552119,"(41.681807164399444, -87.6744141552119)",2010-05-11
05/11/2010,Completed,03/03/2011,10-00641950,Tree Trim,Parkway,5455 W SCHOOL ST,60641.0,1139413.12489308,1921404.67536589,38.0,16.0,15.0,41.94044641838517,-87.76302015924776,"(41.94044641838517, -87.76302015924776)",2010-05-11
05/11/2010,Completed,03/03/2011,10-00645848,Tree Trim,Parkway,3500 N LARAMIE AVE,60641.0,1141078.82346884,1922774.78549789,38.0,16.0,15.0,41.94417556045636,-87.7568641975052,"(41.94417556045636, -87.75686419750518)",2010-05-11
05/11/2010,Completed,03/04/2011,10-00646078,Tree Trim,Parkway,2035 W GIDDINGS ST,60625.0,1161997.32023327,1931544.33001309,47.0,19.0,4.0,41.967827847455176,-87.67973099635618,"(41.96782784745517, -87.67973099635618)",2010-05-11
05/11/2010,Completed,03/04/2011,10-00647021,Tree Trim,Parkway,4742 N WASHTENAW AVE,60625.0,1157512.70792363,1931500.17998779,47.0,19.0,4.0,41.96779939178435,-87.69622176710003,"(41.96779939178434, -87.69622176710003)",2010-05-11
05/11/2010,Completed,03/08/2011,10-00644614,Tree Trim,Parkway,2859 W 24TH BLVD,60623.0,1157658.76007136,1887793.90017235,12.0,10.0,30.0,41.847862770065156,-87.6968771553194,"(41.84786277006516, -87.6968771553194)",2010-05-11
05/11/2010,Completed,03/09/2011,10-00641670,Tree Trim,Parkway,558 W 42ND PL,60609.0,1173278.42996735,1876737.06999464,11.0,9.0,61.0,41.81718989852268,-87.6398802796637,"(41.81718989852268, -87.63988027966371)",2010-05-11
05/11/2010,Completed,03/10/2011,10-00644877,Tree Trim,Parkway,7742 S TROY ST,60652.0,1156721.16000618,1853089.09721696,18.0,8.0,70.0,41.75264706926817,-87.70125478721073,"(41.75264706926817, -87.70125478721073)",2010-05-11
05/11/2010,Completed,03/14/2011,10-00643773,Tree Trim,Parkway,3034 W GEORGE ST,60618.0,1155522.88839898,1919124.11562123,35.0,14.0,21.0,41.93387902579353,-87.70387240331458,"(41.93387902579353, -87.70387240331458)",2010-05-11
05/11/2010,Completed,03/16/2011,10-00640214,Tree Trim,Parkway,1939 W MARQUETTE RD,60636.0,1164476.97790109,1860232.00122644,15.0,7.0,67.0,41.772088320617684,-87.67263171623622,"(41.772088320617684, -87.67263171623624)",2010-05-11
05/11/2010,Completed,03/29/2011,10-00644064,Tree Trim,Parkway,3527 S EMERALD AVE,60609.0,1171877.97790531,1881491.73680543,11.0,9.0,60.0,41.83026805158293,-87.64487773784559,"(41.830268051582934, -87.64487773784559)",2010-05-11
05/11/2010,Completed,03/29/2011,10-00646891,Tree Trim,Parkway,1921 N RIDGEWAY AVE,60647.0,1151072.55080858,1912504.49990257,26.0,25.0,22.0,41.9158027214224,-87.72040122634165,"(41.91580272142241, -87.72040122634164)",2010-05-11
05/11/2010,Completed,04/01/2011,10-00642261,Tree Trim,Parkway,418 W BLACKHAWK ST,60610.0,1173182.40948914,1910278.95298525,43.0,18.0,8.0,41.909233381094076,-87.63923774034288,"(41.909233381094076, -87.63923774034289)",2010-05-11
05/11/2010,Completed,04/01/2011,10-00643929,Tree Trim,,2345 W 23RD PL,60608.0,1161100.9496016002,1888352.70880463,25.0,10.0,31.0,41.84932549997126,-87.68422867901174,"(41.84932549997126, -87.68422867901175)",2010-05-11
05/11/2010,Completed,04/01/2011,10-00644471,Tree Trim,Parkway,1816 N HUDSON AVE,60614.0,1172970.09128489,1912377.20896617,43.0,18.0,7.0,41.9149958105392,-87.63995538188213,"(41.914995810539196, -87.63995538188212)",2010-05-11
05/11/2010,Completed,04/15/2011,10-00642780,Tree Trim,Parkway,2510 N WAYNE AVE,60614.0,1166887.57997058,1916789.09057942,32.0,19.0,7.0,41.927235032275355,-87.66217482168234,"(41.92723503227536, -87.66217482168234)",2010-05-11
05/11/2010,Completed,04/15/2011,10-00646547,Tree Trim,,633 W BELDEN AVE,60614.0,1171665.28962665,1915535.92390697,43.0,18.0,7.0,41.92369232385807,-87.644655836552,"(41.92369232385807, -87.64465583655202)",2010-05-11
05/11/2010,Completed,04/25/2011,10-00643355,Tree Trim,Parkway,1719 N LOREL AVE,60639.0,1140466.17929561,1910913.70466989,37.0,25.0,25.0,41.911638794812376,-87.75940784944055,"(41.911638794812376, -87.75940784944056)",2010-05-11
05/11/2010,Completed,04/28/2011,10-00641975,Tree Trim,Parkway,2728 N HAMPDEN CT,60614.0,1172431.67630854,1918307.28579976,43.0,23.0,7.0,41.93128013536585,-87.64175773270003,"(41.931280135365846, -87.64175773270003)",2010-05-11
05/11/2010,Completed,04/29/2011,10-00646350,Tree Trim,Parkway,815 E HYDE PARK BLVD,60615.0,1182619.05712683,1871373.38266898,4.0,21.0,41.0,41.80225956210557,-87.60578324546506,"(41.80225956210557, -87.60578324546508)",2010-05-11
05/12/2010,Completed - Dup,04/20/2011,10-00651288,Tree Trim,Parkway,1600 S STATE ST,60616.0,1176589.16686602,1892430.06550464,3.0,1.0,33.0,41.860178728047025,-87.62726246581137,"(41.86017872804702, -87.62726246581136)",2010-05-12
05/12/2010,Completed - Dup,04/25/2011,10-00648251,Tree Trim,Alley,4816 W HIRSCH ST,60651.0,1144011.4699879999,1908876.82998089,37.0,25.0,25.0,41.905983554563825,-87.74643459342819,"(41.90598355456383, -87.74643459342819)",2010-05-12
05/12/2010,Completed - Dup,04/29/2011,10-00651104,Tree Trim,Parkway,5205 W DRUMMOND PL,60639.0,1141232.72382792,1917129.61022766,31.0,25.0,19.0,41.92868179680436,-87.75643814782295,"(41.92868179680436, -87.75643814782295)",2010-05-12
05/12/2010,Completed,01/04/2011,10-00650812,Tree Trim,,2027 W SUMMERDALE AVE,60625.0,1161852.28187818,1935524.16828226,40.0,20.0,4.0,41.97875172765175,-87.68015271534098,"(41.97875172765175, -87.68015271534098)",2010-05-12
05/12/2010,Completed,01/10/2011,10-00654540,Tree Trim,Parkway,5201 N LAMON AVE,60630.0,1142695.98999268,1934136.7968197,45.0,16.0,12.0,41.975323892800176,-87.7506361533474,"(41.97532389280017, -87.75063615334741)",2010-05-12
05/12/2010,Completed,01/14/2011,10-00648436,Tree Trim,Parkway,6207 W WARWICK AVE,60634.0,1134323.70809824,1924285.65970282,38.0,16.0,17.0,41.94844353974647,-87.78165767369767,"(41.94844353974647, -87.78165767369767)",2010-05-12
05/12/2010,Completed,01/14/2011,10-00654944,Tree Trim,Parkway,7136 S WASHTENAW AVE,60629.0,1159607.14508571,1857216.42782395,18.0,8.0,66.0,41.7639144198869,-87.69056575136318,"(41.763914419886895, -87.69056575136318)",2010-05-12
05/12/2010,Completed,01/27/2011,10-00648578,Tree Trim,,824 W OAKDALE AVE,60657.0,1170259.79740005,1919808.14989093,44.0,19.0,6.0,41.93544636837494,-87.64969494820947,"(41.93544636837494, -87.64969494820949)",2010-05-12
05/12/2010,Completed,02/16/2011,10-00654148,Tree Trim,Parkway,1621 W 33RD ST,60608.0,1166066.8340116001,1882869.88887947,11.0,9.0,59.0,41.83417565782445,-87.66615964018015,"(41.834175657824446, -87.66615964018014)",2010-05-12
05/12/2010,Completed,02/24/2011,10-00649300,Tree Trim,Parkway,656 W SHERIDAN RD,60613.0,1171029.65968097,1926184.18300353,46.0,23.0,6.0,41.9529255627096,-87.64667797277409,"(41.9529255627096, -87.64667797277409)",2010-05-12
05/12/2010,Completed,02/24/2011,10-00649303,Tree Trim,Parkway,652 W SHERIDAN RD,60613.0,1171060.45968097,1926186.98300353,46.0,23.0,6.0,41.95293256878689,-87.64656466855419,"(41.952932568786885, -87.64656466855419)",2010-05-12
05/12/2010,Completed,03/04/2011,10-00652180,Tree Trim,Parkway,9325 S VANDERPOEL AVE,60620.0,1166327.79760029,1842823.61099919,19.0,22.0,72.0,41.72427799766135,-87.66634182908831,"(41.72427799766135, -87.66634182908832)",2010-05-12
05/12/2010,Completed,03/04/2011,10-00654226,Tree Trim,Parkway,1920 W LELAND AVE,60640.0,1162972.36998902,1931236.07537634,47.0,19.0,4.0,41.96696151631055,-87.67615451987702,"(41.96696151631055, -87.67615451987702)",2010-05-12
05/12/2010,Completed,03/08/2011,10-00653163,Tree Trim,Parkway,1931 W EDDY ST,60657.0,1162838.36103084,1923581.5068173,47.0,19.0,5.0,41.945959827236926,-87.67686285444266,"(41.945959827236926, -87.67686285444265)",2010-05-12
05/12/2010,Completed,03/10/2011,10-00652103,Tree Trim,Parkway,2130 W BERTEAU AVE,60618.0,1161400.82898436,1927870.75977726,47.0,19.0,5.0,41.957759858315306,-87.6820269146066,"(41.957759858315306, -87.6820269146066)",2010-05-12
05/12/2010,Completed,03/11/2011,10-00654883,Tree Trim,Parkway,8755 S WINCHESTER AVE,60620.0,1165222.28626946,1846595.36758027,21.0,22.0,71.0,41.73465171236956,-87.67028487616308,"(41.734651712369555, -87.67028487616308)",2010-05-12
05/12/2010,Completed,03/16/2011,10-00652080,Tree Trim,,7112 S LAFAYETTE AVE,60621.0,1177067.32981707,1857910.06608022,6.0,7.0,69.0,41.765441988324646,-87.62654943644912,"(41.765441988324646, -87.62654943644912)",2010-05-12
05/12/2010,Completed,04/04/2011,10-00648023,Tree Trim,Parkway,1805 N LUNA AVE,60639.0,1139114.76152004,1911471.6240048,37.0,25.0,25.0,41.913194496634524,-87.76435901376446,"(41.91319449663452, -87.76435901376446)",2010-05-12
05/12/2010,Completed,04/04/2011,10-00653243,Tree Trim,Parkway,1334 N MAYFIELD AVE,60651.0,1136779.090911,1908276.8267197,29.0,25.0,25.0,41.904469785641396,-87.77301655708976,"(41.904469785641396, -87.77301655708976)",2010-05-12
05/12/2010,Completed,04/08/2011,10-00654481,Tree Trim,Parkway,3218 S WALLACE ST,60616.0,1172820.01040699,1883571.35971739,11.0,9.0,60.0,41.83595395101949,-87.64135995520667,"(41.83595395101949, -87.64135995520665)",2010-05-12
05/12/2010,Completed,04/22/2011,10-00653202,Tree Trim,Parkway,3051 N LEAVITT ST,60618.0,1161158.24318419,1920234.01661005,32.0,19.0,5.0,41.936809259533,-87.68313171912361,"(41.936809259533, -87.68313171912361)",2010-05-12
05/12/2010,Completed,04/22/2011,10-00653763,Tree Trim,Parkway,4467 S LAKE PARK AVE,60653.0,1185096.62400088,1875586.16228174,4.0,21.0,39.0,41.813761830485795,-87.59656464669636,"(41.8137618304858, -87.59656464669636)",2010-05-12
05/12/2010,Completed,04/22/2011,10-00653859,Tree Trim,Parkway,3036 N MASON AVE,60634.0,1136193.75011916,1919572.08780479,30.0,25.0,19.0,41.935475765630656,-87.77489652869271,"(41.935475765630656, -87.7748965286927)",2010-05-12
05/12/2010,Completed,04/28/2011,10-00652265,Tree Trim,Parkway,2642 S HAMLIN AVE,60623.0,1151464.36512203,1886172.6861047002,22.0,10.0,30.0,41.84353768406209,-87.71965346406138,"(41.843537684062085, -87.71965346406137)",2010-05-12
05/12/2010,Completed,04/29/2011,10-00652857,Tree Trim,Parkway,2631 W CRYSTAL ST,60622.0,1158631.29768874,1908224.03997741,26.0,14.0,24.0,41.90390520372065,-87.69274829733868,"(41.90390520372065, -87.69274829733867)",2010-05-12
05/12/2010,Completed,05/04/2011,10-00653164,Tree Trim,Parkway,4304 W POTOMAC AVE,60651.0,1147446.00262225,1908309.15311218,37.0,25.0,23.0,41.90436061491194,-87.73383274903324,"(41.904360614911944, -87.73383274903324)",2010-05-12
05/12/2010,Completed,05/06/2011,10-00649194,Tree Trim,Parkway,3030 N PARKSIDE AVE,60634.0,1138177.36770429,1919580.68199158,31.0,25.0,19.0,41.935463661423945,-87.76760629846159,"(41.935463661423945, -87.76760629846159)",2010-05-12
05/13/2010,Completed - Dup,03/16/2011,10-00660130,Tree Trim,,7112 S LAFAYETTE AVE,60621.0,1177067.32981707,1857910.06608022,6.0,7.0,69.0,41.765441988324646,-87.62654943644912,"(41.765441988324646, -87.62654943644912)",2010-05-13
05/13/2010,Completed - Dup,03/29/2011,10-00661060,Tree Trim,Parkway,914 W 32ND ST,60608.0,1170733.25610117,1883724.89371308,11.0,9.0,60.0,41.836421136999256,-87.64901245608498,"(41.83642113699926, -87.64901245608499)",2010-05-13
05/13/2010,Completed,01/10/2011,10-00661955,Tree Trim,Parkway,4556 N LOWELL AVE,60630.0,1146408.25283162,1929925.7738221001,45.0,17.0,16.0,41.963698431793524,-87.73709249993921,"(41.96369843179352, -87.73709249993922)",2010-05-13
05/13/2010,Completed,01/10/2011,10-00662512,Tree Trim,Parkway,3414 W MARQUETTE RD,60629.0,1154788.62987875,1859979.18167588,15.0,8.0,66.0,41.771593296664136,-87.70815327740202,"(41.771593296664136, -87.70815327740202)",2010-05-13
05/13/2010,Completed,01/11/2011,10-00660541,Tree Trim,Parkway,3538 W 60TH ST,60629.0,1153699.44618476,1864598.40558785,16.0,8.0,66.0,41.784290811672506,-87.71202356618679,"(41.78429081167251, -87.7120235661868)",2010-05-13
05/13/2010,Completed,01/13/2011,10-00656641,Tree Trim,Parkway,4148 N MOBILE AVE,60634.0,1133613.58541526,1926927.61172175,38.0,16.0,15.0,41.95570584644982,-87.78420576716573,"(41.95570584644982, -87.78420576716573)",2010-05-13
05/13/2010,Completed,01/13/2011,10-00656644,Tree Trim,Parkway,4146 N MOBILE AVE,60634.0,1133613.98541526,1926914.81172175,38.0,16.0,15.0,41.955670714894346,-87.78420459817534,"(41.955670714894346, -87.78420459817535)",2010-05-13
05/13/2010,Completed,01/13/2011,10-00658121,Tree Trim,Parkway,3801 W 68TH PL,60629.0,1152211.38198139,1858912.80342942,13.0,8.0,65.0,41.76871800568624,-87.71762870191108,"(41.76871800568624, -87.71762870191108)",2010-05-13
05/13/2010,Completed,01/13/2011,10-00658425,Tree Trim,Parkway,4228 N MOBILE AVE,60634.0,1133594.27736688,1927537.32992624,38.0,16.0,15.0,41.957379315427715,-87.78426238748119,"(41.957379315427715, -87.78426238748118)",2010-05-13
05/13/2010,Completed,01/14/2011,10-00657517,Tree Trim,,916 W ROSCOE ST,60657.0,1169475.0267119,1922764.12849437,44.0,23.0,6.0,41.943574837369795,-87.65249272506496,"(41.943574837369795, -87.65249272506497)",2010-05-13
05/13/2010,Completed,01/25/2011,10-00661270,Tree Trim,Parkway,7028 S MICHIGAN AVE,60637.0,1178378.45902181,1858446.45071068,6.0,3.0,69.0,41.76688422149592,-87.62172750182398,"(41.76688422149592, -87.62172750182398)",2010-05-13
05/13/2010,Completed,01/25/2011,10-00662943,Tree Trim,Parkway,3749 N ST LOUIS AVE,60618.0,1152389.70270012,1924706.45263391,35.0,17.0,16.0,41.94925993228558,-87.71523888829118,"(41.94925993228558, -87.71523888829118)",2010-05-13
05/13/2010,Completed,01/27/2011,10-00658829,Tree Trim,Parkway,12451 S EGGLESTON AVE,60628.0,1175555.2652158998,1822344.72757174,34.0,5.0,53.0,41.667879733904115,-87.63315173406873,"(41.66787973390412, -87.63315173406873)",2010-05-13
05/13/2010,Completed,02/01/2011,10-00657310,Tree Trim,Parkway,3825 S WOLCOTT AVE,60609.0,1164320.40232502,1879215.8438958,11.0,9.0,59.0,41.824185609119965,-87.67267083655844,"(41.82418560911997, -87.67267083655844)",2010-05-13
05/13/2010,Completed,02/01/2011,10-00659738,Tree Trim,Parkway,6700 S RIDGELAND AVE,60649.0,1189018.56999406,1860902.80161628,5.0,3.0,43.0,41.77337647168008,-87.58264920125816,"(41.77337647168008, -87.58264920125815)",2010-05-13
05/13/2010,Completed,02/18/2011,10-00655323,Tree Trim,Parkway,8233 S SAWYER AVE,60652.0,1156148.07053388,1849823.24542446,18.0,8.0,70.0,41.74369657443857,-87.70344255650484,"(41.74369657443857, -87.70344255650484)",2010-05-13
05/13/2010,Completed,02/22/2011,10-00655766,Tree Trim,Parkway,1059 W OAKDALE AVE,60657.0,1168708.11469025,1919754.51690052,44.0,19.0,6.0,41.93533300890589,-87.65539899058801,"(41.935333008905886, -87.65539899058801)",2010-05-13
05/13/2010,Completed,02/22/2011,10-00659924,Tree Trim,Parkway,3737 N LOWELL AVE,60641.0,1146563.2898903,1924484.45252888,38.0,17.0,16.0,41.94876404805479,-87.73666176773796,"(41.94876404805479, -87.73666176773796)",2010-05-13
05/13/2010,Completed,02/28/2011,10-00661973,Tree Trim,Parkway,5527 W WARWICK AVE,60641.0,1138838.43001163,1924386.3200878997,38.0,16.0,15.0,41.948638821156045,-87.76505973800774,"(41.94863882115605, -87.76505973800774)",2010-05-13
05/13/2010,Completed,03/01/2011,10-00656959,Tree Trim,Vacant Lot,10600 S ABERDEEN ST,60643.0,1171022.26250527,1834517.8399776001,34.0,22.0,73.0,41.70138461546805,-87.64938779010157,"(41.70138461546805, -87.64938779010157)",2010-05-13
05/13/2010,Completed,03/01/2011,10-00659348,Tree Trim,Parkway,600 N ELIZABETH ST,60642.0,1167709.31261837,1904145.45163254,27.0,13.0,24.0,41.892522422343696,-87.65952028851558,"(41.892522422343696, -87.65952028851558)",2010-05-13
05/13/2010,Completed,03/14/2011,10-00660083,Tree Trim,Parkway,2625 N RIDGEWAY AVE,60647.0,1150939.28770036,1917193.52777144,35.0,25.0,22.0,41.92867244128461,-87.72076776835625,"(41.92867244128461, -87.72076776835625)",2010-05-13
05/13/2010,Completed,03/14/2011,10-00660507,Tree Trim,Parkway,5159 S KENNETH AVE,60632.0,1147570.0052978997,1870013.15803351,23.0,8.0,57.0,41.79926908966996,-87.73435848307692,"(41.79926908966996, -87.73435848307692)",2010-05-13
05/13/2010,Completed,03/31/2011,10-00662708,Tree Trim,Parkway,1841 N KOSTNER AVE,60639.0,1146764.40701767,1911889.20427515,31.0,25.0,20.0,41.914197686296184,-87.73624491641357,"(41.91419768629618, -87.73624491641358)",2010-05-13
05/13/2010,Completed,04/01/2011,10-00659038,Tree Trim,Parkway,235 W EUGENIE ST,60614.0,1174080.92008333,1911609.84632455,43.0,18.0,7.0,41.91286541626317,-87.63589729331221,"(41.91286541626317, -87.6358972933122)",2010-05-13
05/13/2010,Completed,04/08/2011,10-00658826,Tree Trim,Parkway,3123 N LOTUS AVE,60641.0,1139488.31859992,1920230.59357738,30.0,25.0,19.0,41.937223245908065,-87.76277251310354,"(41.93722324590806, -87.76277251310354)",2010-05-13
05/13/2010,Completed,04/11/2011,10-00661959,Tree Trim,Parkway,5516 S PERRY AVE,60621.0,1176642.39001844,1868315.7302026001,3.0,2.0,40.0,41.79400580021199,-87.62779403468588,"(41.79400580021199, -87.62779403468588)",2010-05-13
05/13/2010,Completed,04/26/2011,10-00662591,Tree Trim,,835 S BISHOP ST,60607.0,1166850.47810267,1896142.47967468,25.0,12.0,28.0,41.87058011665131,-87.66290403071676,"(41.87058011665131, -87.66290403071676)",2010-05-13
05/13/2010,Completed,04/26/2011,10-00662594,Tree Trim,,837 S BISHOP ST,60607.0,1166850.47810267,1896141.57967468,25.0,12.0,28.0,41.870577646977374,-87.66290405652357,"(41.870577646977374, -87.66290405652357)",2010-05-13
05/13/2010,Completed,04/27/2011,10-00662049,Tree Trim,Parkway,2425 W ERIE ST,60612.0,1160123.93401286,1904266.23470196,26.0,13.0,24.0,41.89301394354805,-87.68737493377931,"(41.89301394354805, -87.68737493377931)",2010-05-13
05/13/2010,Completed,04/27/2011,10-00662050,Tree Trim,Parkway,2427 W ERIE ST,60612.0,1160110.63401286,1904265.93470196,26.0,13.0,24.0,41.89301339507513,-87.68742378796856,"(41.89301339507513, -87.68742378796857)",2010-05-13
05/13/2010,Completed,05/02/2011,10-00658304,Tree Trim,Parkway,3024 N KEATING AVE,60641.0,1144195.22431115,1919685.92669657,31.0,25.0,19.0,41.93564136273176,-87.74548740783585,"(41.93564136273176, -87.74548740783584)",2010-05-13
05/13/2010,Completed,05/03/2011,10-00660386,Tree Trim,Parkway,2826 W DICKENS AVE,60647.0,1157077.45029969,1913925.66887816,35.0,14.0,22.0,41.91958263834605,-87.69830091129391,"(41.91958263834605, -87.69830091129391)",2010-05-13
05/14/2010,Completed - Dup,01/10/2011,10-00666134,Tree Trim,Parkway,6800 S JUSTINE ST,60636.0,1167175.93491854,1859633.64446898,17.0,7.0,67.0,41.77038902929573,-87.66275524696304,"(41.77038902929573, -87.66275524696304)",2010-05-14
05/14/2010,Completed - Dup,02/16/2011,10-00666768,Tree Trim,,4252 N KILDARE AVE,60641.0,1146833.70598495,1927913.55046808,38.0,17.0,16.0,41.958168600531,-87.73557984027313,"(41.958168600530996, -87.73557984027313)",2010-05-14
05/14/2010,Completed - Dup,03/08/2011,10-00668457,Tree Trim,Parkway,2715 W 24TH ST,60608.0,1158641.7727662,1887957.55572308,12.0,10.0,30.0,41.84829181039814,-87.69326497774901,"(41.84829181039814, -87.693264977749)",2010-05-14
05/14/2010,Completed,01/05/2011,10-00668849,Tree Trim,Parkway,5427 N MONITOR AVE,60630.0,1136206.60927853,1935528.98899451,45.0,16.0,11.0,41.97926283727666,-87.77446682313422,"(41.979262837276664, -87.77446682313422)",2010-05-14
05/14/2010,Completed,01/05/2011,10-00669105,Tree Trim,Parkway,1751 W SUMMERDALE AVE,60640.0,1163714.37741003,1935576.09992424,40.0,20.0,77.0,41.978855062592224,-87.67330331861395,"(41.97885506259223, -87.67330331861396)",2010-05-14
05/14/2010,Completed,01/07/2011,10-00665473,Tree Trim,Parkway,6402 N HERMITAGE AVE,60626.0,1163589.8942851003,1942568.14546716,40.0,24.0,1.0,41.99804408771893,-87.67356301939819,"(41.998044087718924, -87.67356301939819)",2010-05-14
05/14/2010,Completed,01/07/2011,10-00667098,Tree Trim,Parkway,2230 W ERIE ST,60612.0,1161420.43781057,1904302.87179208,1.0,13.0,24.0,41.8930875957295,-87.68261234602879,"(41.89308759572949, -87.68261234602878)",2010-05-14
05/14/2010,Completed,01/13/2011,10-00667640,Tree Trim,Parkway,3821 N NARRAGANSETT AVE,60634.0,1133022.13661201,1924826.47988229,38.0,16.0,17.0,41.94995049773407,-87.78642939465084,"(41.94995049773407, -87.78642939465084)",2010-05-14
05/14/2010,Completed,01/18/2011,10-00666650,Tree Trim,Parkway,3601 W 81ST ST,60652.0,1153745.90001624,1850643.97999727,18.0,8.0,70.0,41.745996724066,-87.71222268693201,"(41.745996724066, -87.71222268693202)",2010-05-14
05/14/2010,Completed,01/25/2011,10-00668115,Tree Trim,Parkway,2307 N KIMBALL AVE,60647.0,1153324.33812609,1915164.04519523,35.0,14.0,22.0,41.92305628224323,-87.71205748793264,"(41.92305628224323, -87.71205748793264)",2010-05-14
05/14/2010,Completed,01/25/2011,10-00669289,Tree Trim,Parkway,3537 W 78TH ST,60652.0,1154180.1533867,1852653.36907025,18.0,8.0,70.0,41.75150220936868,-87.71057818383993,"(41.75150220936868, -87.71057818383994)",2010-05-14
05/14/2010,Completed,02/17/2011,10-00665050,Tree Trim,Parkway,3414 S ABERDEEN ST,60608.0,1169538.67676632,1882214.79191367,11.0,9.0,60.0,41.832303307550404,-87.65343965594352,"(41.83230330755041, -87.65343965594352)",2010-05-14
05/14/2010,Completed,02/17/2011,10-00665360,Tree Trim,Parkway,6827 S PAULINA ST,60636.0,1166187.97989657,1859428.04263285,17.0,7.0,67.0,41.76984591134437,-87.66638254387009,"(41.76984591134437, -87.6663825438701)",2010-05-14
05/14/2010,Completed,02/18/2011,10-00663859,Tree Trim,Parkway,5351 W CUYLER AVE,60641.0,1139953.20763089,1926408.26991563,38.0,16.0,15.0,41.95416688707496,-87.76091232443999,"(41.954166887074955, -87.76091232443999)",2010-05-14
05/14/2010,Completed,02/22/2011,10-00666026,Tree Trim,,5350 W WARWICK AVE,60641.0,1140359.86148185,1924422.17606707,38.0,16.0,15.0,41.9487093963332,-87.75946627886779,"(41.9487093963332, -87.7594662788678)",2010-05-14
05/14/2010,Completed,02/22/2011,10-00669188,Tree Trim,Parkway,1314 W LELAND AVE,60640.0,1166586.14943145,1931332.69033121,46.0,23.0,3.0,41.967149800797145,-87.66286440640984,"(41.96714980079714, -87.66286440640985)",2010-05-14
05/14/2010,Completed,03/04/2011,10-00668315,Tree Trim,Parkway,4537 N ARTESIAN AVE,60625.0,1159221.20416785,1930045.33131002,47.0,19.0,4.0,41.96377217800831,-87.6899799317658,"(41.96377217800831, -87.6899799317658)",2010-05-14
05/14/2010,Completed,03/04/2011,10-00669380,Tree Trim,Parkway,3638 N PINE GROVE AVE,60613.0,1171187.49770067,1924719.38887192,46.0,23.0,6.0,41.94890264604497,-87.64614093017661,"(41.94890264604497, -87.64614093017663)",2010-05-14
05/14/2010,Completed,03/08/2011,10-00668512,Tree Trim,Parkway,5600 S SEELEY AVE,60636.0,1163649.16622253,1867510.99218694,15.0,7.0,67.0,41.792080240842026,-87.67546208874028,"(41.79208024084202, -87.67546208874026)",2010-05-14
05/14/2010,Completed,03/10/2011,10-00667998,Tree Trim,Parkway,2217 W CULLOM AVE,60618.0,1160739.75440828,1928517.78140119,47.0,19.0,5.0,41.95954908075296,-87.68443923476434,"(41.959549080752964, -87.68443923476434)",2010-05-14
05/14/2010,Completed,03/10/2011,10-00668035,Tree Trim,Parkway,2014 W CULLOM AVE,60618.0,1162147.77871449,1928555.73951153,47.0,19.0,5.0,41.95962386511346,-87.6792616573202,"(41.95962386511346, -87.67926165732018)",2010-05-14
05/14/2010,Completed,03/18/2011,10-00668941,Tree Trim,Parkway,1511 N CLEVELAND AVE,60610.0,1172710.60712349,1910395.49737131,43.0,18.0,8.0,41.90956364824479,-87.64096745896738,"(41.90956364824479, -87.64096745896738)",2010-05-14
05/14/2010,Completed,04/12/2011,10-00666564,Tree Trim,Parkway,2715 S CHRISTIANA AVE,60623.0,1154469.8415253,1885767.00811935,22.0,10.0,30.0,41.842364994438846,-87.70863476463802,"(41.84236499443884, -87.70863476463803)",2010-05-14
05/14/2010,Completed,04/12/2011,10-00667860,Tree Trim,Parkway,2458 S CHRISTIANA AVE,60623.0,1154421.10571125,1887466.28676938,22.0,10.0,30.0,41.84702899062083,-87.70876826297756,"(41.84702899062083, -87.70876826297757)",2010-05-14
05/14/2010,Completed,04/22/2011,10-00667513,Tree Trim,Parkway,3111 N HOYNE AVE,60618.0,1161805.94813126,1920693.27598967,32.0,19.0,5.0,41.938055990028246,-87.68073847008495,"(41.938055990028246, -87.68073847008496)",2010-05-14
05/14/2010,Completed,04/25/2011,10-00668822,Tree Trim,Parkway,1538 N KEATING AVE,60651.0,1144444.3707303999,1909806.64738338,37.0,25.0,25.0,41.90852693507832,-87.74482093897808,"(41.908526935078314, -87.74482093897808)",2010-05-14
05/14/2010,Completed,04/26/2011,10-00667081,Tree Trim,Parkway,1001 W ALTGELD ST,60614.0,1169195.34277213,1916791.76836764,43.0,19.0,7.0,41.92719249886402,-87.65369472509121,"(41.927192498864024, -87.65369472509121)",2010-05-14
05/14/2010,Completed,04/27/2011,10-00663879,Tree Trim,Parkway,1929 W RACE AVE,60622.0,1163442.44359913,1903766.8332107,26.0,13.0,24.0,41.89157434328235,-87.67520138637354,"(41.89157434328235, -87.67520138637353)",2010-05-14
05/14/2010,Completed,04/27/2011,10-00665261,Tree Trim,Parkway,2241 W ERIE ST,60612.0,1161346.33781057,1904300.67179208,26.0,13.0,24.0,41.89308310053625,-87.68288454876063,"(41.893083100536245, -87.68288454876063)",2010-05-14
05/14/2010,Completed,05/03/2011,10-00663905,Tree Trim,Parkway,4727 S LANGLEY AVE,60615.0,1181728.27656951,1873823.17309591,4.0,2.0,38.0,41.80900263151613,-87.60897435307183,"(41.80900263151613, -87.60897435307183)",2010-05-14
05/14/2010,Completed,05/03/2011,10-00665177,Tree Trim,Parkway,2849 W MCLEAN AVE,60647.0,1156911.75642298,1913539.06842559,35.0,14.0,22.0,41.91852514158652,-87.6989202041492,"(41.91852514158652, -87.6989202041492)",2010-05-14
05/14/2010,Completed,05/04/2011,10-00667484,Tree Trim,Parkway,2954 N WHIPPLE ST,60618.0,1155532.06740706,1919487.23717975,35.0,14.0,21.0,41.93487527322621,-87.7038288721797,"(41.934875273226204, -87.7038288721797)",2010-05-14
05/15/2010,Completed,01/13/2011,10-00670709,Tree Trim,Parkway,9129 S LOWE AVE,60620.0,1173573.71788745,1844339.79669556,21.0,22.0,73.0,41.72828149285087,-87.63975549962841,"(41.72828149285087, -87.63975549962841)",2010-05-15
05/15/2010,Completed,03/02/2011,10-00670349,Tree Trim,Parkway,5149 S BISHOP ST,60609.0,1167538.73688893,1870596.50137434,16.0,9.0,61.0,41.800464676629474,-87.66111118050313,"(41.80046467662948, -87.66111118050313)",2010-05-15
05/15/2010,Completed,03/08/2011,10-00671194,Tree Trim,Parkway,5616 S KIMBARK AVE,60637.0,1185622.14371257,1868022.28367792,5.0,21.0,41.0,41.79299360670344,-87.59487540020922,"(41.79299360670344, -87.59487540020922)",2010-05-15
05/15/2010,Completed,04/13/2011,10-00670860,Tree Trim,Parkway,3757 N MONTICELLO AVE,60618.0,1151389.73112445,1924735.30729387,35.0,17.0,16.0,41.949358841420995,-87.71891389537657,"(41.949358841421, -87.71891389537657)",2010-05-15
05/15/2010,Completed,05/03/2011,10-00670785,Tree Trim,Parkway,2509 N MAPLEWOOD AVE,60647.0,1158940.87268971,1916627.76608504,35.0,14.0,22.0,41.92695932058405,-87.69138009353156,"(41.926959320584054, -87.69138009353158)",2010-05-15
05/16/2010,Completed - Dup,04/15/2011,10-00671868,Tree Trim,Parkway,468 W DEMING PL,60614.0,1172743.37060499,1917566.95859039,43.0,23.0,7.0,41.92924174252793,-87.64063430348786,"(41.92924174252793, -87.64063430348786)",2010-05-16
05/16/2010,Completed,01/03/2011,10-00671981,Tree Trim,Parkway,7207 S SPAULDING AVE,60629.0,1155617.53782726,1856633.68732825,18.0,8.0,66.0,41.76239616750597,-87.70520430486151,"(41.76239616750597, -87.7052043048615)",2010-05-16
05/16/2010,Completed,01/10/2011,10-00672039,Tree Trim,Parkway,3351 N RUTHERFORD AVE,60634.0,1130824.18252752,1921532.11577643,36.0,16.0,17.0,41.940948593103926,-87.79458510065064,"(41.94094859310392, -87.79458510065064)",2010-05-16
05/16/2010,Completed,02/22/2011,10-00672210,Tree Trim,Parkway,5340 W ADDISON ST,60641.0,1140120.75810134,1923418.16088216,38.0,16.0,15.0,41.94595867188489,-87.76036986241476,"(41.945958671884874, -87.76036986241476)",2010-05-16
05/16/2010,Completed,04/27/2011,10-00672938,Tree Trim,Parkway,2229 W RACE AVE,60612.0,1161444.39022379,1903707.36579584,26.0,13.0,24.0,41.891452979570644,-87.68254096617531,"(41.891452979570644, -87.68254096617531)",2010-05-16
05/17/2010,Completed - Dup,01/20/2011,10-00679392,Tree Trim,Parkway,2926 N ALBANY AVE,60618.0,1155203.85740275,1919294.12030194,35.0,14.0,21.0,41.93435195289287,-87.70504025711409,"(41.93435195289287, -87.7050402571141)",2010-05-17
05/17/2010,Completed - Dup,04/04/2011,10-00674080,Tree Trim,Parkway,1805 N LUNA AVE,60639.0,1139114.76152004,1911471.6240048,37.0,25.0,25.0,41.913194496634524,-87.76435901376446,"(41.91319449663452, -87.76435901376446)",2010-05-17
05/17/2010,Completed - Dup,04/04/2011,10-00680982,Tree Trim,,1401 N MONITOR AVE,60651.0,1137094.95042934,1908724.38460595,29.0,25.0,25.0,41.9056922716886,-87.77184553748968,"(41.9056922716886, -87.77184553748968)",2010-05-17
05/17/2010,Completed - Dup,04/25/2011,10-00680325,Tree Trim,Parkway,2020 N LEAMINGTON AVE,60639.0,1141752.34006678,1912958.32661123,37.0,25.0,19.0,41.917225747102385,-87.75463214916145,"(41.91722574710238, -87.75463214916145)",2010-05-17
05/17/2010,Completed - Dup,04/26/2011,10-00675044,Tree Trim,Parkway,1505 S MICHIGAN AVE,60605.0,1177466.2395772,1893026.24372512,2.0,1.0,33.0,41.861794841412774,-87.624024917804,"(41.861794841412774, -87.624024917804)",2010-05-17
05/17/2010,Completed,01/03/2011,10-00674752,Tree Trim,Parkway,6416 S LOCKWOOD AVE,60638.0,1142170.72000257,1861476.56002259,13.0,8.0,64.0,41.77594475292217,-87.7543701387591,"(41.77594475292217, -87.75437013875909)",2010-05-17
05/17/2010,Completed,01/05/2011,10-00679914,Tree Trim,Parkway,3434 N OAK PARK AVE,60634.0,1130472.36190955,1922074.16413368,36.0,16.0,17.0,41.942442096563184,-87.79586570652931,"(41.94244209656318, -87.79586570652931)",2010-05-17
05/17/2010,Completed,01/11/2011,10-00674908,Tree Trim,Parkway,3512 W 60TH ST,60629.0,1153969.49201447,1864606.36556983,16.0,8.0,66.0,41.78430729607556,-87.7110332509403,"(41.78430729607556, -87.71103325094032)",2010-05-17
05/17/2010,Completed,01/13/2011,10-00679547,Tree Trim,Parkway,3930 W 69TH ST,60629.0,1151354.85419964,1858557.59743412,13.0,8.0,65.0,41.7677600456063,-87.7207776190213,"(41.7677600456063, -87.7207776190213)",2010-05-17
05/17/2010,Completed,01/19/2011,10-00680608,Tree Trim,Parkway,2621 W 83RD ST,60652.0,1160237.82003208,1849498.85057581,18.0,8.0,70.0,41.74272325627205,-87.68846618747496,"(41.74272325627205, -87.68846618747496)",2010-05-17
05/17/2010,Completed,01/24/2011,10-00680524,Tree Trim,Parkway,4936 N KENNETH AVE,60630.0,1145805.00302713,1932437.87543122,39.0,17.0,14.0,41.97060332777061,-87.73924643461363,"(41.970603327770604, -87.73924643461362)",2010-05-17
05/17/2010,Completed,01/25/2011,10-00677844,Tree Trim,Alley,12927 S LOWE AVE,60628.0,1174342.89309225,1819154.01490985,9.0,5.0,53.0,41.65915083063955,-87.63768297988949,"(41.659150830639554, -87.63768297988948)",2010-05-17
05/17/2010,Completed,01/25/2011,10-00679057,Tree Trim,Parkway,3026 N CLIFTON AVE,60657.0,1168093.95231951,1920245.87697805,44.0,19.0,6.0,41.936694629068825,-87.65764182209786,"(41.936694629068825, -87.65764182209786)",2010-05-17
05/17/2010,Completed,01/25/2011,10-00680792,Tree Trim,Parkway,4057 N PARKSIDE AVE,60634.0,1137954.53593242,1926413.82001869,38.0,16.0,15.0,41.9542185150099,-87.76825967869465,"(41.9542185150099, -87.76825967869465)",2010-05-17
05/17/2010,Completed,01/26/2011,10-00675520,Tree Trim,Parkway,5054 W MONTANA ST,60639.0,1142286.50603131,1915833.49088287,31.0,25.0,19.0,41.925105591799294,-87.75259805699329,"(41.925105591799294, -87.75259805699329)",2010-05-17
05/17/2010,Completed,01/26/2011,10-00678526,Tree Trim,Parkway,12600 S HARVARD AVE,60628.0,1176247.21169838,1821382.64640789,9.0,5.0,53.0,41.66522417271232,-87.63064808588214,"(41.66522417271232, -87.63064808588214)",2010-05-17
05/17/2010,Completed,01/26/2011,10-00680724,Tree Trim,Parkway,332 W 126TH ST,60628.0,1176247.21169838,1821382.64640789,9.0,5.0,53.0,41.66522417271232,-87.63064808588214,"(41.66522417271232, -87.63064808588214)",2010-05-17
05/17/2010,Completed,01/27/2011,10-00678250,Tree Trim,,817 W WOLFRAM ST,60657.0,1170329.19016678,1919141.60999604,44.0,19.0,6.0,41.93361583495752,-87.64945946759455,"(41.933615834957514, -87.64945946759455)",2010-05-17
05/17/2010,Completed,01/27/2011,10-00678813,Tree Trim,Parkway,4551 N KEDVALE AVE,60630.0,1147917.31002839,1929901.32097018,39.0,17.0,14.0,41.96360238207829,-87.73154476255623,"(41.9636023820783, -87.73154476255624)",2010-05-17
05/17/2010,Completed,01/28/2011,10-00680193,Tree Trim,Parkway,10835 S HERMOSA AVE,60643.0,1167224.47992924,1832715.94676829,19.0,22.0,75.0,41.696521846741646,-87.66334537611019,"(41.69652184674165, -87.66334537611019)",2010-05-17
