SERVICE REQUEST TYPE,SERVICE REQUEST NUMBER,DATE SERVICE REQUEST WAS RECEIVED,"LOCATION OF BUILDING ON THE LOT (IF GARAGE, CHANGE TYPE CODE TO BGD).",IS THE BUILDING DANGEROUS OR HAZARDOUS?,IS BUILDING OPEN OR BOARDED?,"IF THE BUILDING IS OPEN, WHERE IS THE ENTRY POINT?",IS THE BUILDING CURRENTLY VACANT OR OCCUPIED?,IS THE BUILDING VACANT DUE TO FIRE?,"ANY PEOPLE USING PROPERTY? (HOMELESS, CHILDEN, GANGS)",ADDRESS STREET NUMBER,ADDRESS STREET DIRECTION,ADDRESS STREET NAME,ADDRESS STREET SUFFIX,ZIP CODE,X COORDINATE,Y COORDINATE,Ward,Police District,Community Area,LATITUDE,LONGITUDE,Location,date
Vacant/Abandoned Building,14-01689083,10/03/2014,,,,,,,,6515,S,MINERVA,AVE,60637.0,1184998.59551789,1862039.77499896,20.0,3.0,42.0,41.776591771981956,-87.59734962535029,"(41.77659177198195, -87.59734962535028)",2014-10-03
Vacant/Abandoned Building,14-01670665,10/01/2014,Front,,Open,,Vacant,False,False,2022,N,SAYRE,AVE,60707.0,1129264.26001082,1912669.83640566,36.0,25.0,25.0,41.916656163271405,-87.80052092229414,"(41.916656163271405, -87.80052092229414)",2014-10-01
Vacant/Abandoned Building,14-01676798,10/02/2014,Front,,Open,,Vacant,True,False,4352,W,VAN BUREN,ST,60624.0,1147441.71793427,1897667.40592874,24.0,11.0,26.0,41.87515856422422,-87.73412146425646,"(41.875158564224215, -87.73412146425646)",2014-10-02
Vacant/Abandoned Building,14-01677011,10/02/2014,Front,,Open,,Vacant,False,False,4839,S,ELIZABETH,ST,60609.0,1168808.39451873,1872688.19122718,20.0,9.0,61.0,41.806177163505694,-87.65639453467583,"(41.806177163505694, -87.65639453467583)",2014-10-02
Vacant/Abandoned Building,14-01690929,10/03/2014,Front,,Open,,Vacant,False,False,7331,S,DORCHESTER,AVE,60619.0,1186809.56450381,1856665.2742701,5.0,3.0,43.0,41.76180094619781,-87.59088087139781,"(41.76180094619781, -87.59088087139781)",2014-10-03
Vacant/Abandoned Building,14-01702044,10/06/2014,Front,,Open,,Vacant,False,False,735,N,LOTUS,AVE,60644.0,1139781.50369485,1904347.22907368,37.0,15.0,25.0,41.89363215321737,-87.76208380877827,"(41.89363215321737, -87.76208380877827)",2014-10-06
Vacant/Abandoned Building,14-01679404,10/02/2014,Front,,Open,BOARDS HAVE BEEN REMOVED IN THE FRONT,Vacant,False,True,4413,W,WEST END,AVE,60624.0,1146893.5111113999,1900608.60897495,28.0,11.0,26.0,41.883240053643455,-87.7360591270512,"(41.883240053643455, -87.7360591270512)",2014-10-02
Vacant/Abandoned Building,14-01690797,10/03/2014,Front,,Open,,Vacant,False,False,6653,S,MARSHFIELD,AVE,60636.0,1166476.69751037,1860587.49200743,15.0,7.0,67.0,41.77302144369994,-87.6652912159442,"(41.77302144369994, -87.66529121594418)",2014-10-03
Vacant/Abandoned Building,14-01701536,10/06/2014,Rear,,Boarded,FRONT AND REAR,Vacant,False,True,1653,S,CENTRAL PARK,AVE,60623.0,1152645.47998163,1891448.23011668,24.0,10.0,29.0,41.857991168463386,-87.71517962793587,"(41.85799116846338, -87.71517962793588)",2014-10-06
Vacant/Abandoned Building,14-01702042,10/06/2014,Front,,Open,,Vacant,False,False,8121,S,MARQUETTE,AVE,60617.0,1195583.81812452,1851643.33762544,7.0,4.0,46.0,41.747808062248296,-87.55888858505548,"(41.7478080622483, -87.55888858505548)",2014-10-06
Vacant/Abandoned Building,14-01709690,10/06/2014,Front,,Open,ALL OVER,Vacant,False,True,6828,S,JUSTINE,ST,60636.0,1167181.23491854,1859446.04446898,17.0,7.0,67.0,41.76987411707192,-87.66274118096187,"(41.769874117071915, -87.66274118096187)",2014-10-06
Vacant/Abandoned Building,14-01711212,10/07/2014,Rear,,Open,,Vacant,False,False,3743,S,HERMITAGE,AVE,60609.0,1165298.52689993,1879889.47037492,11.0,9.0,59.0,41.82601341702335,-87.66906330785628,"(41.82601341702334, -87.66906330785628)",2014-10-07
Vacant/Abandoned Building,14-01711850,10/07/2014,Front,,Open,,Vacant,False,True,110,W,117TH,ST,60628.0,1177575.43687868,1827371.18008403,34.0,5.0,53.0,41.68162781771132,-87.62560731033079,"(41.681627817711316, -87.62560731033079)",2014-10-07
Vacant/Abandoned Building,14-01680963,10/02/2014,Front,,Open,FRONT,Vacant,False,False,6600,S,JUSTINE,ST,60636.0,1167142.58601654,1860959.615302,17.0,7.0,67.0,41.774028378127156,-87.66283959796513,"(41.77402837812716, -87.66283959796513)",2014-10-02
Vacant/Abandoned Building,14-01681452,10/02/2014,Front,,Open,REAR DOOR,Vacant,False,True,7423,S,EMERALD,AVE,60621.0,1172584.75399782,1855684.35080371,17.0,7.0,68.0,41.759434253036936,-87.64304489877485,"(41.75943425303694, -87.64304489877485)",2014-10-02
Vacant/Abandoned Building,14-01689832,10/03/2014,Rear,,Open,,Vacant,False,False,3417,W,FULTON,BLVD,60624.0,1153549.68617079,1901788.51637756,28.0,11.0,27.0,41.88634811697371,-87.71158568973637,"(41.88634811697371, -87.71158568973637)",2014-10-03
Vacant/Abandoned Building,14-01672082,10/01/2014,Front,,Open,,Vacant,False,False,1010,N,LAVERGNE,AVE,60651.0,1142841.50168013,1906291.20612496,37.0,15.0,25.0,41.89891019611246,-87.75079686330324,"(41.89891019611246, -87.75079686330325)",2014-10-01
Vacant/Abandoned Building,14-01689160,10/03/2014,,,,,,,,5451,S,ABERDEEN,ST,60609.0,1169914.00801746,1868493.79439634,16.0,9.0,61.0,41.79464331028987,-87.65246140292614,"(41.79464331028987, -87.65246140292614)",2014-10-03
Vacant/Abandoned Building,14-01707878,10/06/2014,Front,,Open,,Vacant,False,False,5610,S,ASHLAND,AVE,60636.0,1166629.47539103,1867513.13740949,15.0,7.0,67.0,41.792023024741006,-87.6645337048977,"(41.792023024741006, -87.6645337048977)",2014-10-06
Vacant/Abandoned Building,14-01710274,10/07/2014,Front,,Open,FRONT/REAR,Vacant,False,False,5340,S,ALBANY,AVE,60632.0,1156621.52678498,1868955.17228568,14.0,9.0,63.0,41.79618795522815,-87.70119252753857,"(41.79618795522815, -87.70119252753857)",2014-10-07
Vacant/Abandoned Building,14-01720530,10/08/2014,Front,,Open,,Vacant,False,False,7527,S,ELLIS,AVE,60619.0,1184195.6022215001,1855307.65809004,8.0,6.0,69.0,41.75813702503935,-87.60050359578226,"(41.758137025039346, -87.60050359578227)",2014-10-08
Vacant/Abandoned Building,14-01722272,10/08/2014,Front,,Open,,Vacant,False,False,10750,S,GLENROY,AVE,60643.0,1168661.64011035,1833795.02651654,34.0,22.0,75.0,41.69945221842608,-87.65805237653099,"(41.69945221842608, -87.65805237653099)",2014-10-08
Vacant/Abandoned Building,14-01689270,10/03/2014,,,,,,,,4627,S,HONORE,ST,60609.0,1164793.72219438,1874002.85128737,20.0,9.0,61.0,41.80987057107947,-87.67108177396878,"(41.80987057107947, -87.67108177396878)",2014-10-03
Vacant/Abandoned Building,14-01698642,10/05/2014,Front,,Open,FRONT,Vacant,False,False,410,W,119TH,ST,60628.0,1175656.15872353,1826002.70152135,34.0,5.0,53.0,41.67791554802411,-87.63267363502594,"(41.67791554802411, -87.63267363502594)",2014-10-05
Vacant/Abandoned Building,14-01705235,10/06/2014,,,,,,,,2119,W,51ST,ST,60609.0,1163024.5086301002,1870827.4585299,16.0,9.0,61.0,41.80119413600204,-87.67765985702259,"(41.80119413600204, -87.6776598570226)",2014-10-06
Vacant/Abandoned Building,14-01682750,10/02/2014,Front,,Open,?,Vacant,True,False,10349,S,MORGAN,ST,60643.0,1171481.17331807,1836102.06006943,34.0,22.0,73.0,41.70572194545584,-87.64766122389376,"(41.70572194545584, -87.64766122389376)",2014-10-02
Vacant/Abandoned Building,14-01688967,10/03/2014,,,,,,,,10552,S,GREEN,ST,60643.0,1172516.41118805,1834866.62987042,34.0,22.0,73.0,41.70230905618273,-87.64390648953173,"(41.70230905618273, -87.64390648953174)",2014-10-03
Vacant/Abandoned Building,14-01671887,10/01/2014,Front,,Boarded,,Vacant,False,False,1452,W,61ST,ST,60636.0,1167612.25150979,1864289.2913084999,16.0,7.0,67.0,41.783155364957594,-87.66102246522246,"(41.78315536495759, -87.66102246522246)",2014-10-01
Vacant/Abandoned Building,14-01674255,10/01/2014,Front,,Open,ALL OVER,Vacant,False,True,5007,S,THROOP,ST,60609.0,1168507.00542258,1871568.07050695,16.0,9.0,61.0,41.803109936946726,-87.65753222266574,"(41.803109936946726, -87.65753222266574)",2014-10-01
Vacant/Abandoned Building,14-01675114,10/01/2014,Front,,Open,,Vacant,False,True,10748,S,GLENROY,AVE,60643.0,1168671.24011035,1833476.02651654,34.0,22.0,75.0,41.698576624309844,-87.65802638389148,"(41.69857662430984, -87.65802638389148)",2014-10-01
Vacant/Abandoned Building,14-01729657,10/09/2014,Front,,Open,,Vacant,False,False,604,N,HAMLIN,AVE,60624.0,1150948.48607769,1903762.70891292,27.0,11.0,23.0,41.891816827583426,-87.72108625549141,"(41.891816827583426, -87.7210862554914)",2014-10-09
Vacant/Abandoned Building,14-01700927,10/06/2014,Front,,Open,FRONT/REAR,Vacant,False,False,3900,W,JACKSON,BLVD,60624.0,1150436.69972468,1898402.71773305,28.0,11.0,26.0,41.877118439862436,-87.72310580897387,"(41.877118439862436, -87.72310580897388)",2014-10-06
Vacant/Abandoned Building,14-01703038,10/06/2014,Front,,Boarded,,Vacant,False,False,7745,S,MARYLAND,AVE,60619.0,1183244.54621302,1853835.50201963,6.0,6.0,69.0,41.75411945694891,-87.60403481857918,"(41.75411945694891, -87.60403481857917)",2014-10-06
Vacant/Abandoned Building,14-01703267,10/06/2014,Front,,Open,FRONT,Vacant,False,True,5024,W,HURON,ST,60644.0,1142736.3488834999,1904178.72122795,28.0,15.0,25.0,41.89311525055778,-87.75123573268552,"(41.89311525055777, -87.75123573268552)",2014-10-06
Vacant/Abandoned Building,14-01720766,10/08/2014,Front,,Open,REAR,Vacant,False,True,7329,S,PRINCETON,AVE,60621.0,1175561.79011574,1856361.1011319,17.0,7.0,69.0,41.76122526410336,-87.63211396801157,"(41.76122526410336, -87.63211396801158)",2014-10-08
Vacant/Abandoned Building,14-01720789,10/08/2014,Front,,Open,,Vacant,False,True,7310,S,PRINCETON,AVE,60621.0,1175558.59011574,1856488.3011319,17.0,7.0,69.0,41.761574387340566,-87.6321218959656,"(41.76157438734056, -87.6321218959656)",2014-10-08
Vacant/Abandoned Building,14-01681136,10/02/2014,Front,,Open,"REAR, FRONT WINDOWS",Vacant,False,False,600,N,HAMLIN,AVE,60624.0,1150949.28607769,1903735.60891292,27.0,11.0,23.0,41.89174244672145,-87.72108402759591,"(41.89174244672145, -87.72108402759591)",2014-10-02
Vacant/Abandoned Building,14-01689120,10/03/2014,,,,,,,,1120,N,KEELER,AVE,60651.0,1148173.7971811001,1907219.05988145,37.0,11.0,23.0,41.90135529847862,-87.73118744418831,"(41.90135529847862, -87.73118744418832)",2014-10-03
Vacant/Abandoned Building,14-01689123,10/03/2014,,,,,,,,1140,N,KEELER,AVE,60651.0,1148169.1971811,1907376.95988145,37.0,11.0,23.0,41.901788681049254,-87.73120026974303,"(41.90178868104925, -87.73120026974303)",2014-10-03
Vacant/Abandoned Building,14-01689239,10/03/2014,,,,,,,,1220,S,ST LOUIS,AVE,60623.0,1153222.25213295,1894487.60961173,24.0,10.0,29.0,41.86632015570246,-87.7129818930718,"(41.86632015570246, -87.7129818930718)",2014-10-03
Vacant/Abandoned Building,14-01690344,10/03/2014,Front,,Open,,Vacant,False,False,9223,S,HALSTED,ST,60620.0,1172597.46589276,1843687.59252011,21.0,22.0,73.0,41.726513283987344,-87.64335084949836,"(41.72651328398734, -87.64335084949836)",2014-10-03
Vacant/Abandoned Building,14-01668845,10/01/2014,Front,,Open,REAR DOOR,Vacant,False,True,6821,S,HERMITAGE,AVE,60636.0,1165855.84121228,1859460.31352858,17.0,7.0,67.0,41.76994152827179,-87.66759910758373,"(41.76994152827179, -87.66759910758374)",2014-10-01
Vacant/Abandoned Building,14-01672273,10/01/2014,Rear,,Open,,Vacant,False,False,8608,S,JUSTINE,ST,60620.0,1167504.91519817,1847644.20791499,21.0,6.0,71.0,41.737481323083045,-87.66189232478001,"(41.73748132308305, -87.66189232478001)",2014-10-01
Vacant/Abandoned Building,14-01672300,10/01/2014,Rear,,Open,,Vacant,False,False,8614,S,JUSTINE,ST,60620.0,1167506.01519817,1847604.00791499,21.0,6.0,71.0,41.73737098488763,-87.66188944374778,"(41.73737098488763, -87.66188944374778)",2014-10-01
Vacant/Abandoned Building,14-01715905,10/07/2014,Front,,Open,2FL FRONT WINDOWS,Vacant,False,False,7320,S,ST LAWRENCE,AVE,60619.0,1181502.03957277,1856611.58237071,6.0,3.0,69.0,41.761777670221896,-87.61033496899704,"(41.7617776702219, -87.61033496899704)",2014-10-07
Vacant/Abandoned Building,14-01755291,10/14/2014,Front,,Open,,Vacant,True,False,2989,S,LYMAN,ST,60608.0,1168959.60737395,1884994.6639755,11.0,9.0,60.0,41.83994409613248,-87.65548384440746,"(41.839944096132484, -87.65548384440747)",2014-10-14
Vacant/Abandoned Building,14-01712126,10/07/2014,Garage,,Open,REAR AND FRONT,Vacant,True,True,813,W,54TH,ST,60609.0,1171801.40422219,1869016.94010952,20.0,9.0,61.0,41.79603764953014,-87.64552502346416,"(41.79603764953014, -87.64552502346415)",2014-10-07
Vacant/Abandoned Building,14-01720713,10/08/2014,Front,,Open,FRONT AND REAR 1ST FLOOR,Vacant,False,False,6847,S,JUSTINE,ST,60636.0,1167184.83491854,1859318.74446898,17.0,7.0,67.0,41.76952471224596,-87.66273162318151,"(41.76952471224596, -87.66273162318151)",2014-10-08
Vacant/Abandoned Building,14-01679414,10/02/2014,Front,,Open,DOORS/WINDOWS,Vacant,False,True,617,N,LONG,AVE,60644.0,1140214.07878459,1903557.18646693,37.0,15.0,25.0,41.891456265502356,-87.76051445715989,"(41.891456265502356, -87.76051445715987)",2014-10-02
Vacant/Abandoned Building,14-01679697,10/02/2014,Front,,Open,,Vacant,False,False,647,E,88TH,ST,60619.0,1182091.95151645,1846774.39747955,6.0,6.0,44.0,41.73476973775791,-87.6084766304922,"(41.73476973775791, -87.60847663049222)",2014-10-02
Vacant/Abandoned Building,14-01683565,10/02/2014,Front,,Open,TWO WINDOWS ON 2ND FLOOR AND DOOR ON THE SOUTHEAST SIDE OF THE BUILDING,Vacant,False,False,656,E,90TH,ST,60619.0,1182187.94283155,1845446.31298192,6.0,6.0,44.0,41.73112310067946,-87.6081659567147,"(41.73112310067946, -87.60816595671471)",2014-10-02
Vacant/Abandoned Building,14-01692137,10/03/2014,Front,,Open,ALL OVER,Vacant,False,True,114,N,WALLER,AVE,60644.0,1138142.43678425,1900270.1628995,29.0,15.0,25.0,41.882473948583105,-87.76820224575519,"(41.882473948583105, -87.76820224575518)",2014-10-03
Vacant/Abandoned Building,14-01672089,10/01/2014,Front,,Open,,Vacant,False,False,453,N,CENTRAL,AVE,60644.0,1138958.21332289,1902495.00423149,28.0,15.0,25.0,41.88856441768818,-87.76515256224695,"(41.88856441768818, -87.76515256224695)",2014-10-01
Vacant/Abandoned Building,14-01672098,10/01/2014,Front,,Open,,Vacant,False,False,856,N,LARAMIE,AVE,60651.0,1141534.23718284,1905208.64161327,37.0,15.0,25.0,41.89596376915922,-87.75562523007315,"(41.89596376915923, -87.75562523007314)",2014-10-01
Vacant/Abandoned Building,14-01767195,10/15/2014,Front,,Open,,Vacant,False,False,7704,S,HONORE,ST,60620.0,1165356.74467208,1853591.02190747,18.0,6.0,71.0,41.75384596909221,-87.66959459174231,"(41.75384596909221, -87.66959459174231)",2014-10-15
Vacant/Abandoned Building,14-01740273,10/10/2014,Front,,Open,FENCING,Vacant,False,True,415,E,71ST,ST,60619.0,1180305.02488831,1858038.76597598,6.0,3.0,69.0,41.76572153657047,-87.61467841519209,"(41.76572153657047, -87.61467841519209)",2014-10-10
Vacant/Abandoned Building,14-01741109,10/10/2014,Front,,Open,DOORS/ WINDOWS,Vacant,False,True,7528,S,COLES,AVE,60649.0,1195792.62173086,1855805.09142752,7.0,4.0,43.0,41.75922306619694,-87.55798604824578,"(41.75922306619694, -87.55798604824577)",2014-10-10
Vacant/Abandoned Building,14-01747697,10/12/2014,Front,,Open,FRONT,Vacant,False,False,9522,S,WENTWORTH,AVE,60628.0,1176624.91892167,1841804.20410672,21.0,5.0,49.0,41.72125548207002,-87.62865442213571,"(41.72125548207002, -87.62865442213572)",2014-10-12
Vacant/Abandoned Building,14-01748276,10/12/2014,Front,,Open,REAR BASEMENT,Vacant,True,True,9528,S,YALE,AVE,60628.0,1176291.70881005,1841754.95427929,21.0,5.0,49.0,41.72112781199913,-87.62987637270216,"(41.72112781199913, -87.62987637270216)",2014-10-12
Vacant/Abandoned Building,14-01748519,10/12/2014,Front,,Open,"WINDOW ARE OPEN FRONT AND REAR, WILDLIFE IS COMING IN",Vacant,False,False,2650,E,77TH,ST,60649.0,1195327.74507587,1854423.3930192,7.0,4.0,43.0,41.75544306851469,-87.55973530280913,"(41.755443068514694, -87.55973530280912)",2014-10-12
Vacant/Abandoned Building,14-01750779,10/13/2014,Front,,Open,,Vacant,False,False,738,W,81ST,ST,60620.0,1172680.56838745,1851158.52350587,21.0,6.0,71.0,41.74701269818953,-87.64282686709797,"(41.74701269818953, -87.64282686709797)",2014-10-13
Vacant/Abandoned Building,14-01713991,10/07/2014,Front,,Open,WINDOWS/FRONT,Vacant,False,True,7300,S,ROCKWELL,ST,60629.0,1160304.95360856,1856149.25920947,18.0,8.0,66.0,41.76097161400386,-87.68803744863729,"(41.76097161400386, -87.6880374486373)",2014-10-07
Vacant/Abandoned Building,14-01731975,10/09/2014,Front,,Open,REAR WINDOWS,Vacant,False,True,7813,S,EBERHART,AVE,60619.0,1180927.34977973,1853314.24277396,6.0,6.0,69.0,41.75274265263562,-87.61254250368624,"(41.75274265263562, -87.61254250368623)",2014-10-09
Vacant/Abandoned Building,14-01773787,10/16/2014,Front,,Open,,Vacant,False,False,8034,S,KIMBARK,AVE,60619.0,1186272.85152141,1851981.9338814,8.0,4.0,45.0,41.74896210553359,-87.59299566620855,"(41.748962105533586, -87.59299566620857)",2014-10-16
Vacant/Abandoned Building,14-01756957,10/14/2014,Front,,Open,,Vacant,False,False,7811,S,UNION,AVE,60620.0,1172989.61356718,1853035.00597247,17.0,6.0,71.0,41.75215519517268,-87.64163917014534,"(41.752155195172676, -87.64163917014535)",2014-10-14
Vacant/Abandoned Building,14-01759856,10/14/2014,Front,,Open,FRONT,Vacant,False,False,5746,S,EMERALD,AVE,60621.0,1172283.41902449,1866762.91830265,20.0,7.0,68.0,41.78984177242551,-87.6438237452923,"(41.78984177242551, -87.6438237452923)",2014-10-14
Vacant/Abandoned Building,14-01763749,10/15/2014,Front,,Open,,Vacant,False,False,326,W,42ND,ST,60609.0,1174700.93667166,1877106.63819783,3.0,9.0,37.0,41.818172407053964,-87.63465114653108,"(41.81817240705397, -87.6346511465311)",2014-10-15
Vacant/Abandoned Building,14-01733322,10/09/2014,Front,,Open,FRONT,Vacant,False,False,10015,S,LA SALLE,ST,60628.0,1177038.4034833,1838546.30226802,9.0,5.0,49.0,41.71230606103858,-87.62723778313624,"(41.71230606103858, -87.62723778313624)",2014-10-09
Vacant/Abandoned Building,14-01734404,10/09/2014,Front,,Open,"NORTHSIDE OF BUILDING, BASEMENT WINDOW",Vacant,False,False,6645,S,ST LAWRENCE,AVE,60637.0,1181377.25041067,1861082.09749562,20.0,3.0,42.0,41.77404809209421,-87.61065466162519,"(41.774048092094205, -87.61065466162518)",2014-10-09
Vacant/Abandoned Building,14-01734681,10/09/2014,Front,,Open,PROPERTY NOT BOARDED,Vacant,False,True,7116,S,VERNON,AVE,60619.0,1180477.66812188,1857936.52008654,6.0,3.0,69.0,41.76543700323618,-87.61404875996014,"(41.76543700323618, -87.61404875996014)",2014-10-09
Vacant/Abandoned Building,14-01735296,10/09/2014,Rear,,Open,ALL OVER,Vacant,False,False,6422,S,NORMAL,BLVD,60621.0,1174056.39513422,1862327.60149688,20.0,7.0,68.0,41.77763157572978,-87.63745440446299,"(41.77763157572977, -87.63745440446299)",2014-10-09
Vacant/Abandoned Building,14-01735725,10/09/2014,Front,,Open,"FRONT, SIDE AND REAR",Vacant,False,True,2132,W,52ND,PL,60609.0,1163091.86139555,1869663.17970228,16.0,9.0,61.0,41.797997800123575,-87.67744542992584,"(41.79799780012358, -87.67744542992585)",2014-10-09
Vacant/Abandoned Building,14-01738068,10/10/2014,Front,,Open,FRONT,Vacant,False,False,6651,S,MARSHFIELD,AVE,60636.0,1166476.19751037,1860600.89200743,15.0,7.0,67.0,41.77305822570299,-87.66529266726316,"(41.77305822570299, -87.66529266726317)",2014-10-10
Vacant/Abandoned Building,14-01739499,10/10/2014,Front,,Open,"FRONT, DOOR AND WINDOWS",Vacant,False,False,5620,S,PAULINA,ST,60636.0,1165968.63700342,1867431.82500506,15.0,7.0,67.0,41.79181397536795,-87.66695920310663,"(41.79181397536795, -87.66695920310663)",2014-10-10
Vacant/Abandoned Building,14-01741858,10/10/2014,Front,,Open,WINDOW,Vacant,False,True,4828,S,LAFLIN,ST,60609.0,1167150.19097973,1872719.38661838,20.0,9.0,61.0,41.806298445545956,-87.66247533614893,"(41.80629844554595, -87.66247533614894)",2014-10-10
Vacant/Abandoned Building,14-01749488,10/12/2014,Front,,Open,REAR DOOR,Vacant,False,True,6823,S,WOOD,ST,60636.0,1165524.77420936,1859439.49708162,17.0,7.0,67.0,41.769891430854244,-87.66881325024414,"(41.76989143085424, -87.66881325024414)",2014-10-12
Vacant/Abandoned Building,14-01750578,10/13/2014,Front,,Open,FRONT AND REAR,Occupied,False,True,5617,S,JUSTINE,ST,60636.0,1166966.99270604,1867475.20158636,16.0,7.0,67.0,41.791911712419775,-87.66329716849694,"(41.79191171241977, -87.66329716849694)",2014-10-13
Vacant/Abandoned Building,14-01752605,10/13/2014,Front,,Open,SIDE AND REAR,Vacant,False,True,939,W,54TH,PL,60609.0,1170972.0307058,1868681.6448271,20.0,9.0,61.0,41.79513573193905,-87.6485761737505,"(41.79513573193905, -87.6485761737505)",2014-10-13
Vacant/Abandoned Building,14-01720871,10/08/2014,Rear,,Open,,Vacant,False,True,5119,S,ABERDEEN,ST,60609.0,1169851.93509625,1870857.97719675,16.0,9.0,61.0,41.80113223964647,-87.65262037066627,"(41.80113223964647, -87.65262037066626)",2014-10-08
Vacant/Abandoned Building,14-01721368,10/08/2014,Front,,Open,FRONT WINDOW,Vacant,False,True,3800,W,80TH,ST,60652.0,1152445.99239105,1851272.64556997,18.0,8.0,70.0,41.747747539289705,-87.71696937662911,"(41.747747539289705, -87.71696937662911)",2014-10-08
Vacant/Abandoned Building,14-01728789,10/09/2014,Front,,Open,WINDOWS AND DOORS ARE NOT SECURED. SOME WINDOWS HAVE BEEN BROKEN.,Vacant,False,True,5514,S,TROY,ST,60629.0,1156319.20001556,1867893.52003232,14.0,8.0,63.0,41.793280728191455,-87.70232976683587,"(41.793280728191455, -87.70232976683587)",2014-10-09
Vacant/Abandoned Building,14-01768403,10/15/2014,Front,,Open,TRONT DOOR,Vacant,False,True,12410,S,STEWART,AVE,60628.0,1175873.64002052,1822624.59017509,34.0,5.0,53.0,41.66864061779499,-87.63197822346615,"(41.66864061779499, -87.63197822346615)",2014-10-15
Vacant/Abandoned Building,14-01776231,10/16/2014,Front,,Open,,Vacant,False,False,1452,N,WALLER,AVE,60651.0,1138073.66839298,1909089.43630349,29.0,25.0,25.0,41.9066763813561,-87.7682414754032,"(41.9066763813561, -87.7682414754032)",2014-10-16
Vacant/Abandoned Building,14-01745537,10/11/2014,Front,,Open,REAR DOOR,Vacant,False,True,11860,S,VINCENNES,AVE,60643.0,1165089.55388752,1826057.26911317,34.0,22.0,75.0,41.678294579104865,-87.67134956266815,"(41.678294579104865, -87.67134956266815)",2014-10-11
Vacant/Abandoned Building,14-01747376,10/12/2014,Front,,Open,FRONT DOOR OPEN,Vacant,False,False,1330,W,112TH,ST,60643.0,1169461.30097675,1830498.53911249,34.0,22.0,75.0,41.69038888033485,-87.65521939212746,"(41.69038888033485, -87.65521939212746)",2014-10-12
Vacant/Abandoned Building,14-01759025,10/14/2014,Rear,,Open,REAR BASEMENT,Occupied,False,True,321,W,107TH,PL,60628.0,1176093.28989945,1833642.08428484,34.0,5.0,49.0,41.69886940286667,-87.63084556351242,"(41.69886940286667, -87.63084556351242)",2014-10-14
Vacant/Abandoned Building,14-01762285,10/14/2014,Front,,Open,REAR WINDOW,Vacant,False,True,10109,S,UNION,AVE,60628.0,1173422.38250287,1837833.4123835,34.0,22.0,73.0,41.71043039668128,-87.64050167613874,"(41.71043039668128, -87.64050167613875)",2014-10-14
Vacant/Abandoned Building,14-01715355,10/07/2014,Front,,Boarded,FRONT AND BACK,Vacant,False,False,11524,S,MAY,ST,60643.0,1170727.03039905,1828372.36452371,34.0,5.0,53.0,41.6845268746594,-87.6506471803682,"(41.6845268746594, -87.65064718036818)",2014-10-07
Vacant/Abandoned Building,14-01723420,10/08/2014,,,Open,NONE,Vacant,False,False,2151,E,100TH,ST,60617.0,1192275.19002813,1839087.23677261,7.0,4.0,51.0,41.71343401714059,-87.57141946700544,"(41.71343401714059, -87.57141946700543)",2014-10-08
Vacant/Abandoned Building,14-01729358,10/09/2014,Front,,Open,FRONT DOOR,Vacant,False,True,900,W,VERMONT,ST,60643.0,1172664.75561965,1819962.71097397,34.0,5.0,53.0,41.661407034330885,-87.64380006795683,"(41.66140703433088, -87.64380006795683)",2014-10-09
Vacant/Abandoned Building,14-01795186,10/20/2014,Front,,Open,,Vacant,False,False,11913,S,NORMAL,AVE,60628.0,1175110.37788418,1825903.12800502,34.0,5.0,53.0,41.677654464335625,-87.63467432770699,"(41.677654464335625, -87.63467432770699)",2014-10-20
Vacant/Abandoned Building,14-01799613,10/20/2014,Front,,Open,,Vacant,False,False,7814,S,YATES,BLVD,60649.0,1193553.45161471,1853622.48322331,7.0,4.0,43.0,41.753288905110274,-87.56626367758041,"(41.75328890511027, -87.56626367758042)",2014-10-20
Vacant/Abandoned Building,14-01777029,10/16/2014,Front,,Open,FRONT AND REAR,Vacant,True,True,6406,S,WOOD,ST,60636.0,1165440.29139095,1862203.67751589,15.0,7.0,67.0,41.777478497755524,-87.66904466490342,"(41.777478497755524, -87.66904466490342)",2014-10-16
Vacant/Abandoned Building,14-01777290,10/16/2014,Front,,Open,BASEMENT DOOR IS OPENED,Vacant,False,False,6918,S,MORGAN,ST,60621.0,1170838.77992814,1858950.57189004,17.0,7.0,68.0,41.76843544145048,-87.6493486509531,"(41.76843544145048, -87.64934865095309)",2014-10-16
Vacant/Abandoned Building,14-01782813,10/17/2014,Front,,Boarded,,Vacant,False,False,8029,S,STEWART,AVE,60620.0,1175019.73101426,1851692.96167398,17.0,6.0,44.0,41.7484274320916,-87.63423967296008,"(41.7484274320916, -87.63423967296006)",2014-10-17
Vacant/Abandoned Building,14-01782967,10/17/2014,Front,,Open,,Vacant,False,True,1630,N,TRIPP,AVE,60639.0,1147806.26787411,1910496.48829383,30.0,25.0,23.0,41.910355968245405,-87.73245310085991,"(41.910355968245405, -87.73245310085991)",2014-10-17
Vacant/Abandoned Building,14-01760166,10/14/2014,Front,,Open,REAR AND BSMT DR,Vacant,False,True,6825,S,MORGAN,ST,60621.0,1170821.45099024,1859565.67706803,17.0,7.0,68.0,41.77012374388622,-87.6493942408274,"(41.77012374388622, -87.6493942408274)",2014-10-14
Vacant/Abandoned Building,14-01766970,10/15/2014,Front,,Open,,Vacant,False,False,6343,S,BISHOP,ST,60636.0,1167753.91241027,1862679.96988871,16.0,7.0,67.0,41.77873614712915,-87.66054925424213,"(41.778736147129145, -87.66054925424214)",2014-10-15
Vacant/Abandoned Building,14-01768256,10/15/2014,Front,,Open,ALL AROUND,Vacant,False,True,6956,S,THROOP,ST,60636.0,1168860.08679084,1858640.73691586,17.0,7.0,67.0,41.76762816554991,-87.65661045732773,"(41.76762816554991, -87.65661045732773)",2014-10-15
Vacant/Abandoned Building,14-01769470,10/15/2014,Front,,Open,,Vacant,False,True,827,W,50TH,PL,60609.0,1171644.77432014,1871365.56043363,3.0,9.0,61.0,41.8024859519758,-87.64603052946691,"(41.8024859519758, -87.64603052946691)",2014-10-15
Vacant/Abandoned Building,14-01771571,10/15/2014,Front,,Open,ALL DOORS / WINDOWS,Vacant,False,True,3221,W,FULTON,BLVD,60624.0,1154846.37552893,1901821.24059706,28.0,11.0,27.0,41.88641203590785,-87.70682303622658,"(41.88641203590785, -87.70682303622658)",2014-10-15
Vacant/Abandoned Building,14-01739929,10/10/2014,Front,,Boarded,WINDOWS/FRONT,Vacant,False,True,7711,S,HOMAN,AVE,60652.0,1155042.83179449,1853258.76877151,18.0,8.0,70.0,41.753146346469904,-87.70740070612239,"(41.753146346469904, -87.70740070612237)",2014-10-10
Vacant/Abandoned Building,14-01752209,10/13/2014,Front,,Open,BACK UPPER AND BASEMENT DOORS,Vacant,False,True,7048,S,EMERALD,AVE,60621.0,1172524.96479285,1858133.22782641,6.0,7.0,68.0,41.766155588147676,-87.64319201637791,"(41.76615558814767, -87.6431920163779)",2014-10-13
Vacant/Abandoned Building,14-01759746,10/14/2014,Front,,Open, FRONT DOOR THEY TOOK THE LOCK OFF,Vacant,False,True,6149,S,MARSHFIELD,AVE,60636.0,1166394.74532588,1863929.64478144,15.0,7.0,67.0,41.782194485821975,-87.6654964869623,"(41.78219448582198, -87.6654964869623)",2014-10-14
Vacant/Abandoned Building,14-01719802,10/08/2014,Rear,,Boarded,PARTIALLY BOARDED UP,Vacant,False,False,9327,S,PAXTON,AVE,60617.0,1192469.17961069,1843552.69010426,7.0,4.0,48.0,41.72568295105616,-87.5705641257017,"(41.72568295105616, -87.5705641257017)",2014-10-08
Vacant/Abandoned Building,14-01724257,10/08/2014,Front,,Open,,Vacant,False,True,1720,N,HARDING,AVE,60647.0,1149781.78576945,1911132.19190289,30.0,25.0,23.0,41.912062193970996,-87.72517918991751,"(41.912062193970996, -87.7251791899175)",2014-10-08
Vacant/Abandoned Building,14-01773772,10/16/2014,Front,,Open,,Vacant,False,False,46,W,105TH,ST,60628.0,1177707.75987601,1835343.03251913,34.0,5.0,49.0,41.70350075751952,-87.62488293218661,"(41.70350075751952, -87.62488293218661)",2014-10-16
Vacant/Abandoned Building,14-01774327,10/16/2014,Front,,Open,FRONT,Vacant,False,False,5543,S,JUSTINE,ST,60636.0,1166955.98011891,1867888.08759696,16.0,7.0,67.0,41.79304495662732,-87.6633257504957,"(41.79304495662732, -87.6633257504957)",2014-10-16
Vacant/Abandoned Building,14-01776511,10/16/2014,Front,,Boarded,,Vacant,False,False,4353,W,AUGUSTA,BLVD,60651.0,1147170.07578977,1906306.60417362,37.0,11.0,23.0,41.89887069640025,-87.73489762652899,"(41.89887069640025, -87.73489762652899)",2014-10-16
Vacant/Abandoned Building,14-01779876,10/17/2014,Front,,Open,REAR,Vacant,True,False,2502,W,63RD,ST,60629.0,1160764.30083271,1862803.44028558,15.0,8.0,66.0,41.77922217175879,-87.68617039393428,"(41.77922217175879, -87.68617039393426)",2014-10-17
Vacant/Abandoned Building,14-01783674,10/17/2014,Front,,Open,,Vacant,False,False,11158,S,ALBANY,AVE,60655.0,1157681.4231727,1830411.65621328,19.0,22.0,74.0,41.690396839187954,-87.69834875384184,"(41.690396839187954, -87.69834875384184)",2014-10-17
Vacant/Abandoned Building,14-01784067,10/17/2014,Front,,Open,FRONT DOOR,Vacant,False,False,5698,N,LAS CASAS,AVE,60646.0,1141861.62271218,1937605.99647386,45.0,16.0,12.0,41.984859176982056,-87.75361810880995,"(41.984859176982056, -87.75361810880995)",2014-10-17
Vacant/Abandoned Building,14-01795193,10/20/2014,Front,,Open,,Vacant,False,False,6636,S,UNION,AVE,60621.0,1172654.97032422,1860756.15000151,6.0,7.0,68.0,41.77335033516271,-87.64263829521988,"(41.77335033516271, -87.64263829521988)",2014-10-20
Vacant/Abandoned Building,14-01795207,10/20/2014,Front,,Open,,Vacant,False,False,6505,S,LOWE,AVE,60621.0,1173156.190682,1861751.4517962,20.0,7.0,68.0,41.776070497368345,-87.64077156212099,"(41.77607049736834, -87.64077156212099)",2014-10-20
Vacant/Abandoned Building,14-01741375,10/10/2014,Front,,Open,,Vacant,False,False,342,W,108TH,PL,60628.0,1175964.60363426,1832975.09362988,34.0,5.0,49.0,41.697041961989505,-87.63133665546205,"(41.69704196198951, -87.63133665546206)",2014-10-10
Vacant/Abandoned Building,14-01761021,10/14/2014,Front,,Open,FRONT,Vacant,False,True,5417,S,PAULINA,ST,60609.0,1165931.89741878,1868778.95897471,16.0,9.0,61.0,41.795511455837264,-87.66705563645328,"(41.795511455837264, -87.66705563645328)",2014-10-14
Vacant/Abandoned Building,14-01764024,10/15/2014,Garage,,Boarded,GARAGE,Vacant,False,False,1059,N,MASSASOIT,AVE,60651.0,1137828.31159937,1906483.98262439,29.0,15.0,25.0,41.899531131791896,-87.76920572349701,"(41.8995311317919, -87.769205723497)",2014-10-15
Vacant/Abandoned Building,14-01766390,10/15/2014,Front,,Open,,Occupied,False,True,644,N,LOCKWOOD,AVE,60644.0,1140913.32182894,1903752.04451675,37.0,15.0,25.0,41.89197814135175,-87.7579416299811,"(41.89197814135175, -87.75794162998109)",2014-10-15
Vacant/Abandoned Building,14-01769133,10/15/2014,Front,,Open,FRONT,Vacant,True,False,2519,N,CICERO,AVE,60639.0,1143970.70508611,1916426.10241364,31.0,25.0,19.0,41.92670031013055,-87.74639455304553,"(41.92670031013055, -87.74639455304555)",2014-10-15
Vacant/Abandoned Building,14-01728644,10/09/2014,Rear,,Open,,Vacant,False,False,162,N,LAPORTE,AVE,60644.0,1143352.70012448,1900672.33021149,28.0,15.0,25.0,41.88348180000425,-87.74905976041426,"(41.88348180000425, -87.74905976041426)",2014-10-09
Vacant/Abandoned Building,14-01810010,10/21/2014,Front,,Open,ALL AROUND-WINDOWS ARE OPEN,Vacant,False,True,6153,S,HOYNE,AVE,60636.0,1163434.1200179,1863806.27998667,15.0,7.0,67.0,41.78191854322893,-87.67635443271361,"(41.78191854322894, -87.67635443271361)",2014-10-21
Vacant/Abandoned Building,14-01813605,10/22/2014,Front,,Open,,Vacant,False,False,3572,W,PALMER,ST,60647.0,1152217.65507206,1914389.40481134,26.0,14.0,22.0,41.92095253225325,-87.71614433161056,"(41.920952532253246, -87.71614433161056)",2014-10-22
Vacant/Abandoned Building,14-01784651,10/17/2014,Front,,Open,ALL AROUND,Vacant,False,False,5612,S,ASHLAND,AVE,60636.0,1166629.77539103,1867499.83740949,15.0,7.0,67.0,41.79198652153104,-87.66453298424074,"(41.791986521531044, -87.66453298424074)",2014-10-17
Vacant/Abandoned Building,14-01792668,10/19/2014,Front,,Open,"REAR,",Vacant,False,False,5938,S,MARSHFIELD,AVE,60636.0,1166358.05979085,1865328.77368622,15.0,7.0,67.0,41.786034652379776,-87.66559115031366,"(41.78603465237977, -87.66559115031365)",2014-10-19
Vacant/Abandoned Building,14-01800282,10/20/2014,,,,,,,,1323,W,49TH,PL,60609.0,1168343.35803321,1871937.38981549,16.0,9.0,61.0,41.80412691957606,-87.65812175310828,"(41.80412691957606, -87.65812175310826)",2014-10-20
Vacant/Abandoned Building,14-01752307,10/13/2014,Front,,Open,REAR TRAP DOOR INTO BASEMENT,Vacant,False,True,8354,S,MACKINAW,AVE,60617.0,1199924.6287805,1850212.67648756,10.0,4.0,46.0,41.74377391791378,-87.54303103003376,"(41.74377391791377, -87.54303103003377)",2014-10-13
Vacant/Abandoned Building,14-01759948,10/14/2014,Front,,Open,,Vacant,False,False,6040,S,ELIZABETH,ST,60636.0,1169026.66422049,1864722.40888775,16.0,7.0,67.0,41.78431342675579,-87.6558242554154,"(41.784313426755794, -87.65582425541541)",2014-10-14
Vacant/Abandoned Building,14-01716265,10/07/2014,Rear,,Open,,Vacant,False,False,8101,S,KOLMAR,AVE,60652.0,1147550.86566676,1850332.33853368,13.0,8.0,70.0,41.745261991836045,-87.73493085710331,"(41.74526199183605, -87.73493085710331)",2014-10-07
Vacant/Abandoned Building,14-01697570,10/04/2014,Front,,Open,FRONT DOOR,Vacant,False,True,8034,S,ARTESIAN,AVE,60652.0,1161437.83511237,1851300.1197725,18.0,8.0,70.0,41.74764145485843,-87.68401947567276,"(41.74764145485843, -87.68401947567277)",2014-10-04
Vacant/Abandoned Building,14-01819635,10/22/2014,Front,,Open,GARAGE DOOR AND BACK DOOR,Vacant,False,False,1456,N,MENARD,AVE,60651.0,1137413.29502318,1909099.62923008,29.0,25.0,25.0,41.90671626423054,-87.77066708667653,"(41.90671626423054, -87.77066708667651)",2014-10-22
Vacant/Abandoned Building,14-01824012,10/23/2014,Front,,Open,,Vacant,False,False,1266,W,73RD,ST,60636.0,1168993.52951577,1856366.78628748,17.0,7.0,67.0,41.761385269152896,-87.65618694661875,"(41.761385269152896, -87.65618694661875)",2014-10-23
Vacant/Abandoned Building,14-01816747,10/22/2014,Front,,Open,,Vacant,False,False,8356,S,MACKINAW,AVE,60617.0,1199924.9287805,1850199.27648756,10.0,4.0,46.0,41.74373713982054,-87.543030381759,"(41.74373713982054, -87.543030381759)",2014-10-22
Vacant/Abandoned Building,14-01753369,10/13/2014,Front,,Open,REAR DOOR IS KICKED IN NOW,Vacant,False,True,8000,S,WINCHESTER,AVE,60620.0,1164749.0345172,1851610.49121271,18.0,6.0,71.0,41.74842395082383,-87.67187744578949,"(41.74842395082383, -87.67187744578949)",2014-10-13
Vacant/Abandoned Building,14-01769632,10/15/2014,,,,,,,,5514,W,CRYSTAL,ST,60651.0,1139205.36563136,1907780.83701008,37.0,25.0,25.0,41.90306489668843,-87.76411612908635,"(41.903064896688434, -87.76411612908635)",2014-10-15
Vacant/Abandoned Building,14-01774368,10/16/2014,Front,,Open,FRONT DOOR/WINDOWS,Vacant,False,False,7701,S,SPAULDING,AVE,60652.0,1155717.52989402,1853337.85491785,18.0,8.0,70.0,41.753349875073575,-87.70492605501775,"(41.75334987507357, -87.70492605501776)",2014-10-16
Vacant/Abandoned Building,14-01789190,10/18/2014,Front,,Open,FRONT DOOR,Vacant,False,True,5714,W,EDDY,ST,60634.0,1137638.56091148,1923027.74499745,38.0,16.0,15.0,41.944932499950795,-87.7695031511857,"(41.944932499950795, -87.7695031511857)",2014-10-18
Vacant/Abandoned Building,14-01724761,10/08/2014,Front,,Open,,Vacant,False,True,3846,W,65TH,ST,60629.0,1151847.24676652,1861225.06677716,13.0,8.0,65.0,41.77507037070987,-87.71890290529394,"(41.77507037070987, -87.71890290529393)",2014-10-08
Vacant/Abandoned Building,14-01733537,10/09/2014,Front,,Open,,Vacant,False,True,10918,S,BUFFALO,AVE,60617.0,1199875.71820683,1833165.56172849,10.0,4.0,52.0,41.69699648495378,-87.54378308088361,"(41.696996484953786, -87.54378308088361)",2014-10-09
Vacant/Abandoned Building,14-01735168,10/09/2014,Front,,Open,REAR,Vacant,False,True,5610,S,WINCHESTER,AVE,60636.0,1164314.99178834,1867421.98381535,15.0,7.0,67.0,41.79182198317969,-87.67302311541742,"(41.79182198317969, -87.67302311541742)",2014-10-09
Vacant/Abandoned Building,14-01743608,10/10/2014,Front,,Open,BASEMENT,Vacant,False,False,3601,W,FOSTER,AVE,60625.0,1151444.28000741,1934312.15001181,39.0,17.0,13.0,41.97563727619208,-87.71846076617584,"(41.97563727619208, -87.71846076617584)",2014-10-10
Vacant/Abandoned Building,14-01748500,10/12/2014,Front,,Open,BACK DOOR OPEN/UNSECURED,Vacant,False,False,10624,S,AVENUE H,,60617.0,1202839.14680248,1835118.89761504,10.0,4.0,52.0,41.70228154455923,-87.5328665246043,"(41.702281544559234, -87.5328665246043)",2014-10-12
Vacant/Abandoned Building,14-01750686,10/13/2014,Rear,,Open,,Vacant,False,False,5346,S,JUSTINE,ST,60609.0,1166912.55788658,1869272.38027545,16.0,9.0,61.0,41.796844548623454,-87.66344541996064,"(41.796844548623454, -87.66344541996064)",2014-10-13
Vacant/Abandoned Building,14-01678714,10/02/2014,Rear,,Open,,Vacant,False,False,4800,S,COTTAGE GROVE,AVE,60615.0,1182399.63180614,1873359.70541269,4.0,2.0,38.0,41.80771528570921,-87.60652635916811,"(41.80771528570921, -87.60652635916811)",2014-10-02
Vacant/Abandoned Building,14-01834931,10/24/2014,Front,,Open,,Vacant,True,False,4618,W,HURON,ST,60644.0,1145351.48128674,1904239.41006697,28.0,11.0,25.0,41.89323270110382,-87.74162968022289,"(41.89323270110382, -87.74162968022289)",2014-10-24
Vacant/Abandoned Building,14-01773687,10/16/2014,Rear,,Open,NONE,Vacant,False,False,12203,S,ELIZABETH,ST,60643.0,1170206.12630265,1823854.74730864,34.0,5.0,53.0,41.67214108348168,-87.65268470545445,"(41.67214108348168, -87.65268470545443)",2014-10-16
Vacant/Abandoned Building,14-01797591,10/20/2014,Front,,Open,FRONT DOOR,Vacant,False,False,11813,S,LAFAYETTE,AVE,60628.0,1178036.35540593,1826634.39659477,34.0,5.0,53.0,41.67959557048979,-87.62394230985058,"(41.67959557048979, -87.62394230985058)",2014-10-20
Vacant/Abandoned Building,14-01800668,10/20/2014,Front,,Open,BACK DOOR,Vacant,False,False,10501,S,STATE,ST,60628.0,1178108.71090537,1835325.61000346,9.0,5.0,49.0,41.703443887079814,-87.62341526711133,"(41.70344388707981, -87.62341526711133)",2014-10-20
Vacant/Abandoned Building,14-01702306,10/06/2014,Front,,Open,FRONT DOOR,Vacant,False,True,2618,W,22ND,PL,60608.0,1159261.65028177,1888965.78998508,28.0,10.0,30.0,41.85104581292127,-87.69096230573847,"(41.85104581292127, -87.69096230573847)",2014-10-06
Vacant/Abandoned Building,14-01757450,10/14/2014,Rear,,Open,FRONT & BACK DOORS -SIDE WINDOW -MISSING FLOORS -,Vacant,False,False,7442,S,DREXEL,AVE,60619.0,1183519.98507608,1855856.79451126,6.0,3.0,69.0,41.75965967712685,-87.60296255019041,"(41.75965967712685, -87.6029625501904)",2014-10-14
Vacant/Abandoned Building,14-01698797,10/05/2014,Front,,Open,FRONT AND REAR DOOR,Vacant,False,True,5311,W,ADAMS,ST,60644.0,1140972.11141389,1898817.46120523,29.0,15.0,25.0,41.878435947632276,-87.75784725185034,"(41.87843594763227, -87.75784725185034)",2014-10-05
Vacant/Abandoned Building,14-01823495,10/23/2014,Front,,Open,,Vacant,False,False,5117,W,GRACE,ST,60641.0,1141568.92656692,1924781.04968691,45.0,16.0,15.0,41.94967187856867,-87.75501301655912,"(41.94967187856867, -87.75501301655912)",2014-10-23
Vacant/Abandoned Building,14-01825344,10/23/2014,Front,,Open,,Vacant,False,False,917,W,21ST,ST,60608.0,1170736.20681577,1890100.60721512,25.0,12.0,31.0,41.8539165811125,-87.64881516017083,"(41.8539165811125, -87.64881516017083)",2014-10-23
Vacant/Abandoned Building,14-01826417,10/23/2014,Front,,Open,NONE,Vacant,False,True,1614,S,SAWYER,AVE,60623.0,1154963.3360074,1891702.96008637,24.0,10.0,29.0,41.858644068606594,-87.70666480098993,"(41.85864406860659, -87.70666480098993)",2014-10-23
Vacant/Abandoned Building,14-01816873,10/22/2014,,,,,,,,1800,S,AVERS,AVE,60623.0,1151019.52267752,1891105.86816831,24.0,10.0,29.0,41.85708365415593,-87.72115689481859,"(41.85708365415593, -87.7211568948186)",2014-10-22
Vacant/Abandoned Building,14-01781047,10/17/2014,Rear,,Boarded,,Vacant,False,False,355,W,100TH,ST,60628.0,1175717.04997103,1838615.19001637,9.0,5.0,49.0,41.71252473157172,-87.63207489030924,"(41.71252473157172, -87.63207489030924)",2014-10-17
Vacant/Abandoned Building,14-01798148,10/20/2014,Front,,Open,,Vacant,False,True,10053,S,PRAIRIE,AVE,60628.0,1179690.39639061,1838364.78532539,9.0,5.0,49.0,41.711747865738495,-87.61753100022497,"(41.711747865738495, -87.61753100022497)",2014-10-20
Vacant/Abandoned Building,14-01807471,10/21/2014,,,,,,,,2418,S,HAMLIN,AVE,60623.0,1151422.63891332,1887672.34491672,22.0,10.0,30.0,41.847653752929155,-87.71976727281361,"(41.847653752929155, -87.71976727281361)",2014-10-21
Vacant/Abandoned Building,14-01814484,10/22/2014,,,,,,,,6,S,MASON,AVE,60644.0,1136835.97009832,1899380.27657747,29.0,15.0,25.0,41.880055489502354,-87.77302102639666,"(41.88005548950235, -87.77302102639666)",2014-10-22
Vacant/Abandoned Building,14-01775431,10/16/2014,Front,,Open,FRONT DOOR,Vacant,False,True,7105,S,PRINCETON,AVE,60621.0,1175523.09151008,1857847.57203381,6.0,7.0,69.0,41.76530517820671,-87.63221139484043,"(41.76530517820671, -87.63221139484043)",2014-10-16
Vacant/Abandoned Building,14-01701439,10/06/2014,Rear,,Open,REAR AND WINDOWS,Vacant,False,False,45,E,99TH,PL,60628.0,1178281.61071962,1838956.12998757,9.0,5.0,49.0,41.71340261700834,-87.62267243335138,"(41.71340261700834, -87.62267243335138)",2014-10-06
Vacant/Abandoned Building,14-01855915,10/28/2014,Front,,Open,,Vacant,False,False,8128,S,VINCENNES,AVE,60620.0,1174733.44537186,1851021.67337518,21.0,6.0,44.0,41.74659171103952,-87.63530867349945,"(41.74659171103952, -87.63530867349945)",2014-10-28
Vacant/Abandoned Building,14-01857742,10/28/2014,Front,,Open,,Vacant,False,False,5155,S,TALMAN,AVE,60632.0,1159578.10429981,1870379.7255946,14.0,9.0,63.0,41.800036944578686,-87.69031139965912,"(41.80003694457869, -87.69031139965911)",2014-10-28
Vacant/Abandoned Building,14-01838105,10/25/2014,Rear,,Open,REAR AND GARAGE,Vacant,False,True,8343,S,BRANDON,AVE,60617.0,1198935.17501914,1850107.63008347,10.0,4.0,46.0,41.743510542191906,-87.54665990048984,"(41.74351054219191, -87.54665990048984)",2014-10-25
Vacant/Abandoned Building,14-01844164,10/27/2014,Front,,Open,CALLER STATE PEOPLE CHANGED LOCKS GOING IN THROUGH FRONT AND BACK DOOR BUT BASEMENT STILL BOARDED,Vacant,False,True,8602,S,HOUSTON,AVE,60617.0,1197975.00058114,1848489.96689076,10.0,4.0,46.0,41.73909558564947,-87.55023189874645,"(41.73909558564948, -87.55023189874646)",2014-10-27
Vacant/Abandoned Building,14-01845895,10/27/2014,Front,,Open,,Vacant,False,False,2726,W,ARMITAGE,AVE,60647.0,1157750.41988144,1913173.12256939,1.0,14.0,22.0,41.91750389192251,-87.69584887111576,"(41.917503891922514, -87.69584887111577)",2014-10-27
Vacant/Abandoned Building,14-01826593,10/23/2014,Front,,Open,UNSECURED DOORS AND WINDOWS,Vacant,False,False,5009,S,KARLOV,AVE,60632.0,1149877.96167331,1871063.20621903,14.0,8.0,57.0,41.8021061350077,-87.7258673121773,"(41.802106135007705, -87.7258673121773)",2014-10-23
Vacant/Abandoned Building,14-01816203,10/22/2014,Front,,Open,FRONT AND REAR,Vacant,False,False,10511,S,AVENUE N,,60617.0,1201181.08198982,1835865.969188,10.0,4.0,52.0,41.70437370318521,-87.53891250887877,"(41.704373703185205, -87.53891250887877)",2014-10-22
Vacant/Abandoned Building,14-01816972,10/22/2014,,,,,,,,2923,N,SPRINGFIELD,AVE,60618.0,1149882.94299149,1919151.91851069,30.0,25.0,21.0,41.934067077416266,-87.7245984169816,"(41.934067077416266, -87.72459841698159)",2014-10-22
Vacant/Abandoned Building,14-01817336,10/22/2014,Front,,Open,,Vacant,False,True,4228,W,VAN BUREN,ST,60624.0,1148270.31040779,1897687.07786877,24.0,11.0,26.0,41.875196632435625,-87.73107867046517,"(41.875196632435625, -87.73107867046515)",2014-10-22
Vacant/Abandoned Building,14-01819114,10/22/2014,Front,,Open,REAR DOOR,Vacant,False,False,4257,W,GLADYS,AVE,60624.0,1148063.92256636,1898014.40448699,24.0,11.0,26.0,41.8760988261998,-87.73182802877098,"(41.8760988261998, -87.73182802877099)",2014-10-22
Vacant/Abandoned Building,14-01799913,10/20/2014,Front,,Open,FRONT,Vacant,False,True,4203,W,GLADYS,AVE,60624.0,1148427.77142235,1898022.9503168,24.0,11.0,26.0,41.87611527201173,-87.73049186980947,"(41.876115272011724, -87.73049186980947)",2014-10-20
Vacant/Abandoned Building,14-01814242,10/22/2014,Front,,Open,BACK DOOR,Vacant,False,True,945,N,SPRINGFIELD,AVE,60651.0,1150213.16997437,1906058.08001015,27.0,11.0,23.0,41.898129928424225,-87.7237268675259,"(41.89812992842423, -87.72372686752591)",2014-10-22
Vacant/Abandoned Building,14-01747392,10/12/2014,Front,,Open,WINDOWS ARE MISSING,Vacant,False,False,512,E,90TH,ST,60619.0,1181233.11998334,1845417.90018191,6.0,6.0,44.0,41.731067154358634,-87.61166465972433,"(41.73106715435863, -87.61166465972433)",2014-10-12
Vacant/Abandoned Building,14-01777873,10/16/2014,Front,,Open,FRONT DOOR,Vacant,True,True,4631,N,KENMORE,AVE,60640.0,1168402.39100639,1930985.03999848,46.0,19.0,3.0,41.96615664204811,-87.65619644858627,"(41.96615664204812, -87.65619644858626)",2014-10-16
Vacant/Abandoned Building,14-01783942,10/17/2014,Front,,Open,REAR,Vacant,False,True,7513,S,MICHIGAN,AVE,60619.0,1178458.74478172,1855228.86922499,6.0,6.0,69.0,41.75805300090856,-87.62153081570754,"(41.75805300090856, -87.62153081570754)",2014-10-17
Vacant/Abandoned Building,14-01699096,10/05/2014,Front,,Open,FRONT DOOR,Vacant,False,True,726,E,92ND,ST,60619.0,1182683.60773355,1844131.18050655,6.0,6.0,44.0,41.72750274973011,-87.60639086267028,"(41.72750274973011, -87.60639086267028)",2014-10-05
Vacant/Abandoned Building,14-01866489,10/29/2014,Front,,Open,,Vacant,True,False,1654,S,HOMAN,AVE,60623.0,1153978.8455943998,1891262.44991197,24.0,10.0,29.0,41.857454919751355,-87.71029027596144,"(41.857454919751355, -87.71029027596143)",2014-10-29
Vacant/Abandoned Building,14-01853604,10/28/2014,Front,,Open,,Vacant,True,False,834,N,KARLOV,AVE,60651.0,1148900.89007672,1905256.24588196,37.0,11.0,23.0,41.89595509777554,-87.72856755884176,"(41.89595509777554, -87.72856755884177)",2014-10-28
Vacant/Abandoned Building,14-01816967,10/22/2014,,,,,,,,164,N,LAPORTE,AVE,60644.0,1143352.00012448,1900690.43021149,28.0,15.0,25.0,41.883531481676265,-87.74906187838566,"(41.883531481676265, -87.74906187838565)",2014-10-22
Vacant/Abandoned Building,14-01817783,10/22/2014,Front,,Open,,Vacant,False,True,924,N,LOREL,AVE,60651.0,1140504.72551463,1905640.92162794,37.0,15.0,25.0,41.897168957661954,-87.75939584204994,"(41.897168957661954, -87.75939584204994)",2014-10-22
Vacant/Abandoned Building,14-01827219,10/23/2014,Rear,,Open,,Vacant,False,False,2916,W,POLK,ST,60612.0,1157053.52019798,1896232.66899967,2.0,11.0,27.0,41.871031943776345,-87.69886955058668,"(41.871031943776345, -87.69886955058668)",2014-10-23
Vacant/Abandoned Building,14-01808852,10/21/2014,,,,,,,,3541,N,OSCEOLA,AVE,60634.0,1125786.31908901,1922641.70479784,36.0,16.0,17.0,41.944078832032986,-87.81307677506155,"(41.944078832032986, -87.81307677506155)",2014-10-21
Vacant/Abandoned Building,14-01816286,10/22/2014,Garage,,Open,GARAGE DOOR OPEN,Vacant,False,True,1810,N,AUSTIN,AVE,60639.0,1136121.946827,1911454.19742334,29.0,25.0,25.0,41.913200630697524,-87.77535454596907,"(41.91320063069752, -87.77535454596907)",2014-10-22
Vacant/Abandoned Building,14-01742943,10/10/2014,Front,,Open,,Vacant,True,True,10236,S,AVENUE J,,60617.0,1202484.54032136,1837703.43401462,10.0,4.0,52.0,41.709382761106845,-87.53407712547545,"(41.70938276110684, -87.53407712547543)",2014-10-10
Vacant/Abandoned Building,14-01864753,10/29/2014,Front,,Open,,Vacant,False,False,3653,W,OHIO,ST,60624.0,1151840.91726807,1903752.81813123,27.0,11.0,23.0,41.89177216542582,-87.71780899359536,"(41.89177216542582, -87.71780899359534)",2014-10-29
Vacant/Abandoned Building,14-01872720,10/30/2014,Front,,Open,,Vacant,True,False,505,W,103RD,PL,60628.0,1174757.95303002,1836262.86818945,34.0,22.0,49.0,41.70609100358439,-87.6356571830745,"(41.70609100358439, -87.63565718307449)",2014-10-30
Vacant/Abandoned Building,14-01825569,10/23/2014,Front,,Open,FRONT AND BACK,Vacant,False,True,610,W,116TH,PL,60628.0,1174283.13627317,1827833.35989247,34.0,5.0,53.0,41.682969694659135,-87.63764524474743,"(41.68296969465913, -87.63764524474743)",2014-10-23
Vacant/Abandoned Building,14-01808399,10/21/2014,Rear,,Open,ALL ENTRIES OPEN,Vacant,True,False,6406,S,WOOD,ST,60636.0,1165440.29139095,1862203.67751589,15.0,7.0,67.0,41.777478497755524,-87.66904466490342,"(41.777478497755524, -87.66904466490342)",2014-10-21
Vacant/Abandoned Building,14-01815225,10/22/2014,Rear,,Open,,Vacant,False,False,115,W,108TH,PL,60628.0,1177425.61087977,1833010.95142712,34.0,5.0,49.0,41.6971075595557,-87.62598623384773,"(41.697107559555704, -87.62598623384774)",2014-10-22
Vacant/Abandoned Building,14-01777570,10/16/2014,Front,,Open,,Vacant,False,False,660,W,116TH,ST,60628.0,1173890.35767411,1828218.68583354,34.0,5.0,53.0,41.684035784572025,-87.6390716906988,"(41.684035784572025, -87.6390716906988)",2014-10-16
Vacant/Abandoned Building,14-01671303,10/01/2014,Front,,Open,BOTTOM OF SHOP,Vacant,False,False,2936,E,87TH,ST,60617.0,1197339.27999427,1847853.3312273,10.0,4.0,46.0,41.7373644579141,-87.55258216970124,"(41.737364457914104, -87.55258216970124)",2014-10-01
Vacant/Abandoned Building,14-01817573,10/22/2014,,,,,,,,4529,W,PARKER,AVE,60639.0,1145722.84891589,1917862.74302981,31.0,25.0,20.0,41.93060949655461,-87.73991960232182,"(41.93060949655461, -87.73991960232182)",2014-10-22
Vacant/Abandoned Building,14-01823557,10/23/2014,,,,,,,,3268,W,WABANSIA,AVE,60647.0,1154121.19077342,1911107.89430602,26.0,14.0,23.0,41.91190998087143,-87.70923801958824,"(41.91190998087143, -87.70923801958824)",2014-10-23
Vacant/Abandoned Building,14-01851983,10/28/2014,,,,,,,,11839,S,INDIANA,AVE,60628.0,1179703.87170566,1826395.25012872,9.0,5.0,53.0,41.67890147945075,-87.61784578165562,"(41.67890147945075, -87.61784578165563)",2014-10-28
Vacant/Abandoned Building,14-01726165,10/08/2014,Front,,Boarded,,Vacant,False,False,1108,N,MOZART,ST,60622.0,1157184.89470993,1907243.02809993,26.0,12.0,24.0,41.90124273855231,-87.69808798745348,"(41.901242738552305, -87.69808798745348)",2014-10-08
Vacant/Abandoned Building,14-01879608,10/31/2014,Front,,Open,,Vacant,False,False,3011,E,83RD,ST,60617.0,1197738.78217824,1850517.2517042998,10.0,4.0,46.0,41.744664503993825,-87.5510298174401,"(41.744664503993825, -87.5510298174401)",2014-10-31
Vacant/Abandoned Building,14-01870996,10/30/2014,Front,,Open,,Vacant,False,True,12223,S,WALLACE,ST,60628.0,1174517.61841067,1823832.19739157,34.0,5.0,53.0,41.67198466637113,-87.63690528015057,"(41.67198466637113, -87.63690528015057)",2014-10-30
Vacant/Abandoned Building,14-01838165,10/25/2014,Front,,Open,FRONT DOOR GATE HAS BEEN REMOVED DOOR IS WIDE OPEN,Vacant,False,True,10800,S,INDIANA,AVE,60628.0,1179494.86969675,1833396.30788182,9.0,5.0,49.0,41.69811814775614,-87.61839812517313,"(41.69811814775614, -87.61839812517313)",2014-10-25
Vacant/Abandoned Building,14-01848142,10/27/2014,Front,,Open,ALL OVER,Vacant,False,True,10529,S,CALUMET,AVE,60628.0,1180442.33278701,1835223.79381388,9.0,5.0,49.0,41.703111382797324,-87.6148732074917,"(41.70311138279733, -87.6148732074917)",2014-10-27
Vacant/Abandoned Building,14-01826373,10/23/2014,Front,,Open,FRONT DOOR,Vacant,False,True,5094,W,GLADYS,AVE,60644.0,1142251.16023319,1897857.00781633,28.0,15.0,25.0,41.875776711776425,-87.75317463387077,"(41.875776711776425, -87.75317463387078)",2014-10-23
Vacant/Abandoned Building,14-01832034,10/24/2014,Rear,,Open,,Vacant,False,False,63,E,100TH,PL,60628.0,1178648.90000271,1838358.01000235,9.0,5.0,49.0,41.7117529690395,-87.62134541150374,"(41.7117529690395, -87.62134541150373)",2014-10-24
Vacant/Abandoned Building,14-01836520,10/25/2014,Front,,Open,,Vacant,True,False,10115,S,WENTWORTH,AVE,60628.0,1176726.57348716,1837876.52351174,9.0,5.0,49.0,41.710475106844726,-87.62839987176338,"(41.710475106844726, -87.62839987176338)",2014-10-25
Vacant/Abandoned Building,14-01811990,10/22/2014,Rear,,Boarded,PARTIALLY,Vacant,True,True,2873,E,91ST,ST,60617.0,1196814.98992704,1845175.8649332002,7.0,4.0,46.0,41.73003030678507,-87.55459173270727,"(41.73003030678507, -87.55459173270727)",2014-10-22
Vacant/Abandoned Building,14-01819276,10/22/2014,Front,,Open,ALL OVER,Vacant,False,True,31,E,100TH,ST,60628.0,1178313.89542785,1838679.73080531,9.0,5.0,49.0,41.71264340924028,-87.62256255218071,"(41.71264340924028, -87.62256255218072)",2014-10-22
Vacant/Abandoned Building,14-01737488,10/10/2014,Front,,Boarded,,Vacant,False,False,2320,W,MONTANA,ST,60647.0,1160380.05183245,1916174.3198330002,1.0,14.0,22.0,41.92568534455406,-87.6861043059338,"(41.92568534455406, -87.6861043059338)",2014-10-10
Vacant/Abandoned Building,14-01752070,10/13/2014,Front,,Open,,Vacant,False,False,12043,S,WENTWORTH,AVE,60628.0,1177112.52196729,1824908.47009289,9.0,5.0,53.0,41.67488018513134,-87.62737568815358,"(41.67488018513134, -87.62737568815358)",2014-10-13
Vacant/Abandoned Building,14-01672221,10/01/2014,Front,,Open,,Vacant,False,True,1911,W,CRYSTAL,ST,60622.0,1163427.06361604,1908351.75008969,1.0,14.0,24.0,41.904156026891926,-87.67512868721344,"(41.904156026891926, -87.67512868721343)",2014-10-01
Vacant/Abandoned Building,14-01679875,10/02/2014,Rear,,Open,REAR,Vacant,False,True,5419,W,ADAMS,ST,60644.0,1140371.795782,1898803.19928315,29.0,15.0,25.0,41.87840783570244,-87.76005186347159,"(41.87840783570244, -87.7600518634716)",2014-10-02
Vacant/Abandoned Building,14-01729169,10/09/2014,Front,,Open,FRONT DOOR,Vacant,True,True,10515,S,LA SALLE,ST,60628.0,1177136.12003441,1835221.97000955,34.0,5.0,49.0,41.703181430248144,-87.62697978372984,"(41.703181430248144, -87.62697978372985)",2014-10-09
Vacant/Abandoned Building,14-01769732,10/15/2014,Front,,Open,FRONT AND REAR,Vacant,False,True,911,W,54TH,ST,60609.0,1171146.2879853002,1869000.11042902,20.0,9.0,61.0,41.796005825710616,-87.64792786092266,"(41.79600582571062, -87.64792786092265)",2014-10-15
Vacant/Abandoned Building,14-01774437,10/16/2014,Front,,Open,REAR,Vacant,False,False,5544,S,JUSTINE,ST,60636.0,1166956.08011891,1867882.68759696,16.0,7.0,67.0,41.793030136243054,-87.66332553812961,"(41.793030136243054, -87.66332553812963)",2014-10-16
Vacant/Abandoned Building,14-01862896,10/29/2014,,,,,,,,11641,S,PARNELL,AVE,60628.0,1174726.05719889,1827696.23498732,34.0,5.0,53.0,41.68258357631596,-87.63602794358938,"(41.68258357631596, -87.63602794358937)",2014-10-29
Vacant/Abandoned Building,14-01864227,10/29/2014,Front,,Open,FRONT DOOR,Vacant,False,True,8956,S,WALLACE,ST,60620.0,1173871.72748696,1845546.11140685,21.0,22.0,71.0,41.731585189572655,-87.63862816852857,"(41.731585189572655, -87.63862816852858)",2014-10-29
Vacant/Abandoned Building,14-01883242,10/31/2014,Front,,Open,VARIOUS,Vacant,False,False,1900,S,WOOD,ST,60608.0,1164673.7059256001,1890776.88070926,25.0,12.0,31.0,41.85590280429936,-87.67104763406651,"(41.855902804299355, -87.6710476340665)",2014-10-31
Vacant/Abandoned Building,14-01843701,10/27/2014,Front,,Open,1ST FLOOR WINDOW BROKEN.,Vacant,False,False,800,W,83RD,ST,60620.0,1172417.26806604,1849824.63191878,21.0,6.0,71.0,41.74335811859469,-87.64383083236048,"(41.743358118594685, -87.64383083236049)",2014-10-27
Vacant/Abandoned Building,14-01857042,10/28/2014,Rear,,Boarded,NONE,Vacant,False,False,9237,S,UNIVERSITY,AVE,60619.0,1185491.28942767,1843961.81511343,8.0,4.0,47.0,41.72697246550154,-87.59611131836996,"(41.72697246550154, -87.59611131836996)",2014-10-28
Vacant/Abandoned Building,14-01819026,10/22/2014,Front,,Open,FRONT WINDOWS,Vacant,False,False,3454,N,CLAREMONT,AVE,60618.0,1160094.13589196,1922884.8218981002,32.0,19.0,5.0,41.94410531312776,-87.6869689991778,"(41.944105313127764, -87.6869689991778)",2014-10-22
Vacant/Abandoned Building,14-01826197,10/23/2014,Front,,Open,"SIDE WINDOW, FRONT DOOR, HALLWAY WINDOWS ARE OPEN",Vacant,False,True,323,N,HOMAN,AVE,60624.0,1153656.4322757,1902041.84912862,28.0,11.0,27.0,41.887041164518145,-87.7111869456387,"(41.88704116451815, -87.71118694563869)",2014-10-23
Vacant/Abandoned Building,14-01828114,10/23/2014,Front,,Open,REAR,Vacant,False,True,9032,S,MAY,ST,60620.0,1170239.55420537,1844900.19861056,21.0,22.0,73.0,41.72989238958725,-87.65195294899807,"(41.72989238958725, -87.65195294899806)",2014-10-23
Vacant/Abandoned Building,14-01834600,10/24/2014,,,,,,,,40,W,112TH,ST,60628.0,1177950.65649592,1830702.02193195,34.0,5.0,49.0,41.690759674867635,-87.6241334330971,"(41.69075967486763, -87.62413343309709)",2014-10-24
Vacant/Abandoned Building,14-01835792,10/24/2014,Front,,Open,ALL OVER,Vacant,False,True,221,W,117TH,ST,60628.0,1176816.10340637,1827356.80198779,34.0,5.0,53.0,41.68160544514944,-87.62838730699717,"(41.68160544514944, -87.62838730699717)",2014-10-24
Vacant/Abandoned Building,14-01769085,10/15/2014,Front,,Open,FRONT,Vacant,True,False,2219,S,KEDVALE,AVE,60623.0,1149178.70132372,1888844.0708994998,22.0,10.0,29.0,41.850912816898735,-87.72797233324674,"(41.850912816898735, -87.72797233324675)",2014-10-15
Vacant/Abandoned Building,14-01810860,10/21/2014,Rear,,Open,REAR,Vacant,False,False,8350,S,BENNETT,AVE,60617.0,1190312.980109,1849963.5072764,8.0,4.0,45.0,41.74332701249476,-87.5782562462381,"(41.74332701249476, -87.5782562462381)",2014-10-21
Vacant/Abandoned Building,14-01817466,10/22/2014,Front,,Open,FRONT,Vacant,True,False,1440,W,81ST,ST,60620.0,1168035.99469095,1851031.36520848,21.0,6.0,71.0,41.74676477724859,-87.65984947225363,"(41.74676477724859, -87.65984947225363)",2014-10-22
Vacant/Abandoned Building,14-01817575,10/22/2014,,,,,,,,1249,W,97TH,PL,60643.0,1169705.20499758,1840189.91081972,21.0,22.0,73.0,41.716978255544944,-87.65404658401778,"(41.716978255544944, -87.65404658401776)",2014-10-22
Vacant/Abandoned Building,14-01818752,10/22/2014,Rear,,Open,GARAGE,Vacant,False,False,9157,S,RACINE,AVE,60620.0,1169932.67480467,1844059.38768081,21.0,22.0,73.0,41.72759174368832,-87.65310147906875,"(41.72759174368832, -87.65310147906875)",2014-10-22
Vacant/Abandoned Building,14-01764759,10/15/2014,Rear,,Open,,Vacant,False,True,254,W,108TH,ST,60628.0,1176502.90678096,1833320.19167992,34.0,5.0,49.0,41.6979769047562,-87.62935537945435,"(41.6979769047562, -87.62935537945435)",2014-10-15
Vacant/Abandoned Building,14-01869921,10/30/2014,Front,,Open,,Vacant,False,False,9642,S,BENSLEY,AVE,60617.0,1194432.33413341,1841407.47771263,7.0,4.0,51.0,41.719748328352985,-87.56344340063904,"(41.719748328352985, -87.56344340063904)",2014-10-30
Vacant/Abandoned Building,14-01878445,10/31/2014,,,,,,,,5624,S,HOYNE,AVE,60636.0,1163321.18191986,1867342.44072139,15.0,7.0,67.0,41.7916245951276,-87.67666947828106,"(41.7916245951276, -87.67666947828106)",2014-10-31
Vacant/Abandoned Building,14-01846711,10/27/2014,Front,,Open,,Vacant,True,True,6732,S,WINCHESTER,AVE,60636.0,1164516.77790109,1860032.50122644,15.0,7.0,67.0,41.77154002659992,-87.67249144033983,"(41.771540026599915, -87.67249144033983)",2014-10-27
Vacant/Abandoned Building,14-01847492,10/27/2014,Rear,,Open,,Vacant,False,False,11911,S,STATE,ST,60628.0,1178395.53397625,1825946.73101557,9.0,5.0,53.0,41.677700389635184,-87.62264832941216,"(41.67770038963518, -87.62264832941216)",2014-10-27
Vacant/Abandoned Building,14-01848045,10/27/2014,Front,,Open,FRONT,Vacant,False,False,4857,S,ADA,ST,,1168149.19009475,1872551.32533068,20.0,9.0,61.0,41.80581581050062,-87.65881619776545,"(41.80581581050062, -87.65881619776546)",2014-10-27
Vacant/Abandoned Building,14-01848318,10/27/2014,Front,,Open,FRONT,Vacant,True,False,3134,N,SAWYER,AVE,60618.0,1154168.72160415,1920663.4473966,35.0,14.0,21.0,41.93813024340804,-87.70880773092958,"(41.93813024340804, -87.70880773092958)",2014-10-27
Vacant/Abandoned Building,14-01849572,10/27/2014,Front,,Open,OPEN,Vacant,False,True,6509,S,SANGAMON,ST,60621.0,1171094.58859239,1861670.01852288,17.0,7.0,68.0,41.77589234609051,-87.64833159539906,"(41.77589234609051, -87.64833159539907)",2014-10-27
Vacant/Abandoned Building,14-01864319,10/29/2014,Front,,Open,FRONT AND REAR,Vacant,False,False,2538,E,97TH,PL,60617.0,1194869.09999168,1840817.47000238,7.0,4.0,51.0,41.71811856256056,-87.56186304798395,"(41.71811856256056, -87.56186304798395)",2014-10-29
Vacant/Abandoned Building,14-01866919,10/29/2014,,,,,,,,9620,S,LUELLA,AVE,60617.0,1192957.019484,1841766.71346799,7.0,4.0,51.0,41.72077018327241,-87.56883527311321,"(41.72077018327241, -87.5688352731132)",2014-10-29
Vacant/Abandoned Building,14-01827659,10/23/2014,Front,,Open,?,Vacant,False,True,7519,S,SANGAMON,ST,60620.0,1171278.93009739,1854919.12762653,17.0,6.0,71.0,41.75736303727736,-87.64785304729185,"(41.75736303727736, -87.64785304729185)",2014-10-23
Vacant/Abandoned Building,14-01832273,10/24/2014,Front,,Boarded,FRONT/REAR DOOR,Vacant,False,True,6331,S,JUSTINE,ST,60636.0,1167090.54769598,1862742.72720647,16.0,7.0,67.0,41.77892257736947,-87.66297940732464,"(41.77892257736947, -87.66297940732464)",2014-10-24
Vacant/Abandoned Building,14-01833243,10/24/2014,Front,,Open,,Vacant,False,False,1308,W,98TH,ST,60643.0,1169332.84132743,1839800.2699706,21.0,22.0,73.0,41.71591707581676,-87.65542162500326,"(41.715917075816755, -87.65542162500326)",2014-10-24
Vacant/Abandoned Building,14-01834629,10/24/2014,Front,,Open,"FRONT, REAR, AND GARAGE",Vacant,False,True,4728,S,LAFLIN,ST,60609.0,1167132.68106678,1873383.34477382,20.0,9.0,61.0,41.80812079632831,-87.66252054953604,"(41.80812079632831, -87.66252054953605)",2014-10-24
Vacant/Abandoned Building,14-01835720,10/24/2014,Front,,Boarded,,Vacant,False,True,243,E,115TH,ST,60628.0,1180024.02958644,1828761.4998195,9.0,5.0,53.0,41.68538751141865,-87.61660183029369,"(41.68538751141864, -87.61660183029369)",2014-10-24
Vacant/Abandoned Building,14-01837888,10/25/2014,Front,,Open,FRONT,Vacant,False,True,329,S,WABASH,AVE,60604.0,1176859.46437779,1898880.37548671,2.0,1.0,32.0,41.87787267252837,-87.62607520537192,"(41.87787267252837, -87.6260752053719)",2014-10-25
Vacant/Abandoned Building,14-01842790,10/27/2014,Front,,Open,REAR DOOR,Vacant,False,False,6825,S,MORGAN,ST,60621.0,1170821.45099024,1859565.67706803,17.0,7.0,68.0,41.77012374388622,-87.6493942408274,"(41.77012374388622, -87.6493942408274)",2014-10-27
Vacant/Abandoned Building,14-01844029,10/27/2014,Front,,Open,,Vacant,False,False,5154,S,LAFLIN,ST,60609.0,1167209.95065,1870526.3436,16.0,9.0,61.0,41.800279205151526,-87.66231895196509,"(41.80027920515152, -87.66231895196508)",2014-10-27
Vacant/Abandoned Building,14-01844308,10/27/2014,Front,,Open,REAR,Vacant,False,True,7216,S,HERMITAGE,AVE,60636.0,1165930.01216638,1856842.63460375,17.0,7.0,67.0,41.76275668917793,-87.66740151650026,"(41.76275668917792, -87.66740151650026)",2014-10-27
Vacant/Abandoned Building,14-01816755,10/22/2014,,,,,,,,2523,N,SHEFFIELD,AVE,60614.0,1169193.28182963,1917045.58009312,43.0,19.0,7.0,41.92788901566032,-87.65369490562045,"(41.92788901566032, -87.65369490562045)",2014-10-22
Vacant/Abandoned Building,14-01816831,10/22/2014,,,,,,,,2740,W,NORTH,AVE,60647.0,1157744.0781248,1910521.71897419,1.0,14.0,24.0,41.91022835910997,-87.69594456509121,"(41.91022835910997, -87.69594456509121)",2014-10-22
Vacant/Abandoned Building,14-01816879,10/22/2014,,,,,,,,9248,S,COTTAGE GROVE,AVE,60619.0,1183182.13630122,1843729.82990713,9.0,6.0,44.0,41.72638982916701,-87.60457714011396,"(41.726389829167005, -87.60457714011397)",2014-10-22
Vacant/Abandoned Building,14-01817535,10/22/2014,,,,,,,,3200,W,DIVERSEY,AVE,60647.0,1154560.56490475,1918443.03791775,35.0,14.0,21.0,41.9320294301393,-87.70742719620522,"(41.9320294301393, -87.70742719620522)",2014-10-22
Vacant/Abandoned Building,14-01823499,10/23/2014,,,,,,,,2928,W,PALMER,ST,60647.0,1156236.78212004,1914617.49196823,35.0,14.0,22.0,41.92149809639381,-87.70137092559496,"(41.921498096393805, -87.70137092559497)",2014-10-23
Vacant/Abandoned Building,14-01824517,10/23/2014,Rear,,Boarded,NONE,Vacant,False,False,6623,S,LOWE,AVE,60621.0,1173178.25982596,1860970.64077494,6.0,7.0,68.0,41.77392737416685,-87.64071371179277,"(41.773927374166846, -87.64071371179277)",2014-10-23
Vacant/Abandoned Building,14-01843426,10/27/2014,Front,,Open,REAR,Vacant,False,True,7703,S,PEORIA,ST,60620.0,1171640.92981083,1853765.57356991,17.0,6.0,71.0,41.754189614510175,-87.64656012113123,"(41.75418961451017, -87.64656012113123)",2014-10-27
Vacant/Abandoned Building,14-01817016,10/22/2014,,,,,,,,1810,W,HADDON,AVE,60622.0,1164072.08363161,1907699.24010289,1.0,12.0,24.0,41.90235188716392,-87.6727778222672,"(41.902351887163924, -87.67277782226718)",2014-10-22
Vacant/Abandoned Building,14-01837787,10/25/2014,Front,,Open,,Vacant,False,True,822,E,89TH,ST,60619.0,1183283.51650491,1846142.17678841,8.0,6.0,44.0,41.73300723117272,-87.60413091764694,"(41.733007231172714, -87.60413091764694)",2014-10-25
Vacant/Abandoned Building,14-01842366,10/27/2014,Front,,Open,REAR AND FRONT  WIDE OPEN,Vacant,False,True,5749,S,ABERDEEN,ST,60621.0,1169963.65803408,1866699.12869345,16.0,7.0,68.0,41.78971746425254,-87.65233146810665,"(41.78971746425254, -87.65233146810665)",2014-10-27
Vacant/Abandoned Building,14-01775656,10/16/2014,Front,,Boarded,,Vacant,False,True,721,N,LATROBE,AVE,60644.0,1141228.93801156,1904272.21877659,28.0,15.0,25.0,41.89339974850433,-87.75676965700727,"(41.89339974850433, -87.75676965700728)",2014-10-16
Vacant/Abandoned Building,14-01777410,10/16/2014,,,,,,,,7831,S,AVALON,AVE,60619.0,1185905.24491897,1853323.30052661,8.0,4.0,45.0,41.752651620264665,-87.59430047855116,"(41.752651620264665, -87.59430047855116)",2014-10-16
Vacant/Abandoned Building,14-01807343,10/21/2014,Front,,Open,ALL ENTRIES OPEN,Vacant,False,False,124,N,SACRAMENTO,BLVD,60612.0,1156369.07421991,1900641.70018945,2.0,12.0,27.0,41.88314462106923,-87.70126319993572,"(41.88314462106923, -87.70126319993572)",2014-10-21
Vacant/Abandoned Building,14-01883226,10/31/2014,Front,,Open,,Vacant,False,False,230,N,LA CROSSE,AVE,60644.0,1144002.27426575,1901166.74370699,28.0,15.0,25.0,41.88482636925751,-87.74666203516351,"(41.88482636925751, -87.74666203516351)",2014-10-31
Vacant/Abandoned Building,14-01840707,10/26/2014,Rear,,Boarded,,Vacant,False,True,320,S,CALIFORNIA,AVE,60612.0,1157771.70550616,1898340.2327321998,2.0,11.0,27.0,41.876800709878665,-87.69617538724978,"(41.876800709878665, -87.69617538724977)",2014-10-26
Vacant/Abandoned Building,14-01841309,10/26/2014,Front,,Open,WINDOW AND DOORS,Vacant,False,False,6735,S,BELL,AVE,60636.0,1162560.31308965,1859952.44189981,17.0,8.0,66.0,41.771361361502215,-87.67966544354738,"(41.771361361502215, -87.67966544354739)",2014-10-26
Vacant/Abandoned Building,14-01817616,10/22/2014,,,,,,,,2951,N,SACRAMENTO,AVE,60618.0,1155868.39942505,1919472.10000834,35.0,14.0,21.0,41.93482695234778,-87.7025932493854,"(41.93482695234777, -87.70259324938539)",2014-10-22
Vacant/Abandoned Building,14-01824141,10/23/2014,Front,,Open,,Vacant,True,True,6011,S,ARTESIAN,AVE,60629.0,1161068.35827491,1864734.87807238,15.0,8.0,66.0,41.78451601666461,-87.68500229358807,"(41.784516016664604, -87.68500229358806)",2014-10-23
Vacant/Abandoned Building,14-01827430,10/23/2014,Front,,Open,"BACK DOORS, WINDOWS",Vacant,False,True,5756,S,EMERALD,AVE,60621.0,1172285.38102817,1866695.96202232,20.0,7.0,68.0,41.78965799384611,-87.64381852020702,"(41.78965799384612, -87.64381852020703)",2014-10-23
Vacant/Abandoned Building,14-01832851,10/24/2014,Front,,Open,FRONT,Vacant,False,False,4855,S,WOLCOTT,AVE,60609.0,1164504.75219438,1872481.85192856,20.0,9.0,61.0,41.80570287591337,-87.67218459189655,"(41.80570287591337, -87.67218459189655)",2014-10-24
Vacant/Abandoned Building,14-01837571,10/25/2014,Rear,,Open,,Vacant,False,True,5326,S,LOWE,AVE,60609.0,1172868.83841399,1869571.23419874,3.0,9.0,61.0,41.79753518757353,-87.64159433384981,"(41.797535187573544, -87.64159433384981)",2014-10-25
Vacant/Abandoned Building,14-01816786,10/22/2014,,,,,,,,7031,S,VERNON,AVE,60637.0,1180462.92128852,1858498.10807858,6.0,3.0,69.0,41.76697839734671,-87.61408559898199,"(41.76697839734671, -87.61408559898199)",2014-10-22
Vacant/Abandoned Building,14-01816836,10/22/2014,,,,,,,,3053,N,WESTERN,AVE,60618.0,1159820.70730535,1920311.52997937,1.0,19.0,5.0,41.937049692939254,-87.6880451994779,"(41.93704969293926, -87.6880451994779)",2014-10-22
Vacant/Abandoned Building,14-01808968,10/21/2014,Front,,Open,"BACKDOOR, WINDOW , FRONT DOOR, NO FENCE",Vacant,True,False,414,N,TROY,ST,60612.0,1155303.1800308002,1902707.9699686002,27.0,12.0,23.0,41.88883614323004,-87.70512169298435,"(41.88883614323004, -87.70512169298436)",2014-10-21
Vacant/Abandoned Building,14-01703501,10/06/2014,Front,,Open,,Vacant,True,True,1026,W,112TH,PL,60643.0,1171352.42997595,1830170.13999334,34.0,22.0,75.0,41.6894466391189,-87.64830543858835,"(41.6894466391189, -87.64830543858835)",2014-10-06
Vacant/Abandoned Building,14-01882543,10/31/2014,Front,,Open,"FRONT AND REAR DOORS, WINDOWS",Vacant,False,False,3327,N,OLCOTT,AVE,60634.0,1125502.06637518,1921204.55500121,36.0,16.0,17.0,41.940139845475386,-87.81415357811413,"(41.94013984547538, -87.81415357811413)",2014-10-31
Vacant/Abandoned Building,14-01840004,10/26/2014,Front,,Open,DOOR OPEN IN REAR,Vacant,False,False,12015,S,STATE,ST,60628.0,1178416.97539484,1825239.74369693,9.0,5.0,53.0,41.67575982382582,-87.62259119315517,"(41.67575982382582, -87.62259119315517)",2014-10-26
Vacant/Abandoned Building,14-01672942,10/01/2014,Front,,Open,NOT BOARDED UP,Vacant,False,False,5350,S,HONORE,ST,60609.0,1164915.68926743,1869545.20880218,16.0,9.0,61.0,41.79763569173815,-87.67076045396121,"(41.79763569173815, -87.67076045396121)",2014-10-01
Vacant/Abandoned Building,14-01881540,10/31/2014,Front,,Open,,Vacant,False,False,1330,W,112TH,ST,60643.0,1169461.30097675,1830498.53911249,34.0,22.0,75.0,41.69038888033485,-87.65521939212746,"(41.69038888033485, -87.65521939212746)",2014-10-31
Vacant/Abandoned Building,14-01884507,10/31/2014,Front,,Open,FRONT,Vacant,False,False,11647,S,RACINE,AVE,60643.0,1170420.68582891,1827547.77168444,34.0,5.0,53.0,41.682270711539225,-87.65179250066107,"(41.68227071153923, -87.65179250066107)",2014-10-31
Vacant/Abandoned Building,14-01810138,10/21/2014,Front,,Open,FRONT & BACK,Vacant,False,False,8228,S,DOBSON,AVE,60619.0,1184668.611625,1850632.57185,8.0,6.0,44.0,41.745297044063996,-87.598916336677,"(41.74529704406399, -87.598916336677)",2014-10-21
Vacant/Abandoned Building,14-01816825,10/22/2014,,,,,,,,5022,N,KEELER,AVE,60630.0,1147479.28927449,1933043.92940709,39.0,17.0,14.0,41.97223435895058,-87.73307428525047,"(41.97223435895058, -87.73307428525047)",2014-10-22
Vacant/Abandoned Building,14-01772786,10/16/2014,Front,,Open,,Vacant,False,False,7125,S,HERMITAGE,AVE,60636.0,1165912.65468224,1857444.5130296,17.0,7.0,67.0,41.764408694150156,-87.66744805764792,"(41.76440869415016, -87.66744805764792)",2014-10-16
Vacant/Abandoned Building,14-01676817,10/02/2014,Front,,Open,,Vacant,False,True,7233,S,MARSHFIELD,AVE,60636.0,1166594.29009789,1856743.42526689,17.0,7.0,67.0,41.762470307592615,-87.66496964987292,"(41.76247030759262, -87.6649696498729)",2014-10-02
Vacant/Abandoned Building,14-01848612,10/27/2014,Front,,Open,FRONT,Vacant,False,False,8024,S,WESTERN,AVE,60620.0,1161773.62036848,1851284.1799996002,18.0,8.0,70.0,41.74759075370235,-87.68278949143311,"(41.74759075370235, -87.68278949143311)",2014-10-27
Vacant/Abandoned Building,14-01861877,10/29/2014,Rear,,Open,GARAGAE AND THE REAR OF THE BUILDING,Vacant,False,False,1609,S,HOMAN,AVE,60623.0,1153965.64187218,1891739.17429514,24.0,10.0,29.0,41.858763368625404,-87.71032604446064,"(41.858763368625404, -87.71032604446064)",2014-10-29
Vacant/Abandoned Building,14-01873160,10/30/2014,Front,,Open,,Vacant,False,False,7925,S,FRANCISCO,AVE,60652.0,1158422.11999372,1851909.00071363,18.0,8.0,70.0,41.74937423831035,-87.69505350023795,"(41.74937423831035, -87.69505350023793)",2014-10-30
Vacant/Abandoned Building,14-01874987,10/30/2014,,,,,,,,3619,W,LEXINGTON,ST,60624.0,1152370.31202142,1896458.63052625,24.0,11.0,27.0,41.871745708148644,-87.7160574316232,"(41.87174570814864, -87.71605743162318)",2014-10-30
Vacant/Abandoned Building,14-01810932,10/21/2014,Front,,Open,FRONT DOOR,Vacant,False,False,7506,S,NORMAL,AVE,60620.0,1174384.7998741001,1855159.17007514,17.0,6.0,69.0,41.75795326803637,-87.6364633934111,"(41.757953268036374, -87.6364633934111)",2014-10-21
Vacant/Abandoned Building,14-01827158,10/23/2014,Rear,,Open,,Vacant,False,True,3948,N,GREENVIEW,AVE,60613.0,1165368.54300682,1926301.96102417,47.0,19.0,6.0,41.95337132882909,-87.66748511150669,"(41.953371328829085, -87.66748511150669)",2014-10-23
Vacant/Abandoned Building,14-01719646,10/08/2014,Front,,Open,FRONT,Vacant,False,False,6458,S,WOOD,ST,60636.0,1165450.09612553,1861855.56142371,15.0,7.0,67.0,41.77652301395371,-87.66901857923122,"(41.776523013953714, -87.66901857923122)",2014-10-08
Vacant/Abandoned Building,14-01674717,10/01/2014,Front,,Open,,Occupied,False,True,9936,S,SANGAMON,ST,60643.0,1171735.10992561,1838937.40467128,34.0,22.0,73.0,41.71349700440934,-87.64664853079675,"(41.71349700440934, -87.64664853079677)",2014-10-01
Vacant/Abandoned Building,14-01690812,10/03/2014,Front,,Open,,Vacant,False,False,6639,S,MARSHFIELD,AVE,60636.0,1166472.77008682,1860681.24031781,15.0,7.0,67.0,41.773278784983866,-87.66530294351408,"(41.77327878498387, -87.66530294351408)",2014-10-03
Vacant/Abandoned Building,14-01705849,10/06/2014,Front,,Open,FRONT,Vacant,False,False,5649,S,HOYNE,AVE,60636.0,1163325.78191986,1867174.64072139,15.0,7.0,67.0,41.791164034073404,-87.67665731068041,"(41.7911640340734, -87.6766573106804)",2014-10-06
Vacant/Abandoned Building,14-01857081,10/28/2014,Front,,Open,SIDE GANGWAY DOOR,Vacant,False,True,4605,W,WRIGHTWOOD,AVE,60639.0,1145140.51899313,1917058.04002005,31.0,25.0,19.0,41.92841235426709,-87.74207994995072,"(41.928412354267095, -87.74207994995072)",2014-10-28
Vacant/Abandoned Building,14-01861356,10/29/2014,Front,,Boarded,FRONT,Vacant,False,False,7717,S,EMERALD,AVE,60620.0,1172638.62356855,1853693.9102983996,17.0,6.0,71.0,41.753971048495565,-87.64290601366945,"(41.75397104849556, -87.64290601366946)",2014-10-29
Vacant/Abandoned Building,14-01870162,10/30/2014,Front,,Open,REAR DOOR WIDE OPEN,Vacant,False,False,4511,W,JACKSON,BLVD,60624.0,1146316.4753083,1898304.96309377,24.0,11.0,26.0,41.876929579536316,-87.73823671524497,"(41.87692957953632, -87.73823671524495)",2014-10-30
Vacant/Abandoned Building,14-01871577,10/30/2014,,,,,,,,4020,W,VAN BUREN,ST,60624.0,1149658.75708053,1897720.68108957,24.0,11.0,26.0,41.87526199639731,-87.72597993283556,"(41.87526199639731, -87.72597993283557)",2014-10-30
Vacant/Abandoned Building,14-01796385,10/20/2014,Front,,Open,FRONT,Vacant,False,False,5620,S,PAULINA,ST,60636.0,1165968.63700342,1867431.82500506,15.0,7.0,67.0,41.79181397536795,-87.66695920310663,"(41.79181397536795, -87.66695920310663)",2014-10-20
Vacant/Abandoned Building,14-01816014,10/22/2014,Front,,Boarded,FRONT,Vacant,False,False,10622,S,WALLACE,ST,60628.0,1174187.0902751999,1834443.9229926998,34.0,22.0,49.0,41.70111222169171,-87.63780143761738,"(41.70111222169171, -87.63780143761738)",2014-10-22
Vacant/Abandoned Building,14-01831741,10/24/2014,Front,,Open,SIDE WINDOWS HAVE BEEN TAKEN OUT. ON THE SIDE OF THE PROPERTY...,Vacant,False,True,6541,S,OAKLEY,AVE,60636.0,1162198.12190332,1861225.47131512,15.0,8.0,66.0,41.77486227732493,-87.68095771936375,"(41.77486227732493, -87.68095771936375)",2014-10-24
Vacant/Abandoned Building,14-01832042,10/24/2014,Front,,Boarded,FRONT/REAR DOOR,Vacant,False,True,4250,W,VAN BUREN,ST,60624.0,1148458.91040779,1897691.57786877,24.0,11.0,26.0,41.87520534745557,-87.73038608428541,"(41.87520534745557, -87.73038608428541)",2014-10-24
Vacant/Abandoned Building,14-01746209,10/11/2014,Front,,Open,REAR,Vacant,False,True,7528,S,PARNELL,AVE,60620.0,1173850.47249285,1854986.98361382,17.0,6.0,69.0,41.75749262817632,-87.63842673440351,"(41.757492628176315, -87.63842673440352)",2014-10-11
Vacant/Abandoned Building,14-01756944,10/14/2014,Front,,Open,REAR BASEMENT,Vacant,False,False,7815,S,UNION,AVE,60620.0,1172990.71356718,1852990.70597247,17.0,6.0,71.0,41.75203360608753,-87.64163644427059,"(41.752033606087544, -87.6416364442706)",2014-10-14
Vacant/Abandoned Building,14-01757054,10/14/2014,Front,,Open,FIRST FLOOR REAR,Vacant,False,False,7630,S,UNION,AVE,60620.0,1172955.84202199,1854277.7730131,17.0,6.0,71.0,41.75556624952984,-87.64172631777042,"(41.75556624952984, -87.64172631777042)",2014-10-14
Vacant/Abandoned Building,14-01776972,10/16/2014,Front,,Open,FRONT,Vacant,False,False,6454,S,DAMEN,AVE,60636.0,1164137.48541169,1861848.93270864,15.0,7.0,67.0,41.77653254802332,-87.67383074304372,"(41.77653254802332, -87.67383074304374)",2014-10-16
Vacant/Abandoned Building,14-01783626,10/17/2014,Front,,Open,WINDOWS/FRONT DOORS,Vacant,False,True,8326,S,HERMITAGE,AVE,60620.0,1166127.9479734,1849478.54063085,18.0,6.0,71.0,41.742544370854176,-87.66688512019003,"(41.74254437085418, -87.66688512019003)",2014-10-17
Vacant/Abandoned Building,14-01686670,10/03/2014,Front,,Open,REAR,Vacant,False,True,6338,S,BELL,AVE,60636.0,1162493.77998543,1862570.69999476,15.0,8.0,66.0,41.778547608826386,-87.679836400581,"(41.77854760882639, -87.679836400581)",2014-10-03
Vacant/Abandoned Building,14-01865595,10/29/2014,Front,,Open,FRONT AND REAR..,Vacant,False,False,3425,W,FLOURNOY,ST,60624.0,1153645.57663221,1896821.5340733998,24.0,11.0,27.0,41.872716293674934,-87.71136574032295,"(41.872716293674934, -87.71136574032296)",2014-10-29
Vacant/Abandoned Building,14-01871821,10/30/2014,Front,,Open,FRONT,Vacant,False,False,3900,W,GRENSHAW,ST,60624.0,1150556.17202317,1894756.02959281,24.0,11.0,29.0,41.867109181936634,-87.72276238077332,"(41.86710918193663, -87.72276238077332)",2014-10-30
Vacant/Abandoned Building,14-01872998,10/30/2014,Front,,Open,REAR WINDOWS OPENED,Vacant,False,False,7311,S,ABERDEEN,ST,60621.0,1170247.82916804,1856327.85957969,17.0,7.0,68.0,41.76125126288429,-87.65159096514735,"(41.76125126288429, -87.65159096514734)",2014-10-30
Vacant/Abandoned Building,14-01879878,10/31/2014,Front,,Open,,Vacant,False,False,3729,S,LAKE PARK,AVE,60653.0,1182493.46970527,1880799.08077623,4.0,2.0,36.0,41.82812730496277,-87.60595121615728,"(41.82812730496277, -87.60595121615728)",2014-10-31
Vacant/Abandoned Building,14-01815149,10/22/2014,Rear,,Open,,Vacant,False,False,15,W,104TH,PL,60628.0,1178005.49080104,1835682.25002621,34.0,5.0,49.0,41.70442489136162,-87.62378247524971,"(41.70442489136162, -87.62378247524971)",2014-10-22
Vacant/Abandoned Building,14-01815177,10/22/2014,Rear,,Open,,Vacant,False,False,20,W,108TH,PL,60628.0,1178050.38996633,1833026.32001666,34.0,5.0,49.0,41.69713563005776,-87.62369819840679,"(41.69713563005776, -87.6236981984068)",2014-10-22
Vacant/Abandoned Building,14-01822049,10/23/2014,Front,,Boarded,,Vacant,False,False,7354,S,STEWART,AVE,60621.0,1174898.51830449,1856173.79772446,17.0,7.0,68.0,41.760726092437096,-87.6345504748481,"(41.760726092437096, -87.6345504748481)",2014-10-23
Vacant/Abandoned Building,14-01857138,10/28/2014,Front,,Boarded,NONE,Vacant,False,False,7710,S,RACINE,AVE,60620.0,1169658.18580283,1853663.61978616,17.0,6.0,71.0,41.75395304260866,-87.65382917984816,"(41.753953042608664, -87.65382917984816)",2014-10-28
Vacant/Abandoned Building,14-01714420,10/07/2014,Front,,Open,BACK,Vacant,False,True,5232,S,HYDE PARK,BLVD,60615.0,1188454.94226668,1870786.97227557,4.0,2.0,41.0,41.80051286560154,-87.58439968437685,"(41.80051286560154, -87.58439968437686)",2014-10-07
Vacant/Abandoned Building,14-01836990,10/25/2014,Front,,Open,FRONT,Vacant,False,False,11835,S,LAFAYETTE,AVE,60628.0,1178041.05540593,1826486.59659477,34.0,5.0,53.0,41.67918987874203,-87.62392956035231,"(41.67918987874203, -87.62392956035231)",2014-10-25
Vacant/Abandoned Building,14-01867392,10/29/2014,Front,,Open,FRONT AND REAR,Vacant,True,True,8017,S,PAXTON,AVE,60617.0,1192253.50448808,1852244.49953137,8.0,4.0,46.0,41.74953930746923,-87.57107214395556,"(41.749539307469234, -87.57107214395555)",2014-10-29
Vacant/Abandoned Building,14-01868325,10/29/2014,Front,,Open,BASEMENT DOOR REAR,Vacant,False,False,7551,S,SANGAMON,ST,60620.0,1171284.08559839,1854727.38991857,17.0,6.0,71.0,41.75683677173849,-87.64783975231104,"(41.75683677173849, -87.64783975231103)",2014-10-29
Vacant/Abandoned Building,14-01750960,10/13/2014,Front,,Open,FRONT DOOR & 2ND FL FRONT WINDOW,Vacant,False,True,11325,S,PRINCETON,AVE,60628.0,1176304.50730595,1829744.37647473,34.0,5.0,49.0,41.68816878500585,-87.63018868938579,"(41.688168785005864, -87.6301886893858)",2014-10-13
Vacant/Abandoned Building,14-01756804,10/14/2014,Front,,Open,,Vacant,False,False,7429,S,MAY,ST,60621.0,1169937.49907905,1855573.12708214,17.0,7.0,68.0,41.759186922694994,-87.65275023277819,"(41.759186922694994, -87.65275023277819)",2014-10-14
Vacant/Abandoned Building,14-01763694,10/15/2014,Front,,Open,"FRONT/REAR DOORS, WINDOWS",Occupied,False,True,7144,S,INGLESIDE,AVE,60619.0,1183794.40999059,1857827.21077973,5.0,3.0,69.0,41.76506029487704,-87.60189539275034,"(41.76506029487704, -87.60189539275034)",2014-10-15
Vacant/Abandoned Building,14-01812747,10/22/2014,Rear,,Open,,Vacant,False,False,6932,S,ABERDEEN,ST,60621.0,1170179.15846884,1858838.75802352,17.0,7.0,68.0,41.7681429792969,-87.6517697297942,"(41.768142979296904, -87.6517697297942)",2014-10-22
Vacant/Abandoned Building,14-01817081,10/22/2014,,,,,,,,726,W,OAKDALE,AVE,60657.0,1170663.50160845,1919864.46508249,44.0,19.0,6.0,41.93559205631754,-87.64820966995316,"(41.93559205631754, -87.64820966995316)",2014-10-22
Vacant/Abandoned Building,14-01699732,10/05/2014,Rear,,Boarded,REAR WINDOW OPEN,Vacant,False,True,317,W,112TH,PL,60628.0,1176134.16277257,1830325.98182197,34.0,5.0,49.0,41.68976861155257,-87.63079494031479,"(41.68976861155257, -87.6307949403148)",2014-10-05
Vacant/Abandoned Building,14-01730257,10/09/2014,Rear,,Open,REAR DOOR,Vacant,False,False,135,W,113TH,PL,60628.0,1177333.22227733,1829692.38798406,34.0,5.0,49.0,41.68800301726018,-87.62642422373581,"(41.68800301726018, -87.62642422373582)",2014-10-09
Vacant/Abandoned Building,14-01730384,10/09/2014,Rear,,Open,BASEMENT DOOR & 1 FL REAR DOORS,Vacant,False,False,139,W,113TH,PL,60628.0,1177310.22227733,1829691.78798406,34.0,5.0,49.0,41.68800188866715,-87.62650844233227,"(41.68800188866715, -87.62650844233227)",2014-10-09
Vacant/Abandoned Building,14-01880210,10/31/2014,Front,,Open,FRONT,Vacant,False,False,11701,S,LAFAYETTE,AVE,60628.0,1178013.51887529,1827339.24409452,34.0,5.0,53.0,41.6815302942166,-87.62400465983255,"(41.6815302942166, -87.62400465983255)",2014-10-31
Vacant/Abandoned Building,14-01816827,10/22/2014,,,,,,,,11447,S,MICHIGAN,AVE,60628.0,1178864.64108273,1828986.15959823,9.0,5.0,49.0,41.686030401544045,-87.62083924928675,"(41.686030401544045, -87.62083924928675)",2014-10-22
Vacant/Abandoned Building,14-01762976,10/15/2014,Front,,Open,UNSECURED DOORS AND WINDOWS,Vacant,False,True,5007,S,TRIPP,AVE,60632.0,1148875.47710067,1871059.17432751,23.0,8.0,57.0,41.80211445403033,-87.72954398493151,"(41.80211445403033, -87.72954398493151)",2014-10-15
Vacant/Abandoned Building,14-01767844,10/15/2014,Front,,Open,ALL AROUND,Vacant,False,False,6828,S,OAKLEY,AVE,60636.0,1162243.66909096,1859330.85000128,17.0,8.0,66.0,41.76966222445013,-87.68084344258808,"(41.76966222445013, -87.68084344258808)",2014-10-15
Vacant/Abandoned Building,14-01699157,10/05/2014,Front,,Open,"FRONT, SIDE AND REAR",Vacant,False,True,1319,S,KOLIN,AVE,60623.0,1147593.51372176,1893556.06182873,24.0,10.0,29.0,41.8638736321799,-87.73366957758196,"(41.86387363217991, -87.73366957758196)",2014-10-05
Vacant/Abandoned Building,14-01821871,10/23/2014,Front,,Open,FRONT AND BACK,Vacant,False,False,7021,S,HARPER,AVE,60637.0,1187596.77388799,1858747.84799528,5.0,3.0,43.0,41.76749703181043,-87.58792956056604,"(41.76749703181043, -87.58792956056604)",2014-10-23
Vacant/Abandoned Building,14-01831126,10/24/2014,Front,,Open,OPEN DOORS AND WINDOWS.. MISSING GATE.. AND VAGRANTS INSIDE THE PROPERTY..,Vacant,True,True,4043,W,CARROLL,AVE,60624.0,1149376.0560222,1901929.31992998,28.0,11.0,26.0,41.88681645484486,-87.72690871883971,"(41.88681645484486, -87.72690871883971)",2014-10-24
Vacant/Abandoned Building,14-01834584,10/24/2014,Front,,Open,FRONT DOOR AND WINDOWS,Vacant,False,True,4100,W,21ST,ST,60623.0,1149371.31228375,1889774.91080956,24.0,10.0,29.0,41.85346343010945,-87.7272412905185,"(41.85346343010945, -87.72724129051852)",2014-10-24
Vacant/Abandoned Building,14-01689117,10/03/2014,,,,,,,,1647,S,KARLOV,AVE,60623.0,1149326.51298055,1891415.77121224,24.0,10.0,29.0,41.85796702170432,-87.72736321815017,"(41.85796702170432, -87.72736321815017)",2014-10-03
Vacant/Abandoned Building,14-01817750,10/22/2014,Front,,Open,,Vacant,False,True,5940,S,LA SALLE,ST,60621.0,1176318.40763306,1865601.66532397,20.0,2.0,68.0,41.78656542203975,-87.62906357936994,"(41.78656542203975, -87.62906357936996)",2014-10-22
Vacant/Abandoned Building,14-01822957,10/23/2014,Rear,,Open,BACK,Vacant,False,True,10320,S,TROY,ST,60655.0,1157144.52367554,1836030.70581936,19.0,22.0,74.0,41.705827395741906,-87.70016315633768,"(41.70582739574191, -87.70016315633767)",2014-10-23
Vacant/Abandoned Building,14-01840530,10/26/2014,Rear,,Boarded,,Vacant,False,False,5921,S,INDIANA,AVE,60637.0,1178611.80362429,1865799.57932308,20.0,2.0,40.0,41.787056660122225,-87.62064884325062,"(41.787056660122225, -87.62064884325062)",2014-10-26
Vacant/Abandoned Building,14-01853846,10/28/2014,Front,,Open,FRONT,Vacant,False,False,435,E,133RD,ST,60827.0,1181583.59182642,1816816.66998553,9.0,5.0,54.0,41.65257337701353,-87.61125907147701,"(41.65257337701353, -87.61125907147701)",2014-10-28
Vacant/Abandoned Building,14-01786219,10/17/2014,Front,,Open,,Vacant,False,False,4946,W,WASHINGTON,BLVD,60644.0,1143397.28537871,1900048.46957949,28.0,15.0,25.0,41.881769017497504,-87.7489116387011,"(41.88176901749751, -87.74891163870109)",2014-10-17
Vacant/Abandoned Building,14-01817050,10/22/2014,,,,,,,,1427,E,71ST,PL,60619.0,1186956.22400661,1857873.53127824,5.0,3.0,43.0,41.76511303797864,-87.59030510360138,"(41.76511303797863, -87.59030510360137)",2014-10-22
Vacant/Abandoned Building,14-01824531,10/23/2014,Rear,,Open,,Vacant,False,False,11314,S,LOWE,AVE,60628.0,1173998.70987848,1829849.36397043,34.0,22.0,49.0,41.68850822398424,-87.63862691034396,"(41.688508223984236, -87.63862691034396)",2014-10-23
Vacant/Abandoned Building,14-01716141,10/07/2014,Front,,Open,FRONT AND REAR,Vacant,False,True,3020,N,MENARD,AVE,60634.0,1137188.23120715,1919488.99420537,30.0,25.0,19.0,41.93522991389576,-87.77124369731995,"(41.93522991389576, -87.77124369731995)",2014-10-07
Vacant/Abandoned Building,14-01825707,10/23/2014,Front,,Boarded,,Vacant,False,False,71,E,100TH,PL,60628.0,1178728.80000271,1838360.51000235,9.0,5.0,49.0,41.711758016006925,-87.6210527229912,"(41.71175801600693, -87.62105272299121)",2014-10-23
Vacant/Abandoned Building,14-01837891,10/25/2014,Front,,Open,FRONT,Vacant,False,True,3829,S,WABASH,AVE,60653.0,1177355.32002004,1879625.47003326,3.0,2.0,35.0,41.825024653223046,-87.62483788292464,"(41.825024653223046, -87.62483788292464)",2014-10-25
Vacant/Abandoned Building,14-01848754,10/27/2014,Front,,Boarded,,Vacant,False,False,5954,S,PRINCETON,AVE,60621.0,1175309.37842133,1865396.70587363,20.0,7.0,68.0,41.786025612535184,-87.63276930834006,"(41.78602561253519, -87.63276930834004)",2014-10-27
Vacant/Abandoned Building,14-01856829,10/28/2014,Front,,Open,"FRONT/REAR DOORS, WINDOWS",Vacant,False,False,6835,S,CARPENTER,ST,60621.0,1170492.12038668,1859489.92441927,17.0,7.0,68.0,41.769923049457496,-87.65060363213449,"(41.769923049457496, -87.6506036321345)",2014-10-28
Vacant/Abandoned Building,14-01861006,10/29/2014,Front,,Open,,Vacant,False,False,6515,S,MORGAN,ST,60621.0,1170764.81610854,1861620.70352832,17.0,7.0,68.0,41.775764221623454,-87.64954194774897,"(41.77576422162345, -87.64954194774897)",2014-10-29
Vacant/Abandoned Building,14-01861195,10/29/2014,Front,,Open,,Vacant,False,False,6540,S,SANGAMON,ST,60621.0,1171100.58859239,1861462.51852288,17.0,7.0,68.0,41.77532281016752,-87.64831565914622,"(41.775322810167516, -87.64831565914622)",2014-10-29
Vacant/Abandoned Building,14-01872819,10/30/2014,Front,,Open,"FRONT/REAR DOORS, WINDOWS",Vacant,False,False,10822,S,WOOD,ST,60643.0,1166283.17230805,1832816.38008246,19.0,22.0,75.0,41.69681749410083,-87.66678904140869,"(41.69681749410083, -87.66678904140868)",2014-10-30
Vacant/Abandoned Building,14-01882736,10/31/2014,,,,,,,,1144,N,HARDING,AVE,60651.0,1149843.50982245,1907345.23073002,27.0,11.0,23.0,41.901669200182994,-87.72505108779018,"(41.90166920018299, -87.72505108779019)",2014-10-31
Vacant/Abandoned Building,14-01690403,10/03/2014,,,,,,,,308,W,60TH,ST,60621.0,1175228.55789415,1865169.14477406,20.0,7.0,68.0,41.785402967501476,-87.6330724296667,"(41.785402967501476, -87.63307242966668)",2014-10-03
Vacant/Abandoned Building,14-01705393,10/06/2014,Front,,Open,FRONT DOOR,Vacant,False,False,9142,S,LUELLA,AVE,60617.0,1192765.8966148999,1844789.36292461,7.0,4.0,48.0,41.729069278315635,-87.56943705485989,"(41.72906927831563, -87.56943705485989)",2014-10-06
Vacant/Abandoned Building,14-01781815,10/17/2014,Front,,Open,1ST FLOOR REAR,Vacant,False,True,6845,S,MORGAN,ST,60621.0,1170825.25099024,1859431.87706803,17.0,7.0,68.0,41.76975649734353,-87.64938421183187,"(41.769756497343536, -87.64938421183187)",2014-10-17
Vacant/Abandoned Building,14-01784342,10/17/2014,Rear,,Open,BACK,Vacant,False,False,1022,N,KEYSTONE,AVE,60651.0,1149200.47360818,1906515.6550182,37.0,11.0,23.0,41.899405246994135,-87.72743457538743,"(41.899405246994135, -87.72743457538743)",2014-10-17
Vacant/Abandoned Building,14-01788934,10/18/2014,Garage,,Open,,Vacant,False,False,3423,W,MADISON,ST,60624.0,1153556.91289132,1899806.61162058,28.0,11.0,27.0,41.88090942401552,-87.71161187866808,"(41.88090942401552, -87.71161187866808)",2014-10-18
Vacant/Abandoned Building,14-01800956,10/20/2014,Front,,Open,FRONT,Vacant,False,True,1107,N,MASON,AVE,60651.0,1136494.93969145,1906763.70371133,29.0,15.0,25.0,41.900322676627724,-87.77409657418355,"(41.900322676627724, -87.77409657418355)",2014-10-20
Vacant/Abandoned Building,14-01801247,10/20/2014,Rear,,Open,FRONT AND REAR,Vacant,False,True,9703,S,YATES,AVE,60617.0,1194103.16472176,1841093.96011726,7.0,4.0,51.0,41.718896077589115,-87.56465928383821,"(41.718896077589115, -87.56465928383822)",2014-10-20
Vacant/Abandoned Building,14-01802847,10/21/2014,,,,,,,,2220,E,100TH,ST,60617.0,1192703.50188817,1839098.45637466,7.0,4.0,51.0,41.713454393626655,-87.5698504999951,"(41.713454393626655, -87.5698504999951)",2014-10-21
Vacant/Abandoned Building,14-01678602,10/02/2014,Front,,Open,OPEN IN THE REAR,Vacant,False,False,3026,W,LEXINGTON,ST,60612.0,1156308.21042954,1896547.17106709,28.0,11.0,27.0,41.87191005405927,-87.7015973642111,"(41.87191005405927, -87.7015973642111)",2014-10-02
Vacant/Abandoned Building,14-01685015,10/03/2014,Front,,Open,FRONT,Vacant,False,True,10259,S,COMMERCIAL,AVE,60617.0,1197388.78479888,1837497.83297504,10.0,4.0,51.0,41.70894685021771,-87.55274481824199,"(41.708946850217714, -87.552744818242)",2014-10-03
Vacant/Abandoned Building,14-01689863,10/03/2014,Front,,Open,,Vacant,False,False,10058,S,FOREST,AVE,60628.0,1180023.22468508,1838340.99539012,9.0,5.0,49.0,41.71167498397254,-87.61631283076461,"(41.71167498397255, -87.61631283076461)",2014-10-03
Vacant/Abandoned Building,14-01746135,10/11/2014,Front,,Open,REAR,Vacant,False,True,10140,S,RHODES,AVE,60628.0,1181698.43800056,1837846.71340272,9.0,5.0,49.0,41.71028016669817,-87.6101930238353,"(41.71028016669817, -87.6101930238353)",2014-10-11
Vacant/Abandoned Building,14-01809441,10/21/2014,Front,,Open,"FRONT DOOR, WINDOWS ON FIRST AND SECOND FLOOR",Vacant,False,False,11024,S,EDBROOKE,AVE,60628.0,1179204.22730904,1831893.23572276,9.0,5.0,49.0,41.69400012192311,-87.61950791183287,"(41.69400012192311, -87.61950791183287)",2014-10-21
Vacant/Abandoned Building,14-01771070,10/15/2014,Front,,Open,ALL AROUND,Vacant,False,True,5219,S,INDIANA,AVE,60615.0,1178487.62387083,1870347.00009955,3.0,2.0,40.0,41.79953803819829,-87.62096598909855,"(41.79953803819829, -87.62096598909855)",2014-10-15
Vacant/Abandoned Building,14-01806466,10/21/2014,Front,,Open,,Vacant,False,True,712,E,72ND,ST,60619.0,1182268.56136813,1857434.7244271,6.0,3.0,69.0,41.7640187420353,-87.60750015621149,"(41.764018742035304, -87.60750015621149)",2014-10-21
Vacant/Abandoned Building,14-01825748,10/23/2014,Front,,Open,FRONT DOOR AND SOME OF THE WINDOWS,Vacant,False,True,5150,S,INDIANA,AVE,60615.0,1178463.51803044,1871253.76602875,3.0,2.0,40.0,41.802026834920866,-87.62102683402318,"(41.80202683492087, -87.62102683402318)",2014-10-23
Vacant/Abandoned Building,14-01836438,10/24/2014,Front,,Open,FRONT WINDOW,Vacant,False,False,5324,S,WABASH,AVE,60615.0,1177619.93136568,1869687.10200945,3.0,2.0,40.0,41.79774690425318,-87.62416798477474,"(41.79774690425318, -87.62416798477473)",2014-10-24
Vacant/Abandoned Building,14-01769110,10/15/2014,Front,,Open,FRONT,Vacant,True,False,10749,S,PRAIRIE,AVE,60628.0,1179821.865075,1833699.26505,9.0,5.0,49.0,41.69894204928863,-87.61719162088865,"(41.69894204928863, -87.61719162088865)",2014-10-15
Vacant/Abandoned Building,14-01845657,10/27/2014,,,,,,,,826,W,50TH,PL,60609.0,1171651.47432014,1871365.76043363,3.0,9.0,61.0,41.80248635377828,-87.64600595189556,"(41.80248635377828, -87.64600595189557)",2014-10-27
Vacant/Abandoned Building,14-01682524,10/02/2014,Front,,Boarded,,Vacant,False,False,10114,S,EGGLESTON,AVE,60628.0,1175287.97167054,1837791.73029443,9.0,22.0,73.0,41.71027462026392,-87.63367080468329,"(41.71027462026392, -87.63367080468328)",2014-10-02
Vacant/Abandoned Building,14-01816978,10/22/2014,,,,,,,,4828,S,LAFLIN,ST,60609.0,1167150.19097973,1872719.38661838,20.0,9.0,61.0,41.806298445545956,-87.66247533614893,"(41.80629844554595, -87.66247533614894)",2014-10-22
Vacant/Abandoned Building,14-01826883,10/23/2014,Front,,Open,REAR DOOR,Vacant,False,False,4842,W,FERDINAND,ST,60644.0,1143953.0979,1902890.0548,28.0,15.0,25.0,41.88955626126421,-87.74679936556947,"(41.88955626126421, -87.74679936556949)",2014-10-23
Vacant/Abandoned Building,14-01679386,10/02/2014,Front,,Open,DOORS/WINDOWS,Vacant,False,True,4738,W,WEST END,AVE,60644.0,1144768.46620829,1900560.70390459,28.0,11.0,25.0,41.883148916135845,-87.7438637161131,"(41.88314891613584, -87.7438637161131)",2014-10-02
Vacant/Abandoned Building,14-01689081,10/03/2014,Front,,Open,,Vacant,False,False,6005,S,THROOP,ST,60636.0,1168686.23552786,1864948.06673076,16.0,7.0,67.0,41.784940013079144,-87.65706589295311,"(41.78494001307914, -87.65706589295311)",2014-10-03
Vacant/Abandoned Building,14-01691774,10/03/2014,Front,,Open,,Vacant,False,False,430,W,97TH,ST,60628.0,1175044.50047064,1840582.20327591,21.0,22.0,73.0,41.71793749651957,-87.63447949058614,"(41.71793749651957, -87.63447949058614)",2014-10-03
Vacant/Abandoned Building,14-01693577,10/04/2014,Front,,Open,REAR AND FRONT,Vacant,False,False,5759,S,SANGAMON,ST,60621.0,1170959.86520585,1866638.59101307,16.0,7.0,68.0,41.78952963024663,-87.64868044913806,"(41.789529630246626, -87.64868044913804)",2014-10-04
Vacant/Abandoned Building,14-01714452,10/07/2014,Front,,Open,DOORS / WINDOWS,Vacant,False,True,2853,W,ARTHINGTON,ST,60612.0,1157479.92357157,1895910.41898787,28.0,11.0,27.0,41.87013899794143,-87.69731283104267,"(41.87013899794143, -87.69731283104267)",2014-10-07
Vacant/Abandoned Building,14-01730068,10/09/2014,,,,,,,,6421,S,ABERDEEN,ST,60621.0,1170085.55279061,1862226.29761347,16.0,7.0,68.0,41.77744083914916,-87.65201447057926,"(41.77744083914916, -87.65201447057926)",2014-10-09
Vacant/Abandoned Building,14-01730882,10/09/2014,Front,,Open,FRONT AND REAR,Vacant,False,True,5915,S,ADA,ST,60636.0,1168339.31202644,1865534.50786966,16.0,7.0,67.0,41.78655675870006,-87.65832098275459,"(41.78655675870006, -87.65832098275459)",2014-10-09
Vacant/Abandoned Building,14-01785123,10/17/2014,Front,,Open,REAR DOOR AND WINDOWS,Vacant,False,False,10906,S,INDIANA,AVE,60628.0,1179517.13417459,1832670.67142883,9.0,5.0,49.0,41.6961263929789,-87.61833866050252,"(41.6961263929789, -87.61833866050252)",2014-10-17
Vacant/Abandoned Building,14-01815148,10/22/2014,Front,,Boarded,FRONT DOOR 2ND FL HAS BEEN KICKED IN,Vacant,False,False,1327,W,49TH,PL,60609.0,1168316.55803321,1871936.68981549,16.0,9.0,61.0,41.80412557639322,-87.65822006285403,"(41.80412557639322, -87.65822006285401)",2014-10-22
Vacant/Abandoned Building,14-01816752,10/22/2014,,,,,,,,4839,S,ELIZABETH,ST,60609.0,1168808.39451873,1872688.19122718,20.0,9.0,61.0,41.806177163505694,-87.65639453467583,"(41.806177163505694, -87.65639453467583)",2014-10-22
Vacant/Abandoned Building,14-01823047,10/23/2014,Front,,Open,,Vacant,False,True,915,N,WALLER,AVE,60651.0,1138190.57972183,1905533.44469324,29.0,15.0,25.0,41.896916194047435,-87.76789810421768,"(41.89691619404744, -87.76789810421768)",2014-10-23
Vacant/Abandoned Building,14-01829927,10/24/2014,Rear,,Open,REAR WINDOW,Vacant,False,True,7110,S,YALE,AVE,60621.0,1175854.83187162,1857823.44673249,6.0,7.0,69.0,41.76523154890818,-87.63099619247471,"(41.76523154890819, -87.6309961924747)",2014-10-24
Vacant/Abandoned Building,14-01829996,10/24/2014,Rear,,Open,,Vacant,True,False,7106,S,YALE,AVE,60621.0,1175854.23187162,1857850.24673249,6.0,7.0,69.0,41.76530510461483,-87.63099758957382,"(41.765305104614825, -87.63099758957381)",2014-10-24
Vacant/Abandoned Building,14-01856255,10/28/2014,Front,,Open,FRONT DOOR,Vacant,False,True,1445,N,PARKSIDE,AVE,60651.0,1138405.44928668,1909050.78097416,29.0,25.0,25.0,41.90656430231493,-87.76702362871214,"(41.906564302314926, -87.76702362871214)",2014-10-28
Vacant/Abandoned Building,14-01686102,10/03/2014,Front,,Boarded,,Vacant,False,True,6913,S,PERRY,AVE,60621.0,1176591.28323413,1859152.30160755,6.0,7.0,69.0,41.76886154230957,-87.6282569630104,"(41.76886154230957, -87.62825696301041)",2014-10-03
Vacant/Abandoned Building,14-01687272,10/03/2014,Front,,Open,FRONT AND BACK DOOR,Vacant,False,True,301,W,69TH,ST,60621.0,1175369.08619389,1859202.79416918,6.0,7.0,69.0,41.769027506153975,-87.63273540867365,"(41.76902750615398, -87.63273540867365)",2014-10-03
Vacant/Abandoned Building,14-01691057,10/03/2014,Front,,Open,TOP FLOOR WINDOWS,Vacant,False,True,2103,W,68TH,ST,60636.0,1163498.59638057,1859547.20162844,17.0,7.0,67.0,41.770229705891616,-87.6762373568892,"(41.770229705891616, -87.67623735688922)",2014-10-03
Vacant/Abandoned Building,14-01715298,10/07/2014,Front,,Open,"SIDE WINDOW, AND BACK OF PROPERTY",Vacant,False,True,7031,S,DAMEN,AVE,60636.0,1164242.89282177,1857908.65010723,17.0,7.0,67.0,41.765717658864105,-87.67355513547318,"(41.76571765886411, -87.67355513547317)",2014-10-07
Vacant/Abandoned Building,14-01759761,10/14/2014,Front,,Open,FRONT DOOR,Vacant,False,False,7152,S,UNION,AVE,60621.0,1172986.34967698,1857458.26120056,6.0,7.0,68.0,41.76429322730318,-87.64152077919857,"(41.76429322730318, -87.64152077919857)",2014-10-14
Vacant/Abandoned Building,14-01763667,10/15/2014,Front,,Open,,Vacant,False,False,2017,W,68TH,PL,60636.0,1164093.96597242,1859231.49990573,17.0,7.0,67.0,41.76935087441801,-87.6740638390542,"(41.76935087441801, -87.67406383905421)",2014-10-15
Vacant/Abandoned Building,14-01808888,10/21/2014,,,,,,,,2915,W,WILCOX,ST,60612.0,1156977.28193432,1899215.74282363,2.0,11.0,27.0,41.87921934188051,-87.69906851856508,"(41.87921934188051, -87.69906851856508)",2014-10-21
Vacant/Abandoned Building,14-01816693,10/22/2014,,,,,,,,1236,N,CENTRAL,AVE,60651.0,1138776.91049501,1907800.36000202,29.0,25.0,25.0,41.90312626071627,-87.76568947850004,"(41.90312626071627, -87.76568947850004)",2014-10-22
Vacant/Abandoned Building,14-01821474,10/23/2014,Front,,Open,FRONT DOOR,Vacant,False,True,9008,S,WOODLAWN,AVE,60619.0,1185784.0000108,1845495.44000935,8.0,4.0,47.0,41.731174016530964,-87.59499090727994,"(41.731174016530964, -87.59499090727992)",2014-10-23
Vacant/Abandoned Building,14-01838692,10/25/2014,Front,,Open,FRONT AND REAR DOORS TO BOTH PROPERTIES,Vacant,True,False,4201,W,HARRISON,ST,60624.0,1148472.08877438,1897028.50111108,24.0,11.0,26.0,41.873385533648296,-87.73035480101156,"(41.873385533648296, -87.73035480101156)",2014-10-25
Vacant/Abandoned Building,14-01706476,10/06/2014,Front,,Open,,Vacant,False,True,2916,W,MADISON,ST,60612.0,1156956.08551774,1899881.85378871,2.0,12.0,27.0,41.88104764504953,-87.69912827442222,"(41.88104764504953, -87.69912827442224)",2014-10-06
Vacant/Abandoned Building,14-01713833,10/07/2014,Front,,Open,,Vacant,False,False,4438,W,GLADYS,AVE,60624.0,1146857.69478981,1897986.27572022,24.0,11.0,26.0,41.87604474905911,-87.73625763967812,"(41.87604474905911, -87.73625763967813)",2014-10-07
Vacant/Abandoned Building,14-01717126,10/07/2014,Rear,,Open,,Vacant,False,True,7108,S,UNION,AVE,60621.0,1172978.67990423,1857752.87258748,6.0,7.0,68.0,41.76510184578364,-87.64154020617815,"(41.76510184578364, -87.64154020617816)",2014-10-07
