,Creation Date,Status,Completion Date,Service Request Number,Type of Service Request,Street Address,ZIP Code,X Coordinate,Y Coordinate,Ward,Police District,Community Area,Latitude,Longitude,Location,date
89222,06/01/2014,Completed - Dup,06/01/2014,14-00820292,Alley Light Out,11655 S LOOMIS ST,60643.0,1169092.94490702,1827459.387228,34.0,5.0,53.0,41.68205688960901,-87.65665535943417,"(41.68205688960901, -87.65665535943417)",2014-06-01
89252,06/02/2014,Completed - Dup,06/02/2014,14-00823369,Alley Light Out,8828 S BENNETT AVE,60617.0,1190385.45158994,1846814.0809255,8.0,4.0,48.0,41.734682943521264,-87.57809198050501,"(41.734682943521264, -87.57809198050502)",2014-06-02
89253,06/02/2014,Completed - Dup,06/02/2014,14-00823996,Alley Light Out,309 E 90TH PL,60619.0,1179715.93350178,1845036.45961615,6.0,6.0,44.0,41.73005520754985,-87.61723423977413,"(41.73005520754985, -87.61723423977412)",2014-06-02
89254,06/02/2014,Completed - Dup,06/02/2014,14-00825799,Alley Light Out,8247 S WASHTENAW AVE,60652.0,1159808.0075883998,1849836.00480353,18.0,8.0,70.0,41.743657288717095,-87.69003180612043,"(41.74365728871709, -87.69003180612043)",2014-06-02
89255,06/02/2014,Completed - Dup,06/02/2014,14-00825919,Alley Light Out,2024 E 75TH ST,60649.0,1191100.27920001,1855641.02738582,5.0,3.0,43.0,41.75888762822727,-87.57518828181509,"(41.758887628227264, -87.57518828181509)",2014-06-02
89256,06/02/2014,Completed - Dup,06/02/2014,14-00826189,Alley Light Out,4512 S LAWLER AVE,60638.0,1143450.12950865,1874249.78197854,23.0,8.0,56.0,41.81097284458632,-87.74936176495018,"(41.810972844586324, -87.74936176495018)",2014-06-02
89257,06/02/2014,Completed - Dup,06/02/2014,14-00827528,Alley Light Out,4113 W OAKDALE AVE,60641.0,1148450.41742707,1919296.79022695,31.0,25.0,21.0,41.93449240848687,-87.72985921035735,"(41.93449240848687, -87.72985921035735)",2014-06-02
89258,06/02/2014,Completed - Dup,06/02/2014,14-00827896,Alley Light Out,9138 S HALSTED ST,60620.0,1172580.86677384,1844253.27416632,21.0,22.0,73.0,41.72806595855521,-87.64339504502044,"(41.72806595855521, -87.64339504502044)",2014-06-02
89259,06/02/2014,Completed,06/02/2014,14-00823750,Alley Light Out,2703 W HARRISON ST,60612.0,1158439.94687397,1897257.39290941,2.0,11.0,27.0,41.87381565359864,-87.69375143179974,"(41.87381565359864, -87.69375143179974)",2014-06-02
89260,06/02/2014,Completed,06/02/2014,14-00823943,Alley Light Out,10901 S AVENUE G,60617.0,1203185.98621376,1833289.65720433,10.0,4.0,52.0,41.697253103503186,-87.53165887631039,"(41.69725310350319, -87.53165887631039)",2014-06-02
89261,06/02/2014,Completed,06/02/2014,14-00824142,Alley Light Out,5846 W FOSTER AVE,60630.0,1136118.28208491,1934220.1209119998,45.0,16.0,11.0,41.975672768335315,-87.77482304223068,"(41.97567276833531, -87.77482304223068)",2014-06-02
89262,06/02/2014,Completed,06/02/2014,14-00824436,Alley Light Out,5712 N PARKSIDE AVE,60646.0,1137542.26349606,1937680.56362367,45.0,16.0,11.0,41.985142920504934,-87.76950269197512,"(41.98514292050494, -87.76950269197512)",2014-06-02
89263,06/02/2014,Completed,06/02/2014,14-00827187,Alley Light Out,2949 S ARCH ST,60608.0,1168138.20238101,1884944.00159767,11.0,9.0,60.0,41.83982282304825,-87.65849950463385,"(41.83982282304825, -87.65849950463384)",2014-06-02
89264,06/02/2014,Completed,06/02/2014,14-00828107,Alley Light Out,7804 W HIGGINS AVE,60631.0,1123369.23999746,1937278.61020812,41.0,16.0,10.0,41.98428411025505,-87.82163979926166,"(41.98428411025505, -87.82163979926166)",2014-06-02
89300,06/01/2014,Completed - Dup,06/03/2014,14-00820403,Alley Light Out,9134 S GREENWOOD AVE,60619.0,1185142.79651513,1844637.0525746003,8.0,4.0,47.0,41.72883357583183,-87.59736672839865,"(41.72883357583183, -87.59736672839864)",2014-06-01
89301,06/02/2014,Completed - Dup,06/03/2014,14-00828271,Alley Light Out,3858 W 62ND ST,60629.0,1151713.10560103,1863214.2022836003,13.0,8.0,65.0,41.78053149972664,-87.71934259101032,"(41.780531499726635, -87.71934259101033)",2014-06-02
89302,06/02/2014,Completed - Dup,06/03/2014,14-00828325,Alley Light Out,8045 S AVALON AVE,60619.0,1185942.52618908,1851899.47916907,8.0,4.0,45.0,41.74874363459264,-87.59420868248037,"(41.748743634592635, -87.59420868248037)",2014-06-02
89303,06/02/2014,Completed,06/03/2014,14-00824872,Alley Light Out,2204 N LEAVITT ST,60647.0,1161333.07518004,1914637.19988908,32.0,14.0,22.0,41.921447590506595,-87.68264528618015,"(41.92144759050659, -87.68264528618016)",2014-06-02
89304,06/02/2014,Completed,06/03/2014,14-00827797,Alley Light Out,5351 S EMERALD AVE,60609.0,1172211.52997968,1869382.07941038,3.0,9.0,61.0,41.79703061620509,-87.64401033468813,"(41.797030616205085, -87.64401033468813)",2014-06-02
89305,06/02/2014,Completed,06/03/2014,14-00828367,Alley Light Out,4445 S PRINCETON AVE,60609.0,1175032.2896959,1875379.52732258,3.0,9.0,37.0,41.81342565694437,-87.63348724198707,"(41.81342565694437, -87.63348724198708)",2014-06-02
89306,06/02/2014,Completed,06/03/2014,14-00828633,Alley Light Out,2710 N SACRAMENTO AVE,60647.0,1155911.74650552,1917866.00557358,35.0,14.0,22.0,41.93041883522646,-87.7024773785305,"(41.93041883522646, -87.7024773785305)",2014-06-02
89307,06/03/2014,Completed - Dup,06/03/2014,14-00829147,Alley Light Out,13148 S AVENUE O,60633.0,1201076.10597042,1818196.91997695,10.0,4.0,55.0,41.65589076083578,-87.53989273789098,"(41.65589076083578, -87.53989273789098)",2014-06-03
89308,06/03/2014,Completed - Dup,06/03/2014,14-00829270,Alley Light Out,8243 S KIMBARK AVE,60619.0,1186309.38459456,1850590.99899471,8.0,4.0,45.0,41.74514437846883,-87.5929056559098,"(41.74514437846883, -87.59290565590982)",2014-06-03
89309,06/03/2014,Completed - Dup,06/03/2014,14-00829273,Alley Light Out,8241 S KIMBARK AVE,60619.0,1186309.08459456,1850604.39899471,8.0,4.0,45.0,41.7451811565046,-87.59290633265621,"(41.7451811565046, -87.59290633265621)",2014-06-03
89310,06/03/2014,Completed - Dup,06/03/2014,14-00832759,Alley Light Out,7750 S EUCLID AVE,60649.0,1190539.4542786002,1854302.16919321,8.0,4.0,43.0,41.75522723152853,-87.57728675994976,"(41.755227231528536, -87.57728675994976)",2014-06-03
89311,06/03/2014,Completed - Dup,06/03/2014,14-00832940,Alley Light Out,7546 S MARSHFIELD AVE,60620.0,1166653.92002059,1854621.11161043,17.0,6.0,71.0,41.756645117788736,-87.6648115465463,"(41.756645117788736, -87.66481154654632)",2014-06-03
89312,06/03/2014,Completed - Dup,06/03/2014,14-00834177,Alley Light Out,10949 S EGGLESTON AVE,60628.0,1175235.51801214,1832297.36520961,34.0,22.0,49.0,41.695198449834784,-87.634026285598,"(41.695198449834784, -87.634026285598)",2014-06-03
89313,06/03/2014,Completed - Dup,06/03/2014,14-00835351,Alley Light Out,9123 S CONSTANCE AVE,60617.0,1190106.96570982,1844846.0805058,8.0,4.0,48.0,41.72928925771685,-87.57917538786134,"(41.72928925771685, -87.57917538786134)",2014-06-03
89314,06/03/2014,Completed - Dup,06/03/2014,14-00835916,Alley Light Out,135 N LARAMIE AVE,60644.0,1141689.07382762,1900582.36010628,28.0,15.0,25.0,41.88326582944345,-87.75517102686064,"(41.88326582944345, -87.75517102686064)",2014-06-03
89315,06/03/2014,Completed,06/03/2014,14-00831199,Alley Light Out,11557 S HALE AVE,60643.0,1164766.76910672,1827972.07652337,19.0,22.0,75.0,41.683555951611005,-87.67247731670645,"(41.68355595161101, -87.67247731670646)",2014-06-03
89316,06/03/2014,Completed,06/03/2014,14-00831705,Alley Light Out,2143 W GRANVILLE AVE,60659.0,1160805.81011891,1941143.75631406,40.0,24.0,2.0,41.994193924007845,-87.68384443882057,"(41.99419392400784, -87.68384443882057)",2014-06-03
89317,06/03/2014,Completed,06/03/2014,14-00835051,Alley Light Out,8314 S BURLEY AVE,60617.0,1199256.39503056,1850462.80381815,10.0,4.0,46.0,41.7444770999216,-87.54547104231419,"(41.7444770999216, -87.54547104231418)",2014-06-03
89318,06/03/2014,Completed,06/03/2014,14-00835061,Alley Light Out,8300 S BURLEY AVE,60617.0,1199254.09503056,1850556.50381815,10.0,4.0,46.0,41.74473427714267,-87.54547632616921,"(41.74473427714267, -87.5454763261692)",2014-06-03
89319,06/03/2014,Completed,06/03/2014,14-00835757,Alley Light Out,11743 S WALLACE ST,60628.0,1174420.15996743,1826933.56998845,34.0,5.0,53.0,41.68049749166954,-87.63717026811148,"(41.68049749166954, -87.63717026811149)",2014-06-03
89320,06/03/2014,Completed,06/03/2014,14-00837025,Alley Light Out,4139 W HOLLYWOOD AVE,60646.0,1147683.77927481,1937428.72370295,39.0,17.0,13.0,41.984262596123315,-87.73220918476494,"(41.98426259612331, -87.73220918476493)",2014-06-03
89321,06/03/2014,Completed,06/03/2014,14-00837075,Alley Light Out,2943 W 86TH PL,60652.0,1158072.26649505,1847113.14990962,18.0,8.0,70.0,41.73622076274743,-87.69646557711309,"(41.73622076274743, -87.6964655771131)",2014-06-03
89353,06/02/2014,Completed,06/04/2014,14-00823737,Alley Light Out,2850 S THROOP ST,60608.0,1169319.26577119,1886291.01802346,11.0,9.0,60.0,41.8434936131048,-87.65412643570117,"(41.8434936131048, -87.65412643570117)",2014-06-02
89354,06/02/2014,Completed,06/04/2014,14-00825354,Alley Light Out,6333 S WINCHESTER AVE,60636.0,1164444.6958865,1862654.07040974,15.0,7.0,67.0,41.778735481641405,-87.67268184607053,"(41.778735481641405, -87.67268184607055)",2014-06-02
89355,06/02/2014,Completed,06/04/2014,14-00828612,Alley Light Out,2739 S HILLOCK AVE,60608.0,1168076.45906785,1886533.92898727,11.0,9.0,60.0,41.844187063401094,-87.65868024575197,"(41.84418706340109, -87.65868024575197)",2014-06-02
89356,06/03/2014,Completed - Dup,06/04/2014,14-00830170,Alley Light Out,2712 S BONFIELD ST,60608.0,1168197.15906785,1886462.72898727,11.0,9.0,60.0,41.84398908134649,-87.65823935375576,"(41.843989081346486, -87.65823935375577)",2014-06-03
89357,06/03/2014,Completed - Dup,06/04/2014,14-00835974,Alley Light Out,13155 S GREEN BAY AVE,60633.0,1200747.09979837,1818347.08260104,10.0,4.0,55.0,41.65631112773335,-87.5410915227619,"(41.65631112773335, -87.54109152276189)",2014-06-03
89358,06/03/2014,Completed - Dup,06/04/2014,14-00836844,Alley Light Out,9544 S DOBSON AVE,60628.0,1184885.27003254,1841897.87996716,8.0,5.0,50.0,41.721323012639424,-87.59839576396195,"(41.72132301263942, -87.59839576396195)",2014-06-03
89359,06/03/2014,Completed - Dup,06/04/2014,14-00836942,Alley Light Out,5434 S KILBOURN AVE,60632.0,1147286.783271,1868151.93008674,23.0,8.0,62.0,41.79416700066994,-87.73544461677574,"(41.79416700066994, -87.73544461677575)",2014-06-03
89360,06/03/2014,Completed,06/04/2014,14-00831752,Alley Light Out,1023 W NEWPORT AVE,60657.0,1168842.34628935,1923081.94551361,44.0,19.0,6.0,41.94446070685427,-87.65480889448455,"(41.94446070685427, -87.65480889448453)",2014-06-03
89361,06/03/2014,Completed,06/04/2014,14-00836118,Alley Light Out,3416 W PARKER AVE,60647.0,1153136.27997805,1918079.59999049,35.0,14.0,22.0,41.93106054036484,-87.71267093778253,"(41.93106054036484, -87.71267093778253)",2014-06-03
89362,06/03/2014,Completed,06/04/2014,14-00836997,Alley Light Out,3108 S WENTWORTH AVE,60616.0,1175458.00363432,1884321.90287296,11.0,9.0,34.0,41.837954778223065,-87.63165781715824,"(41.837954778223065, -87.63165781715824)",2014-06-03
89363,06/04/2014,Completed - Dup,06/04/2014,14-00837438,Alley Light Out,5242 S KEATING AVE,60632.0,1145580.70040935,1869418.14377806,23.0,8.0,56.0,41.79767408351565,-87.74166888524547,"(41.797674083515645, -87.74166888524547)",2014-06-04
89364,06/04/2014,Completed - Dup,06/04/2014,14-00837447,Alley Light Out,5119 S KILPATRICK AVE,60632.0,1145894.1556336,1870206.78432876,23.0,8.0,56.0,41.799832311308435,-87.7404994325498,"(41.79983231130844, -87.7404994325498)",2014-06-04
89365,06/04/2014,Completed - Dup,06/04/2014,14-00842298,Alley Light Out,8411 S COLFAX AVE,60617.0,1194962.67071215,1849705.6843869998,7.0,4.0,46.0,41.742506304007186,-87.56122832371555,"(41.742506304007186, -87.56122832371554)",2014-06-04
89366,06/04/2014,Completed - Dup,06/04/2014,14-00843579,Alley Light Out,7726 S HERMITAGE AVE,60620.0,1166022.39191305,1853459.05439414,17.0,6.0,71.0,41.753469713731256,-87.66715896213788,"(41.753469713731256, -87.66715896213788)",2014-06-04
89367,06/04/2014,Completed - Dup,06/04/2014,14-00844206,Alley Light Out,3805 W 69TH ST,60629.0,1152191.77287126,1858580.17890279,13.0,8.0,65.0,41.76780561570917,-87.71770930682783,"(41.76780561570917, -87.71770930682783)",2014-06-04
89368,06/04/2014,Completed - Dup,06/04/2014,14-00844606,Alley Light Out,10347 S AVENUE F,60617.0,1203489.320094,1836975.25980143,10.0,4.0,52.0,41.70735894285456,-87.53042245889506,"(41.70735894285456, -87.53042245889505)",2014-06-04
89369,06/04/2014,Completed,06/04/2014,14-00838747,Alley Light Out,3000 S KOLIN AVE,60623.0,1147865.69777471,1884356.60762961,22.0,10.0,30.0,41.83862392521046,-87.73290652473673,"(41.83862392521047, -87.73290652473673)",2014-06-04
89370,06/04/2014,Completed,06/04/2014,14-00839661,Alley Light Out,3102 S WENTWORTH AVE,60616.0,1175453.40363432,1884398.80287296,11.0,9.0,34.0,41.83816590107517,-87.6316723914151,"(41.83816590107517, -87.6316723914151)",2014-06-04
89371,06/04/2014,Completed,06/04/2014,14-00840564,Alley Light Out,2024 E 75TH ST,60649.0,1191100.27920001,1855641.02738582,5.0,3.0,43.0,41.75888762822727,-87.57518828181509,"(41.758887628227264, -87.57518828181509)",2014-06-04
89372,06/04/2014,Completed,06/04/2014,14-00842714,Alley Light Out,2920 N SAYRE AVE,60634.0,1129080.46450026,1918705.05011361,36.0,25.0,18.0,41.93322067970712,-87.80105855768541,"(41.93322067970712, -87.80105855768542)",2014-06-04
89373,06/04/2014,Completed,06/04/2014,14-00844629,Alley Light Out,8246 S ELIZABETH ST,60620.0,1169426.17897991,1850097.35701593,21.0,6.0,71.0,41.74417175857344,-87.65478247252472,"(41.744171758573444, -87.65478247252472)",2014-06-04
89374,06/04/2014,Completed,06/04/2014,14-00844639,Alley Light Out,5110 S MAYFIELD AVE,60638.0,1137895.42991164,1870122.95286928,23.0,8.0,56.0,41.799749900968315,-87.7698355668993,"(41.79974990096831, -87.76983556689929)",2014-06-04
89375,06/04/2014,Completed,06/04/2014,14-00844694,Alley Light Out,5342 S NEVA AVE,60638.0,1129585.88026962,1868342.63968221,23.0,8.0,56.0,41.79500983081261,-87.80035018411031,"(41.79500983081261, -87.80035018411031)",2014-06-04
89410,06/01/2014,Completed,06/05/2014,14-00820187,Alley Light Out,2445 W LUNT AVE,60645.0,1158751.96157611,1946385.44052837,50.0,24.0,2.0,42.00861978569747,-87.69125479845123,"(42.00861978569747, -87.69125479845123)",2014-06-01
89411,06/02/2014,Completed - Dup,06/05/2014,14-00828152,Alley Light Out,1537 W ADAMS ST,60607.0,1166188.23500468,1899177.23151907,2.0,12.0,28.0,41.87892189056448,-87.66524861681921,"(41.87892189056448, -87.6652486168192)",2014-06-02
89412,06/03/2014,Completed - Dup,06/05/2014,14-00834271,Alley Light Out,5119 W CRYSTAL ST,60651.0,1142009.21368532,1907840.38338768,37.0,25.0,25.0,41.90317678398884,-87.7538154247957,"(41.90317678398884, -87.7538154247957)",2014-06-03
89413,06/03/2014,Completed,06/05/2014,14-00835835,Alley Light Out,11342 S RACINE AVE,60643.0,1170361.03872475,1829445.73241657,34.0,22.0,75.0,41.68748032350739,-87.65195589426219,"(41.687480323507394, -87.65195589426217)",2014-06-03
89414,06/04/2014,Completed - Dup,06/05/2014,14-00845298,Alley Light Out,433 E 91ST ST,60619.0,1180729.28557255,1844737.34620807,6.0,6.0,44.0,41.72921120947292,-87.61353121907621,"(41.729211209472915, -87.61353121907622)",2014-06-04
89415,06/04/2014,Completed - Dup,06/05/2014,14-00845322,Alley Light Out,833 S MILLER ST,60607.0,1169745.519275,1896407.739,25.0,12.0,28.0,41.871245469584615,-87.65226769460425,"(41.871245469584615, -87.65226769460425)",2014-06-04
89416,06/04/2014,Completed - Dup,06/05/2014,14-00845465,Alley Light Out,9348 S LAFLIN ST,60620.0,1167974.74217632,1842737.62189925,21.0,22.0,73.0,41.72400685489366,-87.66031156619304,"(41.72400685489366, -87.66031156619304)",2014-06-04
89417,06/05/2014,Completed - Dup,06/05/2014,14-00846156,Alley Light Out,8243 S KIMBARK AVE,60619.0,1186309.38459456,1850590.99899471,8.0,4.0,45.0,41.74514437846883,-87.5929056559098,"(41.74514437846883, -87.59290565590982)",2014-06-05
89418,06/05/2014,Completed - Dup,06/05/2014,14-00846920,Alley Light Out,8136 S INGLESIDE AVE,60619.0,1183978.53743108,1851247.71977971,8.0,6.0,44.0,41.74700120926733,-87.60142568366136,"(41.747001209267324, -87.60142568366136)",2014-06-05
89419,06/05/2014,Completed - Dup,06/05/2014,14-00849202,Alley Light Out,7431 S INDIANA AVE,60619.0,1178884.65282285,1855786.26377243,6.0,3.0,69.0,41.759572872366775,-87.61995297895673,"(41.759572872366775, -87.61995297895673)",2014-06-05
89420,06/05/2014,Completed - Dup,06/05/2014,14-00851113,Alley Light Out,4538 S ROCKWELL ST,60632.0,1159797.37020917,1874361.50998049,12.0,9.0,58.0,41.810958966528666,-87.68939787964331,"(41.810958966528666, -87.68939787964332)",2014-06-05
89421,06/05/2014,Completed,06/05/2014,14-00847598,Alley Light Out,3218 S THROOP ST,60608.0,1168184.99181795,1883383.07688876,11.0,9.0,60.0,41.835538487893174,-87.6583728183671,"(41.835538487893174, -87.6583728183671)",2014-06-05
89422,06/05/2014,Completed,06/05/2014,14-00847660,Alley Light Out,3230 S THROOP ST,60608.0,1168188.59181795,1883254.87688876,11.0,9.0,60.0,41.835186617100284,-87.65836330520922,"(41.83518661710028, -87.65836330520922)",2014-06-05
89423,06/05/2014,Completed,06/05/2014,14-00847919,Alley Light Out,5148 S EMERALD AVE,60609.0,1172177.98993204,1870727.24311155,3.0,9.0,61.0,41.800722625721825,-87.64409377664025,"(41.80072262572182, -87.64409377664023)",2014-06-05
89424,06/05/2014,Completed,06/05/2014,14-00848392,Alley Light Out,10636 S WESTERN AVE,60643.0,1162276.42937391,1834033.54549701,19.0,22.0,72.0,41.70024176150393,-87.68142573039431,"(41.70024176150393, -87.6814257303943)",2014-06-05
89425,06/05/2014,Completed,06/05/2014,14-00848402,Alley Light Out,10620 S WESTERN AVE,60643.0,1162273.02937391,1834141.14549701,19.0,22.0,72.0,41.70053710524693,-87.6814351977281,"(41.70053710524693, -87.68143519772809)",2014-06-05
89426,06/05/2014,Completed,06/05/2014,14-00850968,Alley Light Out,13149 S GREEN BAY AVE,60633.0,1200746.74717084,1818386.86082845,10.0,4.0,55.0,41.65642029246586,-87.54109147528662,"(41.65642029246586, -87.54109147528663)",2014-06-05
89427,06/05/2014,Completed,06/05/2014,14-00851111,Alley Light Out,4538 S ROCKWELL ST,60632.0,1159797.37020917,1874361.50998049,12.0,9.0,58.0,41.810958966528666,-87.68939787964331,"(41.810958966528666, -87.68939787964332)",2014-06-05
89462,06/01/2014,Completed,06/06/2014,14-00820581,Alley Light Out,12300 S UNION AVE,60628.0,1173877.84843439,1823308.97056615,34.0,5.0,53.0,41.67056301091966,-87.63926226001792,"(41.67056301091966, -87.6392622600179)",2014-06-01
89463,06/02/2014,Completed - Dup,06/06/2014,14-00826657,Alley Light Out,9134 S MARQUETTE AVE,60617.0,1195847.1201255,1844871.21549607,7.0,4.0,48.0,41.729218296957896,-87.55814730551909,"(41.729218296957896, -87.5581473055191)",2014-06-02
89464,06/04/2014,Completed - Dup,06/06/2014,14-00844660,Alley Light Out,9134 S MARQUETTE AVE,60617.0,1195847.1201255,1844871.21549607,7.0,4.0,48.0,41.729218296957896,-87.55814730551909,"(41.729218296957896, -87.5581473055191)",2014-06-04
89465,06/04/2014,Completed,06/06/2014,14-00845418,Alley Light Out,3248 N SACRAMENTO AVE,60618.0,1155811.7114871999,1921425.62711961,33.0,17.0,21.0,41.94018871521014,-87.70274877097201,"(41.94018871521014, -87.702748770972)",2014-06-04
89466,06/04/2014,Completed,06/06/2014,14-00845505,Alley Light Out,11748 S STATE ST,60628.0,1178363.56468701,1826951.92901351,34.0,5.0,53.0,41.68045952796921,-87.62273500184229,"(41.680459527969205, -87.6227350018423)",2014-06-04
89467,06/04/2014,Completed,06/06/2014,14-00845575,Alley Light Out,5345 N VIRGINIA AVE,60625.0,1155440.72379924,1935467.01023255,40.0,20.0,4.0,41.97872661946652,-87.70373310477379,"(41.97872661946652, -87.7037331047738)",2014-06-04
89468,06/05/2014,Completed - Dup,06/06/2014,14-00845783,Alley Light Out,1256 E 96TH PL,60628.0,1186347.66167321,1841233.1799803001,8.0,5.0,50.0,41.719464617296296,-87.59306031046428,"(41.719464617296296, -87.59306031046428)",2014-06-05
89469,06/05/2014,Completed - Dup,06/06/2014,14-00848348,Alley Light Out,432 E 91ST PL,60619.0,1180733.0696699,1844404.26998309,6.0,6.0,44.0,41.7282971210488,-87.61352756035065,"(41.728297121048804, -87.61352756035066)",2014-06-05
89470,06/05/2014,Completed - Dup,06/06/2014,14-00850932,Alley Light Out,7731 S WOOD ST,60620.0,1165692.08098417,1853418.16910505,17.0,6.0,71.0,41.75336453078629,-87.66837059211245,"(41.7533645307863, -87.66837059211244)",2014-06-05
89471,06/05/2014,Completed - Dup,06/06/2014,14-00853025,Alley Light Out,9306 S FOREST AVE,60619.0,1179888.19917286,1843339.13358141,6.0,6.0,49.0,41.72539360034708,-87.61665495218504,"(41.725393600347076, -87.61665495218503)",2014-06-05
89472,06/05/2014,Completed,06/06/2014,14-00848245,Alley Light Out,6640 S WOODLAWN AVE,60637.0,1185357.01909209,1861215.11179772,5.0,3.0,42.0,41.77432039822721,-87.59606159693934,"(41.77432039822721, -87.59606159693934)",2014-06-05
89473,06/06/2014,Completed - Dup,06/06/2014,14-00853408,Alley Light Out,4931 S KNOX AVE,60632.0,1146191.70130117,1871526.40322241,23.0,8.0,56.0,41.803447914539596,-87.73937479168936,"(41.803447914539596, -87.73937479168936)",2014-06-06
89474,06/06/2014,Completed - Dup,06/06/2014,14-00853699,Alley Light Out,5109 S MOBILE AVE,60638.0,1135236.7098783,1870031.96202184,23.0,8.0,56.0,41.79954762079869,-87.7795881838572,"(41.799547620798684, -87.77958818385719)",2014-06-06
89475,06/06/2014,Completed - Dup,06/06/2014,14-00859188,Alley Light Out,9431 S EBERHART AVE,60619.0,1181231.93477631,1842546.13293365,9.0,6.0,49.0,41.723186704645435,-87.61175718968187,"(41.72318670464544, -87.61175718968187)",2014-06-06
89476,06/06/2014,Completed,06/06/2014,14-00857859,Alley Light Out,8343 S SAGINAW AVE,60617.0,1195284.28898016,1850162.80963322,7.0,4.0,46.0,41.74375276803136,-87.56003488438526,"(41.74375276803136, -87.56003488438527)",2014-06-06
89477,06/06/2014,Completed - Dup,06/07/2014,14-00860169,Alley Light Out,9134 S MARQUETTE AVE,60617.0,1195847.1201255,1844871.21549607,7.0,4.0,48.0,41.729218296957896,-87.55814730551909,"(41.729218296957896, -87.5581473055191)",2014-06-06
89478,06/06/2014,Completed,06/07/2014,14-00855696,Alley Light Out,339 W 24TH PL,60616.0,1174392.84978014,1888047.50251502,25.0,9.0,34.0,41.84820193122781,-87.6354552428223,"(41.84820193122781, -87.63545524282229)",2014-06-06
89479,06/07/2014,Completed,06/07/2014,14-00862764,Alley Light Out,513 E 89TH ST,60619.0,1181221.63800848,1846083.02357338,6.0,6.0,44.0,41.732892596079246,-87.61168629294707,"(41.73289259607925, -87.61168629294707)",2014-06-07
89480,06/08/2014,Completed - Dup,06/08/2014,14-00863062,Alley Light Out,6551 S BISHOP ST,60636.0,1167792.56797324,1861298.87641895,17.0,7.0,67.0,41.774945423065795,-87.66044715763046,"(41.7749454230658, -87.66044715763046)",2014-06-08
89509,06/01/2014,Completed - Dup,06/09/2014,14-00819645,Alley Light Out,8134 S INGLESIDE AVE,60619.0,1183978.13743108,1851261.21977971,8.0,6.0,44.0,41.747038264024994,-87.60142672858139,"(41.747038264024994, -87.60142672858139)",2014-06-01
89510,06/01/2014,Completed,06/09/2014,14-00818909,Alley Light Out,2829 W FARRAGUT AVE,60625.0,1156551.93147613,1934746.91172678,40.0,20.0,4.0,41.97672814790171,-87.69966616829416,"(41.97672814790171, -87.69966616829417)",2014-06-01
89511,06/01/2014,Completed,06/09/2014,14-00820247,Alley Light Out,5150 N MULLIGAN AVE,60630.0,1132893.07917738,1933532.94950337,45.0,16.0,11.0,41.97384419295349,-87.78669963534767,"(41.973844192953486, -87.78669963534767)",2014-06-01
89512,06/01/2014,Completed,06/09/2014,14-00820543,Alley Light Out,2751 N CAMPBELL AVE,60647.0,1159221.15351234,1918201.61960971,1.0,14.0,22.0,41.93127232074072,-87.69030680943575,"(41.93127232074072, -87.69030680943575)",2014-06-01
89513,06/02/2014,Completed,06/09/2014,14-00823987,Alley Light Out,6077 N WHIPPLE ST,60659.0,1154913.51981533,1940460.01328682,50.0,24.0,2.0,41.9924382873293,-87.70553733397995,"(41.9924382873293, -87.70553733397995)",2014-06-02
89514,06/03/2014,Completed,06/09/2014,14-00833717,Alley Light Out,6311 N RICHMOND ST,60659.0,1155532.72222468,1941731.58022264,50.0,24.0,2.0,41.99591504525486,-87.70322527738111,"(41.99591504525486, -87.70322527738111)",2014-06-03
89515,06/03/2014,Completed,06/09/2014,14-00834779,Alley Light Out,4832 N SEELEY AVE,60625.0,1161803.79029922,1932088.84532619,47.0,20.0,4.0,41.96932607095054,-87.6804273313469,"(41.96932607095054, -87.68042733134692)",2014-06-03
89516,06/04/2014,Completed,06/09/2014,14-00844708,Alley Light Out,1450 W WINNEMAC AVE,60640.0,1166075.66997233,1933611.56999967,46.0,20.0,3.0,41.973414073513474,-87.66467597129818,"(41.97341407351348, -87.66467597129817)",2014-06-04
89517,06/04/2014,Completed,06/09/2014,14-00845445,Alley Light Out,5500 S KOLMAR AVE,60629.0,1146963.68998775,1867755.4400313,13.0,8.0,62.0,41.79308512940556,-87.7366394944123,"(41.79308512940556, -87.73663949441232)",2014-06-04
89518,06/04/2014,Completed,06/09/2014,14-00845446,Alley Light Out,5600 S KOLMAR AVE,60629.0,1146982.91367233,1867093.05882296,13.0,8.0,62.0,41.79126708399488,-87.73658586192461,"(41.79126708399488, -87.73658586192461)",2014-06-04
89519,06/05/2014,Completed - Dup,06/09/2014,14-00848060,Alley Light Out,5309 S MEADE AVE,60638.0,1136603.81568717,1868757.04272572,23.0,8.0,56.0,41.796024742776716,-87.77460492939659,"(41.79602474277672, -87.77460492939659)",2014-06-05
89520,06/05/2014,Completed,06/09/2014,14-00851682,Alley Light Out,1459 W VICTORIA ST,60660.0,1165472.96997308,1938625.20002552,48.0,20.0,77.0,41.98718452051481,-87.66674876088629,"(41.98718452051481, -87.66674876088628)",2014-06-05
89521,06/05/2014,Completed,06/09/2014,14-00853338,Alley Light Out,6205 S MOODY AVE,60638.0,1136474.38588778,1862747.11132616,23.0,8.0,64.0,41.77953471913175,-87.77522262930195,"(41.77953471913176, -87.77522262930196)",2014-06-05
89522,06/06/2014,Completed - Dup,06/09/2014,14-00858692,Alley Light Out,6245 S MCVICKER AVE,60638.0,1137149.15900081,1862498.82052684,23.0,8.0,64.0,41.778841319263066,-87.77275471028936,"(41.778841319263066, -87.77275471028936)",2014-06-06
89523,06/06/2014,Completed - Dup,06/09/2014,14-00858717,Alley Light Out,6226 W 60TH ST,60638.0,1135814.43997025,1864097.17933336,23.0,8.0,64.0,41.783251282296796,-87.77761013646204,"(41.7832512822968, -87.77761013646203)",2014-06-06
89524,06/06/2014,Completed - Dup,06/09/2014,14-00858753,Alley Light Out,6226 W 60TH ST,60638.0,1135814.43997025,1864097.17933336,23.0,8.0,64.0,41.783251282296796,-87.77761013646204,"(41.7832512822968, -87.77761013646203)",2014-06-06
89525,06/06/2014,Completed - Dup,06/09/2014,14-00858769,Alley Light Out,6016 W 63RD ST,60638.0,1137317.08010105,1862138.76836703,23.0,8.0,64.0,41.777850264783524,-87.77214769888708,"(41.777850264783524, -87.77214769888708)",2014-06-06
89526,06/06/2014,Completed - Dup,06/09/2014,14-00859591,Alley Light Out,935 E 42ND PL,60653.0,1183228.5277105,1877109.38992622,4.0,2.0,36.0,41.81798542530901,-87.60336941046481,"(41.81798542530901, -87.6033694104648)",2014-06-06
89527,06/06/2014,Completed,06/09/2014,14-00853353,Alley Light Out,935 E 42ND PL,60653.0,1183228.5277105,1877109.38992622,4.0,2.0,36.0,41.81798542530901,-87.60336941046481,"(41.81798542530901, -87.6033694104648)",2014-06-06
89528,06/06/2014,Completed,06/09/2014,14-00857617,Alley Light Out,8157 S HARPER AVE,60619.0,1187893.05579737,1851200.0712861,8.0,4.0,45.0,41.746778191064244,-87.58708355898717,"(41.74677819106424, -87.58708355898719)",2014-06-06
89529,06/06/2014,Completed,06/09/2014,14-00857696,Alley Light Out,8043 S AVALON AVE,60619.0,1185942.22618908,1851912.97916907,8.0,4.0,45.0,41.74878068701413,-87.59420935683096,"(41.748780687014126, -87.59420935683097)",2014-06-06
89530,06/06/2014,Completed,06/09/2014,14-00858551,Alley Light Out,2415 N ST LOUIS AVE,60647.0,1152638.80993391,1915833.87261925,26.0,14.0,22.0,41.92490794662008,-87.7145586085889,"(41.924907946620074, -87.7145586085889)",2014-06-06
89531,06/06/2014,Completed,06/09/2014,14-00858615,Alley Light Out,5111 W MELROSE ST,60641.0,1141721.15410891,1921126.81009599,30.0,16.0,15.0,41.939641479627475,-87.75454414297,"(41.93964147962748, -87.75454414297002)",2014-06-06
89532,06/06/2014,Completed,06/09/2014,14-00859199,Alley Light Out,3514 W 111TH ST,60655.0,1154850.49997863,1830770.62731325,19.0,22.0,74.0,41.691438723097775,-87.70870348691606,"(41.691438723097775, -87.70870348691606)",2014-06-06
89533,06/06/2014,Completed,06/09/2014,14-00859633,Alley Light Out,3000 N SPAULDING AVE,60618.0,1153863.3987753,1919768.86098808,35.0,14.0,21.0,41.935681528635634,-87.70995376905216,"(41.93568152863563, -87.70995376905215)",2014-06-06
89534,06/06/2014,Completed,06/09/2014,14-00859948,Alley Light Out,5008 N DRAKE AVE,60625.0,1151813.34509406,1933052.61436577,39.0,17.0,14.0,41.972173755383906,-87.7171368867609,"(41.972173755383906, -87.7171368867609)",2014-06-06
89535,06/06/2014,Completed,06/09/2014,14-00860234,Alley Light Out,5929 W 64TH PL,60638.0,1138002.0227677,1861167.03128674,13.0,8.0,64.0,41.77517134765426,-87.76965997967507,"(41.77517134765426, -87.76965997967507)",2014-06-06
89536,06/06/2014,Completed,06/09/2014,14-00860246,Alley Light Out,5840 S NASHVILLE AVE,60638.0,1133394.5073243,1865091.88809164,23.0,8.0,56.0,41.78602352446284,-87.78645942548195,"(41.78602352446284, -87.78645942548195)",2014-06-06
89537,06/06/2014,Completed,06/09/2014,14-00860292,Alley Light Out,6601 S JUSTINE ST,60636.0,1167142.78601654,1860952.915302,17.0,7.0,67.0,41.77400998818805,-87.6628390562896,"(41.77400998818805, -87.6628390562896)",2014-06-06
89538,06/07/2014,Completed,06/09/2014,14-00862075,Alley Light Out,6422 W 60TH ST,60638.0,1134526.00001291,1864056.70088979,23.0,8.0,64.0,41.783162955886624,-87.7823350446027,"(41.783162955886624, -87.7823350446027)",2014-06-07
89539,06/07/2014,Completed,06/09/2014,14-00862203,Alley Light Out,5135 N RUTHERFORD AVE,60656.0,1130588.89127178,1933728.56390797,41.0,16.0,10.0,41.97442101113053,-87.79516838446561,"(41.97442101113053, -87.79516838446563)",2014-06-07
89540,06/07/2014,Completed,06/09/2014,14-00862275,Alley Light Out,3825 N PAULINA ST,60613.0,1164309.95802185,1925454.78510727,47.0,19.0,6.0,41.95106914047868,-87.6714006016963,"(41.95106914047868, -87.6714006016963)",2014-06-07
89541,06/09/2014,Completed - Dup,06/09/2014,14-00869348,Alley Light Out,1420 E 90TH ST,60619.0,1187238.04921149,1845586.78816963,8.0,4.0,48.0,41.731390334437826,-87.5896613743042,"(41.731390334437826, -87.5896613743042)",2014-06-09
89542,06/09/2014,Completed - Dup,06/09/2014,14-00869433,Alley Light Out,135 N LARAMIE AVE,60644.0,1141689.07382762,1900582.36010628,28.0,15.0,25.0,41.88326582944345,-87.75517102686064,"(41.88326582944345, -87.75517102686064)",2014-06-09
89543,06/09/2014,Completed - Dup,06/09/2014,14-00869461,Alley Light Out,9359 S CREGIER AVE,60617.0,1189815.22998798,1843269.63999443,8.0,4.0,48.0,41.72497035392289,-87.58029459373282,"(41.72497035392289, -87.58029459373282)",2014-06-09
89544,06/09/2014,Completed - Dup,06/09/2014,14-00869703,Alley Light Out,10425 S FOREST AVE,60628.0,1180089.47928638,1835906.22990034,9.0,5.0,49.0,41.70499215009443,-87.61614445540428,"(41.70499215009442, -87.61614445540428)",2014-06-09
89545,06/09/2014,Completed - Dup,06/09/2014,14-00870691,Alley Light Out,4509 S LAPORTE AVE,60638.0,1144115.0299668,1874286.44143311,23.0,8.0,56.0,41.81106101956986,-87.74692200899547,"(41.81106101956986, -87.74692200899547)",2014-06-09
89546,06/09/2014,Completed - Dup,06/09/2014,14-00871235,Alley Light Out,922 W MARQUETTE RD,60621.0,1171226.94642935,1860408.13798892,17.0,7.0,68.0,41.7724267006018,-87.6478832543612,"(41.7724267006018, -87.6478832543612)",2014-06-09
89547,06/09/2014,Completed - Dup,06/09/2014,14-00871722,Alley Light Out,5244 S KEATING AVE,60632.0,1145581.00040935,1869405.64377806,23.0,8.0,56.0,41.79763977586508,-87.74166810059408,"(41.79763977586508, -87.74166810059408)",2014-06-09
89548,06/09/2014,Completed - Dup,06/09/2014,14-00871727,Alley Light Out,922 W MARQUETTE RD,60621.0,1171226.94642935,1860408.13798892,17.0,7.0,68.0,41.7724267006018,-87.6478832543612,"(41.7724267006018, -87.6478832543612)",2014-06-09
89549,06/09/2014,Completed - Dup,06/09/2014,14-00872124,Alley Light Out,935 E 42ND PL,60653.0,1183228.5277105,1877109.38992622,4.0,2.0,36.0,41.81798542530901,-87.60336941046481,"(41.81798542530901, -87.6033694104648)",2014-06-09
89550,06/09/2014,Completed - Dup,06/09/2014,14-00872251,Alley Light Out,5119 W PENSACOLA AVE,60641.0,1141424.59870157,1928438.75001858,45.0,16.0,15.0,41.959711609412,-87.75545289060446,"(41.959711609412, -87.75545289060446)",2014-06-09
89551,06/09/2014,Completed - Dup,06/09/2014,14-00872830,Alley Light Out,511 E 89TH ST,60619.0,1181208.23800848,1846082.62357338,6.0,6.0,44.0,41.73289180672936,-87.61173539520075,"(41.732891806729356, -87.61173539520075)",2014-06-09
89552,06/09/2014,Completed,06/09/2014,14-00865242,Alley Light Out,6659 S KNOX AVE,60629.0,1146526.40001812,1860040.6705915001,13.0,8.0,64.0,41.77192285183897,-87.73843873377666,"(41.77192285183898, -87.73843873377666)",2014-06-09
89553,06/09/2014,Completed,06/09/2014,14-00869898,Alley Light Out,3013 N RACINE AVE,60657.0,1167764.56771761,1920210.21797956,44.0,19.0,6.0,41.936603896587684,-87.65885337691515,"(41.93660389658768, -87.65885337691516)",2014-06-09
89554,06/09/2014,Completed,06/09/2014,14-00869911,Alley Light Out,1145 W WELLINGTON AVE,60657.0,1168031.95231951,1920069.67697805,44.0,19.0,6.0,41.93621246856651,-87.65787478080138,"(41.93621246856651, -87.65787478080138)",2014-06-09
89555,06/09/2014,Completed,06/09/2014,14-00869928,Alley Light Out,2913 N RACINE AVE,60657.0,1167787.43977028,1919536.40077912,44.0,19.0,6.0,41.93475441562058,-87.6587888042478,"(41.93475441562058, -87.65878880424779)",2014-06-09
89560,06/02/2014,Completed,06/10/2014,14-00820732,Alley Light Out,2618 W LUNT AVE,60645.0,1157624.62328132,1946351.58781331,50.0,24.0,2.0,42.008550018982575,-87.69540350924345,"(42.00855001898257, -87.69540350924346)",2014-06-02
89561,06/06/2014,Completed - Dup,06/10/2014,14-00858418,Alley Light Out,3854 S ARTESIAN AVE,60632.0,1160593.67161591,1879059.01851656,12.0,9.0,58.0,41.82383308621512,-87.68634736720837,"(41.823833086215124, -87.68634736720837)",2014-06-06
89562,06/09/2014,Completed - Dup,06/10/2014,14-00865247,Alley Light Out,3742 S WINCHESTER AVE,60609.0,1163966.68371675,1879867.26240423,11.0,9.0,59.0,41.825980629742496,-87.67395017447193,"(41.825980629742496, -87.67395017447194)",2014-06-09
89563,06/09/2014,Completed - Dup,06/10/2014,14-00873873,Alley Light Out,600 W 129TH PL,60628.0,1174684.23357843,1818786.15790865,9.0,5.0,53.0,41.65813380239108,-87.63644480669858,"(41.65813380239108, -87.63644480669856)",2014-06-09
89564,06/09/2014,Completed - Dup,06/10/2014,14-00873965,Alley Light Out,10622 S CALHOUN AVE,60617.0,1194879.34152034,1835078.81468933,10.0,4.0,51.0,41.7023708780983,-87.56201381214468,"(41.7023708780983, -87.56201381214467)",2014-06-09
89565,06/09/2014,Completed,06/10/2014,14-00865464,Alley Light Out,10741 S TALMAN AVE,60655.0,1160618.42020075,1833302.63607949,19.0,22.0,75.0,41.6982702951025,-87.68751682050865,"(41.69827029510251, -87.68751682050866)",2014-06-09
89566,06/09/2014,Completed,06/10/2014,14-00865469,Alley Light Out,10747 S TALMAN AVE,60655.0,1160619.72020075,1833262.33607949,19.0,22.0,75.0,41.69815967796618,-87.6875131669773,"(41.69815967796618, -87.6875131669773)",2014-06-09
89567,06/09/2014,Completed,06/10/2014,14-00868569,Alley Light Out,2081 W LUNT AVE,60645.0,1160924.06238041,1946504.68106749,50.0,24.0,2.0,42.0089020038379,-87.68325973415882,"(42.00890200383791, -87.68325973415882)",2014-06-09
89568,06/10/2014,Completed - Dup,06/10/2014,14-00874155,Alley Light Out,5726 S MOZART ST,60629.0,1158354.18961192,1866548.9666325,16.0,8.0,63.0,41.78954985797915,-87.6949042119873,"(41.789549857979154, -87.6949042119873)",2014-06-10
89569,06/10/2014,Completed - Dup,06/10/2014,14-00874464,Alley Light Out,1700 N KEYSTONE AVE,60639.0,1149120.56058692,1910991.97370559,30.0,25.0,23.0,41.9116902614215,-87.72761199927879,"(41.911690261421484, -87.7276119992788)",2014-06-10
89570,06/10/2014,Completed - Dup,06/10/2014,14-00876840,Alley Light Out,10741 S TALMAN AVE,60655.0,1160618.42020075,1833302.63607949,19.0,22.0,75.0,41.6982702951025,-87.68751682050865,"(41.69827029510251, -87.68751682050866)",2014-06-10
89571,06/10/2014,Completed - Dup,06/10/2014,14-00876866,Alley Light Out,10747 S TALMAN AVE,60655.0,1160619.72020075,1833262.33607949,19.0,22.0,75.0,41.69815967796618,-87.6875131669773,"(41.69815967796618, -87.6875131669773)",2014-06-10
89572,06/10/2014,Completed,06/10/2014,14-00880426,Alley Light Out,7936 S KEDZIE AVE,60652.0,1156425.5780866998,1851769.68850022,18.0,8.0,70.0,41.74903235315193,-87.70237344078123,"(41.749032353151925, -87.70237344078124)",2014-06-10
89590,06/03/2014,Completed - Dup,06/11/2014,14-00837293,Alley Light Out,452 E 90TH ST,60619.0,1180838.31998334,1845406.20018191,6.0,6.0,44.0,41.73104412258367,-87.61311130007977,"(41.73104412258367, -87.61311130007977)",2014-06-03
89591,06/03/2014,Completed,06/11/2014,14-00836758,Alley Light Out,6628 N NEWGARD AVE,60626.0,1165396.99607367,1944131.83461346,40.0,24.0,1.0,42.00229648499634,-87.66687056389318,"(42.00229648499634, -87.66687056389318)",2014-06-03
89592,06/04/2014,Completed - Dup,06/11/2014,14-00841862,Alley Light Out,452 E 90TH ST,60619.0,1180838.31998334,1845406.20018191,6.0,6.0,44.0,41.73104412258367,-87.61311130007977,"(41.73104412258367, -87.61311130007977)",2014-06-04
89593,06/04/2014,Completed - Dup,06/11/2014,14-00842017,Alley Light Out,7642 S MORGAN ST,60620.0,1170968.33148341,1854149.63628142,17.0,6.0,71.0,41.7552582394581,-87.64901377686613,"(41.7552582394581, -87.64901377686613)",2014-06-04
89594,06/04/2014,Completed - Dup,06/11/2014,14-00844197,Alley Light Out,1911 E 74TH ST,60649.0,1190289.33277654,1856285.03050976,8.0,3.0,43.0,41.76067440066258,-87.57813958320858,"(41.76067440066258, -87.57813958320858)",2014-06-04
89595,06/04/2014,Completed - Dup,06/11/2014,14-00844237,Alley Light Out,1911 E 74TH ST,60649.0,1190289.33277654,1856285.03050976,8.0,3.0,43.0,41.76067440066258,-87.57813958320858,"(41.76067440066258, -87.57813958320858)",2014-06-04
89596,06/05/2014,Completed - Dup,06/11/2014,14-00848808,Alley Light Out,7410 S LUELLA AVE,60649.0,1192497.48962733,1856270.85300941,7.0,3.0,43.0,41.7605820158464,-87.57004719920911,"(41.76058201584641, -87.57004719920913)",2014-06-05
89597,06/05/2014,Completed - Dup,06/11/2014,14-00851931,Alley Light Out,10429 S FOREST AVE,60628.0,1180090.27928638,1835879.32990034,9.0,5.0,49.0,41.70491831459747,-87.61614234627983,"(41.70491831459747, -87.61614234627983)",2014-06-05
89598,06/05/2014,Completed - Dup,06/11/2014,14-00853225,Alley Light Out,10720 S PARNELL AVE,60628.0,1174534.06042194,1833802.21411966,34.0,22.0,49.0,41.69934358061587,-87.63654996586169,"(41.69934358061587, -87.63654996586169)",2014-06-05
89599,06/05/2014,Completed,06/11/2014,14-00849326,Alley Light Out,9612 S WALLACE ST,60628.0,1173995.2694145,1841138.54898272,21.0,22.0,73.0,41.7194874947969,-87.63830595554639,"(41.719487494796894, -87.63830595554637)",2014-06-05
89600,06/06/2014,Completed - Dup,06/11/2014,14-00859256,Alley Light Out,1633 N KEELER AVE,60639.0,1148139.25039178,1910524.98261318,30.0,25.0,23.0,41.91042775183088,-87.73122910533493,"(41.91042775183088, -87.73122910533493)",2014-06-06
89601,06/06/2014,Completed - Dup,06/11/2014,14-00860150,Alley Light Out,6945 S INDIANA AVE,60637.0,1178796.46442704,1858903.51010831,6.0,3.0,69.0,41.76812894115727,-87.6201814665641,"(41.768128941157265, -87.6201814665641)",2014-06-06
89602,06/06/2014,Completed,06/11/2014,14-00859426,Alley Light Out,10100 S PRAIRIE AVE,60628.0,1179698.19639061,1838056.38532539,9.0,5.0,49.0,41.71090139745291,-87.61751182410845,"(41.71090139745291, -87.61751182410845)",2014-06-06
89603,06/07/2014,Completed - Dup,06/11/2014,14-00860766,Alley Light Out,429 E 91ST ST,60619.0,1180702.58557255,1844736.54620807,6.0,6.0,44.0,41.72920962683513,-87.61362905162886,"(41.729209626835136, -87.61362905162886)",2014-06-07
89604,06/07/2014,Completed - Dup,06/11/2014,14-00862099,Alley Light Out,10100 S LA SALLE ST,60628.0,1177052.67692497,1837984.47201515,9.0,5.0,49.0,41.71076400020025,-87.62720238360596,"(41.71076400020025, -87.62720238360596)",2014-06-07
89605,06/07/2014,Completed - Dup,06/11/2014,14-00862879,Alley Light Out,11323 S WASHTENAW AVE,60655.0,1160406.43899269,1829434.04067481,19.0,22.0,75.0,41.68765852720707,-87.6883990514706,"(41.68765852720707, -87.68839905147061)",2014-06-07
89606,06/07/2014,Completed,06/11/2014,14-00861883,Alley Light Out,10100 S LA SALLE ST,60628.0,1177052.67692497,1837984.47201515,9.0,5.0,49.0,41.71076400020025,-87.62720238360596,"(41.71076400020025, -87.62720238360596)",2014-06-07
89607,06/07/2014,Completed,06/11/2014,14-00862949,Alley Light Out,12335 S UNION AVE,60628.0,1173885.64843439,1823074.57056615,34.0,5.0,53.0,41.66991960632872,-87.63924062244354,"(41.66991960632872, -87.63924062244355)",2014-06-07
89608,06/08/2014,Completed - Dup,06/11/2014,14-00863577,Alley Light Out,7730 S HERMITAGE AVE,60620.0,1166023.09191305,1853432.25439414,17.0,6.0,71.0,41.75339615588739,-87.66715715735195,"(41.753396155887394, -87.66715715735195)",2014-06-08
89609,06/08/2014,Completed - Dup,06/11/2014,14-00864968,Alley Light Out,833 S MILLER ST,60607.0,1169745.519275,1896407.739,25.0,12.0,28.0,41.871245469584615,-87.65226769460425,"(41.871245469584615, -87.65226769460425)",2014-06-08
89610,06/08/2014,Completed,06/11/2014,14-00865135,Alley Light Out,10000 S LA SALLE ST,60628.0,1177035.9034833,1838646.60226802,9.0,5.0,49.0,41.7125813542759,-87.62724392658575,"(41.7125813542759, -87.62724392658575)",2014-06-08
89611,06/09/2014,Completed - Dup,06/11/2014,14-00865267,Alley Light Out,4213 W 59TH ST,60629.0,1149238.84388586,1865145.98709148,13.0,8.0,65.0,41.78588074673479,-87.72836396311035,"(41.78588074673479, -87.72836396311035)",2014-06-09
89612,06/09/2014,Completed - Dup,06/11/2014,14-00868439,Alley Light Out,553 N LEAMINGTON AVE,60644.0,1141932.87543187,1903179.56639425,28.0,15.0,25.0,41.89038837005879,-87.7542113965263,"(41.89038837005879, -87.7542113965263)",2014-06-09
89613,06/09/2014,Completed - Dup,06/11/2014,14-00872322,Alley Light Out,5929 W 63RD PL,60638.0,1137974.88962682,1861858.56486786,13.0,8.0,64.0,41.777069530093335,-87.76974283440744,"(41.777069530093335, -87.76974283440745)",2014-06-09
89614,06/09/2014,Completed - Dup,06/11/2014,14-00872875,Alley Light Out,7730 S HERMITAGE AVE,60620.0,1166023.09191305,1853432.25439414,17.0,6.0,71.0,41.75339615588739,-87.66715715735195,"(41.753396155887394, -87.66715715735195)",2014-06-09
89615,06/09/2014,Completed,06/11/2014,14-00866580,Alley Light Out,7412 S BENNETT AVE,60649.0,1189990.06142435,1856197.47306895,8.0,3.0,43.0,41.760441339973866,-87.57923922071161,"(41.760441339973866, -87.57923922071161)",2014-06-09
89616,06/09/2014,Completed,06/11/2014,14-00872378,Alley Light Out,31 W 112TH ST,60628.0,1178018.75649592,1830703.62193195,34.0,5.0,49.0,41.69076252666458,-87.62388406743044,"(41.69076252666458, -87.62388406743044)",2014-06-09
89617,06/10/2014,Completed - Dup,06/11/2014,14-00874430,Alley Light Out,5109 S MOBILE AVE,60638.0,1135236.7098783,1870031.96202184,23.0,8.0,56.0,41.79954762079869,-87.7795881838572,"(41.799547620798684, -87.77958818385719)",2014-06-10
89618,06/10/2014,Completed - Dup,06/11/2014,14-00875690,Alley Light Out,133 W 110TH ST,60628.0,1177334.58372385,1832011.52077874,34.0,5.0,49.0,41.694367028041135,-87.62634955790286,"(41.694367028041135, -87.62634955790286)",2014-06-10
89619,06/10/2014,Completed - Dup,06/11/2014,14-00877651,Alley Light Out,8235 S SAGINAW AVE,60617.0,1195269.17588989,1850878.70427756,7.0,4.0,46.0,41.745717613089965,-87.5600666871308,"(41.74571761308997, -87.5600666871308)",2014-06-10
89620,06/10/2014,Completed,06/11/2014,14-00876874,Alley Light Out,11819 S STATE ST,60628.0,1178376.84497882,1826525.57978133,9.0,5.0,53.0,41.679289261021545,-87.62269926187722,"(41.67928926102155, -87.6226992618772)",2014-06-10
89621,06/10/2014,Completed,06/11/2014,14-00877682,Alley Light Out,4727 N WINTHROP AVE,60640.0,1168026.21748431,1931553.49447816,46.0,19.0,3.0,41.96772464941027,-87.65756307781393,"(41.96772464941027, -87.65756307781393)",2014-06-10
89622,06/10/2014,Completed,06/11/2014,14-00879018,Alley Light Out,7408 S BENNETT AVE,60649.0,1189989.36142435,1856224.17306895,8.0,3.0,43.0,41.76051462388223,-87.57924092837321,"(41.76051462388223, -87.5792409283732)",2014-06-10
89623,06/10/2014,Completed,06/11/2014,14-00879548,Alley Light Out,4145 S ALBANY AVE,60632.0,1156372.65226863,1876879.5386849,14.0,9.0,58.0,41.8179384962389,-87.70189167597485,"(41.817938496238895, -87.70189167597485)",2014-06-10
89624,06/10/2014,Completed,06/11/2014,14-00881754,Alley Light Out,7943 S CAMPBELL AVE,60652.0,1161092.2499688999,1851880.42067847,18.0,8.0,70.0,41.749241038722246,-87.6852697962628,"(41.74924103872225, -87.68526979626279)",2014-06-10
89625,06/11/2014,Completed - Dup,06/11/2014,14-00882754,Alley Light Out,9609 S AVENUE M,60617.0,1201453.44212655,1841984.73317678,10.0,4.0,52.0,41.721157188189395,-87.53770815804731,"(41.7211571881894, -87.53770815804731)",2014-06-11
89626,06/11/2014,Completed - Dup,06/11/2014,14-00884584,Alley Light Out,10427 S GREEN ST,60643.0,1172490.76911987,1835697.31751794,34.0,22.0,73.0,41.70458915218031,-87.64397603538093,"(41.70458915218031, -87.64397603538093)",2014-06-11
89627,06/11/2014,Completed - Dup,06/11/2014,14-00884686,Alley Light Out,9224 S UNIVERSITY AVE,60619.0,1185489.08942767,1844049.11511343,8.0,4.0,47.0,41.72721207814344,-87.5961166383517,"(41.72721207814344, -87.5961166383517)",2014-06-11
89628,06/11/2014,Completed - Dup,06/11/2014,14-00885171,Alley Light Out,8240 S KENWOOD AVE,60619.0,1186640.41713302,1850619.37579884,8.0,4.0,45.0,41.74521442438505,-87.59169181988352,"(41.74521442438505, -87.59169181988352)",2014-06-11
89629,06/11/2014,Completed - Dup,06/11/2014,14-00885749,Alley Light Out,3138 N MAJOR AVE,60634.0,1137823.56630622,1920291.08022021,30.0,25.0,19.0,41.937419468237074,-87.76888936925033,"(41.93741946823708, -87.76888936925033)",2014-06-11
89630,06/11/2014,Completed - Dup,06/11/2014,14-00887670,Alley Light Out,1514 S KILBOURN AVE,60623.0,1146632.15459459,1892233.21238881,24.0,10.0,29.0,41.86026193980519,-87.73723243432288,"(41.860261939805184, -87.73723243432288)",2014-06-11
89631,06/11/2014,Completed - Dup,06/11/2014,14-00888273,Alley Light Out,2742 E 128TH ST,60633.0,1196471.14781884,1820690.31922416,10.0,4.0,55.0,41.66284802721046,-87.55666013228874,"(41.66284802721045, -87.55666013228875)",2014-06-11
89632,06/11/2014,Completed - Dup,06/11/2014,14-00888851,Alley Light Out,7529 S DREXEL AVE,60619.0,1183535.57510768,1855279.60992717,8.0,6.0,69.0,41.758075461387904,-87.60292337423815,"(41.758075461387904, -87.60292337423816)",2014-06-11
89633,06/11/2014,Completed - Dup,06/11/2014,14-00889204,Alley Light Out,10004 S LAFAYETTE AVE,60628.0,1177690.6106011001,1838635.94559999,9.0,5.0,49.0,41.712537352919796,-87.62484652170694,"(41.712537352919796, -87.62484652170693)",2014-06-11
89634,06/11/2014,Completed - Dup,06/11/2014,14-00889566,Alley Light Out,432 E 91ST PL,60619.0,1180733.0696699,1844404.26998309,6.0,6.0,44.0,41.7282971210488,-87.61352756035065,"(41.728297121048804, -87.61352756035066)",2014-06-11
89635,06/11/2014,Completed,06/11/2014,14-00884645,Alley Light Out,1514 S KILBOURN AVE,60623.0,1146632.15459459,1892233.21238881,24.0,10.0,29.0,41.86026193980519,-87.73723243432288,"(41.860261939805184, -87.73723243432288)",2014-06-11
89636,06/11/2014,Completed,06/11/2014,14-00887179,Alley Light Out,11100 S STATE LINE RD,60617.0,1205113.83031952,1831981.04002666,10.0,4.0,52.0,41.693612695528685,-87.5246453795724,"(41.69361269552869, -87.5246453795724)",2014-06-11
89637,06/11/2014,Completed,06/11/2014,14-00888240,Alley Light Out,5309 N MEADE AVE,60630.0,1134451.75297781,1934928.56316738,45.0,16.0,11.0,41.977646450618856,-87.78093478749712,"(41.97764645061885, -87.78093478749712)",2014-06-11
89963,06/01/2014,Completed - Dup,06/12/2014,14-00820213,Alley Light Out,7548 S MARSHFIELD AVE,60620.0,1166654.22002059,1854609.51161043,17.0,6.0,71.0,41.756613279392575,-87.66481077745209,"(41.75661327939257, -87.66481077745209)",2014-06-01
89964,06/01/2014,Completed - Dup,06/12/2014,14-00820644,Alley Light Out,5250 S NEVA AVE,60638.0,1129559.23640417,1869282.50010731,23.0,8.0,56.0,41.79758943690711,-87.80042652407991,"(41.79758943690711, -87.80042652407992)",2014-06-01
89965,06/01/2014,Completed,06/12/2014,14-00820165,Alley Light Out,7459 W ADDISON ST,60634.0,1125645.69027949,1923025.94521017,36.0,16.0,17.0,41.94513557554737,-87.81358511155042,"(41.94513557554737, -87.81358511155042)",2014-06-01
89966,06/02/2014,Completed - Dup,06/12/2014,14-00821709,Alley Light Out,5618 S MONITOR AVE,60638.0,1138329.87522182,1866735.9184134998,23.0,8.0,56.0,41.79044746651783,-87.76832394361428,"(41.790447466517826, -87.76832394361428)",2014-06-02
89967,06/02/2014,Completed,06/12/2014,14-00823742,Alley Light Out,1700 N MOHAWK ST,60614.0,1172341.80232035,1911582.33510433,43.0,18.0,7.0,41.91282855247514,-87.64228715022362,"(41.91282855247514, -87.64228715022362)",2014-06-02
89968,06/02/2014,Completed,06/12/2014,14-00827188,Alley Light Out,6938 S PERRY AVE,60621.0,1176596.08323413,1858985.00160755,6.0,7.0,69.0,41.76840234455217,-87.62824439586535,"(41.76840234455217, -87.62824439586534)",2014-06-02
89969,06/02/2014,Completed,06/12/2014,14-00828163,Alley Light Out,642 N LOTUS AVE,60644.0,1139804.91979059,1903715.76408932,37.0,15.0,25.0,41.89189890775853,-87.76201325061035,"(41.89189890775853, -87.76201325061034)",2014-06-02
89970,06/03/2014,Completed - Dup,06/12/2014,14-00830551,Alley Light Out,4929 W ADAMS ST,60644.0,1143656.44262777,1898881.50038334,28.0,15.0,25.0,41.87856186453801,-87.74798923359795,"(41.87856186453801, -87.74798923359795)",2014-06-03
89971,06/03/2014,Completed - Dup,06/12/2014,14-00830815,Alley Light Out,7548 S MARSHFIELD AVE,60620.0,1166654.22002059,1854609.51161043,17.0,6.0,71.0,41.756613279392575,-87.66481077745209,"(41.75661327939257, -87.66481077745209)",2014-06-03
89972,06/03/2014,Completed - Dup,06/12/2014,14-00834727,Alley Light Out,5648 S MCVICKER AVE,60638.0,1137007.48012511,1866489.59152111,23.0,8.0,56.0,41.789795247936226,-87.77317881394104,"(41.78979524793623, -87.77317881394103)",2014-06-03
89973,06/03/2014,Completed - Dup,06/12/2014,14-00836683,Alley Light Out,2041 W 69TH PL,60636.0,1163949.93231873,1858564.10010064,17.0,7.0,67.0,41.7675224659299,-87.67461053802485,"(41.7675224659299, -87.67461053802484)",2014-06-03
89974,06/03/2014,Completed,06/12/2014,14-00828749,Alley Light Out,137 N LARAMIE AVE,60644.0,1141688.67382762,1900594.36010628,28.0,15.0,25.0,41.88329876633,-87.75517219883659,"(41.88329876633, -87.75517219883659)",2014-06-03
89975,06/03/2014,Completed,06/12/2014,14-00834310,Alley Light Out,8716 S UNION AVE,60620.0,1173166.44709558,1847014.4108176003,21.0,22.0,71.0,41.73562999386703,-87.64116862023444,"(41.73562999386703, -87.64116862023444)",2014-06-03
89976,06/03/2014,Completed,06/12/2014,14-00835144,Alley Light Out,3214 N NOTTINGHAM AVE,60634.0,1128192.91001657,1920546.6299702,36.0,16.0,17.0,41.938289273747735,-87.80427856092652,"(41.938289273747735, -87.80427856092652)",2014-06-03
89977,06/03/2014,Completed,06/12/2014,14-00836307,Alley Light Out,3624 N NOTTINGHAM AVE,60634.0,1128099.41472238,1923265.43751622,36.0,16.0,17.0,41.94575158814971,-87.80456054542908,"(41.94575158814971, -87.80456054542908)",2014-06-03
89978,06/03/2014,Completed,06/12/2014,14-00837231,Alley Light Out,8131 S YALE AVE,60620.0,1176029.30230166,1851076.41543124,21.0,6.0,44.0,41.74671298498395,-87.63055872365764,"(41.74671298498395, -87.63055872365764)",2014-06-03
89979,06/04/2014,Completed - Dup,06/12/2014,14-00841104,Alley Light Out,6844 S CLAREMONT AVE,60636.0,1161914.3738831999,1859216.50241434,17.0,8.0,66.0,41.769355287475356,-87.68205367293156,"(41.76935528747536, -87.68205367293156)",2014-06-04
89980,06/04/2014,Completed,06/12/2014,14-00839637,Alley Light Out,1647 N DRAKE AVE,60647.0,1152566.93480889,1910720.24403431,26.0,14.0,23.0,41.91087712517861,-87.714958196053,"(41.91087712517861, -87.71495819605302)",2014-06-04
89981,06/04/2014,Completed,06/12/2014,14-00841337,Alley Light Out,7250 S CHAMPLAIN AVE,60619.0,1181810.48268142,1857420.87328173,6.0,3.0,69.0,41.763991327845616,-87.60917953269934,"(41.76399132784562, -87.60917953269933)",2014-06-04
89982,06/04/2014,Completed,06/12/2014,14-00841489,Alley Light Out,550 E 51ST ST,60615.0,1180838.65001696,1871319.87958666,4.0,2.0,38.0,41.80215391382254,-87.61231431704691,"(41.80215391382254, -87.61231431704691)",2014-06-04
89983,06/04/2014,Completed,06/12/2014,14-00845434,Alley Light Out,5117 S WABASH AVE,60615.0,1177581.99898111,1871098.3975816001,3.0,2.0,40.0,41.801620490359575,-87.62426439535402,"(41.801620490359575, -87.62426439535402)",2014-06-04
89984,06/05/2014,Completed - Dup,06/12/2014,14-00852969,Alley Light Out,10039 S DR MARTIN LUTHER KING JR DR,60628.0,1180681.63490438,1838426.34480439,9.0,5.0,49.0,41.71189412311522,-87.61389897092937,"(41.71189412311522, -87.61389897092937)",2014-06-05
89985,06/05/2014,Completed - Dup,06/12/2014,14-00853069,Alley Light Out,10006 S LAFAYETTE AVE,60628.0,1177690.9106011002,1838622.54559999,9.0,5.0,49.0,41.71250057472453,-87.62484582682238,"(41.71250057472453, -87.62484582682237)",2014-06-05
89986,06/05/2014,Completed,06/12/2014,14-00846286,Alley Light Out,6930 S PERRY AVE,60621.0,1176594.58323413,1859038.50160755,6.0,7.0,69.0,41.768549188240684,-87.62824828646194,"(41.768549188240684, -87.62824828646195)",2014-06-05
89987,06/05/2014,Completed,06/12/2014,14-00850492,Alley Light Out,6536 S CHAMPLAIN AVE,60637.0,1181690.94090508,1861815.33779835,20.0,3.0,42.0,41.776052935180935,-87.60948212038922,"(41.77605293518094, -87.60948212038922)",2014-06-05
89988,06/05/2014,Completed,06/12/2014,14-00851984,Alley Light Out,10526 S VERNON AVE,60628.0,1181107.63680938,1835262.44488546,9.0,5.0,49.0,41.703202189708044,-87.612435851948,"(41.703202189708044, -87.61243585194802)",2014-06-05
89989,06/05/2014,Completed,06/12/2014,14-00853174,Alley Light Out,5437 S PRINCETON AVE,60609.0,1175213.99063063,1868771.21431802,3.0,9.0,37.0,41.795287744629405,-87.63301826043427,"(41.79528774462941, -87.63301826043427)",2014-06-05
89990,06/05/2014,Completed,06/12/2014,14-00853193,Alley Light Out,160 N LEAMINGTON AVE,60644.0,1142020.95962486,1900608.20726805,28.0,15.0,25.0,41.88333061513639,-87.75395166448202,"(41.88333061513638, -87.75395166448202)",2014-06-05
89991,06/06/2014,Completed - Dup,06/12/2014,14-00854104,Alley Light Out,11361 S RACINE AVE,60643.0,1170363.83872475,1829349.93241657,34.0,22.0,75.0,41.6872173718443,-87.65194841778514,"(41.6872173718443, -87.65194841778512)",2014-06-06
89992,06/06/2014,Completed - Dup,06/12/2014,14-00854515,Alley Light Out,12206 S RACINE AVE,60643.0,1170539.46390294,1823843.76271652,34.0,5.0,53.0,41.67210370818521,-87.65146500286993,"(41.67210370818521, -87.65146500286993)",2014-06-06
89993,06/06/2014,Completed - Dup,06/12/2014,14-00857545,Alley Light Out,5306 S MCVICKER AVE,60638.0,1136935.66733435,1868780.60341968,23.0,8.0,56.0,41.79608347217041,-87.77338742030838,"(41.79608347217041, -87.77338742030837)",2014-06-06
89994,06/06/2014,Completed - Dup,06/12/2014,14-00858725,Alley Light Out,5935 W 63RD PL,60638.0,1137934.08962682,1861857.16486786,13.0,8.0,64.0,41.777066421902546,-87.76989244316543,"(41.777066421902546, -87.76989244316543)",2014-06-06
89995,06/06/2014,Completed,06/12/2014,14-00853869,Alley Light Out,3419 N NATOMA AVE,60634.0,1131471.76710555,1922005.23842193,36.0,16.0,17.0,41.94223570244176,-87.79219396289255,"(41.942235702441764, -87.79219396289254)",2014-06-06
89996,06/06/2014,Completed,06/12/2014,14-00859645,Alley Light Out,42 E 66TH PL,60637.0,1177797.22457146,1861062.9064104,20.0,3.0,69.0,41.774077233243396,-87.62377882241873,"(41.7740772332434, -87.62377882241874)",2014-06-06
89997,06/06/2014,Completed,06/12/2014,14-00860338,Alley Light Out,1300 N ARTESIAN AVE,60622.0,1159838.16521567,1908571.39430959,26.0,14.0,24.0,41.9048335558964,-87.68830557798631,"(41.90483355589641, -87.68830557798631)",2014-06-06
89998,06/07/2014,Completed - Dup,06/12/2014,14-00861297,Alley Light Out,2800 E 104TH ST,60617.0,1196387.5196218,1836559.4113858996,10.0,4.0,51.0,41.706396580174044,-87.55644247904519,"(41.70639658017404, -87.55644247904517)",2014-06-07
89999,06/07/2014,Completed - Dup,06/12/2014,14-00861724,Alley Light Out,2547 W 115TH ST,60655.0,1161449.62603011,1828287.32656601,19.0,22.0,75.0,41.68449023933568,-87.68461163951069,"(41.68449023933568, -87.68461163951069)",2014-06-07
90000,06/07/2014,Completed - Dup,06/12/2014,14-00862636,Alley Light Out,1537 W ADAMS ST,60607.0,1166188.23500468,1899177.23151907,2.0,12.0,28.0,41.87892189056448,-87.66524861681921,"(41.87892189056448, -87.6652486168192)",2014-06-07
90001,06/07/2014,Completed - Dup,06/12/2014,14-00862924,Alley Light Out,306 E 118TH ST,60628.0,1180031.73659373,1826776.29987826,9.0,5.0,53.0,41.679939658354094,-87.61663407228569,"(41.679939658354094, -87.61663407228568)",2014-06-07
90002,06/07/2014,Completed,06/12/2014,14-00860374,Alley Light Out,6943 S WENTWORTH AVE,60621.0,1176160.48248448,1858939.76572809,6.0,7.0,69.0,41.76828800025016,-87.62984243094691,"(41.76828800025016, -87.62984243094691)",2014-06-07
90003,06/07/2014,Completed,06/12/2014,14-00860403,Alley Light Out,1041 W BELDEN AVE,60614.0,1168871.52293257,1915455.26999959,32.0,18.0,7.0,41.92353211571765,-87.65492347503387,"(41.92353211571765, -87.65492347503388)",2014-06-07
90004,06/07/2014,Completed,06/12/2014,14-00861051,Alley Light Out,6634 S EVANS AVE,60637.0,1182359.8299674,1861187.16911215,20.0,3.0,42.0,41.77431370458671,-87.60704949972343,"(41.77431370458671, -87.60704949972344)",2014-06-07
90005,06/08/2014,Completed,06/12/2014,14-00864995,Alley Light Out,4343 N MOBILE AVE,60634.0,1133573.16559153,1928218.89550163,38.0,16.0,15.0,41.95924997211043,-87.78432394934484,"(41.95924997211042, -87.78432394934485)",2014-06-08
90006,06/09/2014,Completed - Dup,06/12/2014,14-00873607,Alley Light Out,4343 N MOBILE AVE,60634.0,1133573.16559153,1928218.89550163,38.0,16.0,15.0,41.95924997211043,-87.78432394934484,"(41.95924997211042, -87.78432394934485)",2014-06-09
90007,06/09/2014,Completed - Dup,06/12/2014,14-00874004,Alley Light Out,845 W 69TH ST,60621.0,1171762.03880447,1859096.54971189,17.0,7.0,68.0,41.7688158247896,-87.64596018817103,"(41.76881582478959, -87.64596018817103)",2014-06-09
90008,06/09/2014,Completed - Dup,06/12/2014,14-00874032,Alley Light Out,5099 S FORRESTVILLE AVE,60615.0,1180787.15001696,1871318.37958666,4.0,2.0,38.0,41.802150983011714,-87.61250323291142,"(41.802150983011714, -87.61250323291141)",2014-06-09
90009,06/09/2014,Completed,06/12/2014,14-00867509,Alley Light Out,10529 S VERNON AVE,60628.0,1181108.23680938,1835242.24488546,9.0,5.0,49.0,41.70314674443944,-87.61243427407591,"(41.703146744439444, -87.61243427407591)",2014-06-09
90010,06/09/2014,Completed,06/12/2014,14-00873375,Alley Light Out,6427 W ADDISON ST,60634.0,1132743.92009247,1923255.23657062,36.0,16.0,17.0,41.945643702576334,-87.78748888931311,"(41.945643702576334, -87.78748888931311)",2014-06-09
90011,06/10/2014,Completed - Dup,06/12/2014,14-00877604,Alley Light Out,1710 W 77TH ST,60620.0,1166241.75787356,1853638.29756927,17.0,6.0,71.0,41.753956918217526,-87.6663499719253,"(41.75395691821752, -87.6663499719253)",2014-06-10
90012,06/10/2014,Completed,06/12/2014,14-00878616,Alley Light Out,5100 W WASHINGTON BLVD,60644.0,1142374.59057517,1900023.98668339,28.0,15.0,25.0,41.881720882934154,-87.75266760672605,"(41.88172088293416, -87.75266760672605)",2014-06-10
90013,06/11/2014,Completed - Dup,06/12/2014,14-00889307,Alley Light Out,5250 S FAIRFIELD AVE,60632.0,1158921.06372847,1870064.06718186,14.0,9.0,63.0,41.79918419855887,-87.69272960052679,"(41.79918419855887, -87.69272960052679)",2014-06-11
90014,06/11/2014,Completed,06/12/2014,14-00885146,Alley Light Out,6247 S LANGLEY AVE,60637.0,1181968.36307653,1863738.82010624,20.0,3.0,42.0,41.78132473984547,-87.60840567987238,"(41.78132473984548, -87.60840567987238)",2014-06-11
90015,06/11/2014,Completed,06/12/2014,14-00890217,Alley Light Out,5813 S WABASH AVE,60637.0,1177708.07300871,1866491.41798608,20.0,2.0,40.0,41.78897564268214,-87.62394146107313,"(41.78897564268214, -87.62394146107313)",2014-06-11
90016,06/12/2014,Completed - Dup,06/12/2014,14-00890659,Alley Light Out,1256 E 96TH PL,60628.0,1186347.66167321,1841233.1799803001,8.0,5.0,50.0,41.719464617296296,-87.59306031046428,"(41.719464617296296, -87.59306031046428)",2014-06-12
90017,06/12/2014,Completed - Dup,06/12/2014,14-00891515,Alley Light Out,10000 S GREEN ST,60643.0,1172409.41563304,1838527.5508693,34.0,22.0,73.0,41.71235752147066,-87.64419099762314,"(41.71235752147066, -87.64419099762314)",2014-06-12
90018,06/12/2014,Completed - Dup,06/12/2014,14-00895743,Alley Light Out,8834 S MARQUETTE AVE,60617.0,1195789.91787749,1846920.5477854,7.0,4.0,46.0,41.734843252903296,-87.5582892477208,"(41.7348432529033, -87.5582892477208)",2014-06-12
90019,06/12/2014,Completed - Dup,06/12/2014,14-00897641,Alley Light Out,9929 S EMERALD AVE,60628.0,1173059.46001757,1839017.71999223,34.0,22.0,73.0,41.71368831533628,-87.64179592984365,"(41.71368831533628, -87.64179592984365)",2014-06-12
90020,06/12/2014,Completed,06/12/2014,14-00892898,Alley Light Out,5118 W WASHINGTON BLVD,60644.0,1142186.69500478,1900021.55761552,28.0,15.0,25.0,41.881717703803595,-87.75335762369802,"(41.88171770380359, -87.75335762369801)",2014-06-12
90021,06/12/2014,Completed,06/12/2014,14-00892936,Alley Light Out,5141 W WASHINGTON BLVD,60644.0,1142003.19500478,1900045.25761552,28.0,15.0,25.0,41.88178614052299,-87.75403085236584,"(41.88178614052299, -87.75403085236584)",2014-06-12
90022,06/12/2014,Completed,06/12/2014,14-00892941,Alley Light Out,8000 S MERRILL AVE,60617.0,1191919.70719884,1852349.68167056,8.0,4.0,46.0,41.74983604462025,-87.57229188282841,"(41.749836044620245, -87.5722918828284)",2014-06-12
90023,06/12/2014,Completed,06/12/2014,14-00893003,Alley Light Out,33 N LARAMIE AVE,60644.0,1141713.43950902,1899871.30001151,28.0,15.0,25.0,41.88131414135518,-87.75509914619906,"(41.88131414135519, -87.75509914619907)",2014-06-12
90024,06/12/2014,Completed,06/12/2014,14-00894509,Alley Light Out,7700 S LAFLIN ST,60620.0,1167450.83420737,1853669.63170793,17.0,6.0,71.0,41.754017096092795,-87.66191821242609,"(41.754017096092795, -87.66191821242609)",2014-06-12
90025,06/12/2014,Completed,06/12/2014,14-00897438,Alley Light Out,7625 W GREGORY ST,60656.0,1124506.34267519,1935950.68010092,41.0,16.0,10.0,41.980621412660334,-87.81748700671541,"(41.980621412660334, -87.81748700671541)",2014-06-12
90051,06/02/2014,Completed,06/13/2014,14-00821627,Alley Light Out,8245 S KIMBARK AVE,60619.0,1186309.78459456,1850577.59899471,8.0,4.0,45.0,41.74510759807158,-87.59290461275295,"(41.74510759807158, -87.59290461275296)",2014-06-02
90052,06/02/2014,Completed,06/13/2014,14-00823709,Alley Light Out,2703 W HARRISON ST,60612.0,1158439.94687397,1897257.39290941,2.0,11.0,27.0,41.87381565359864,-87.69375143179974,"(41.87381565359864, -87.69375143179974)",2014-06-02
90053,06/02/2014,Completed,06/13/2014,14-00825683,Alley Light Out,7356 S BENNETT AVE,60649.0,1189980.46142435,1856565.77306895,5.0,3.0,43.0,41.761452217330906,-87.57926257191488,"(41.761452217330906, -87.57926257191488)",2014-06-02
90054,06/02/2014,Completed,06/13/2014,14-00827258,Alley Light Out,334 E 26TH ST,60616.0,1178836.90008154,1887174.29421019,2.0,1.0,33.0,41.84570552804264,-87.61917217872153,"(41.84570552804264, -87.61917217872151)",2014-06-02
90055,06/02/2014,Completed,06/13/2014,14-00827449,Alley Light Out,5457 S WOODLAWN AVE,60615.0,1185148.74731911,1869242.32988486,4.0,2.0,41.0,41.79635265594133,-87.59657292628185,"(41.796352655941334, -87.59657292628184)",2014-06-02
90056,06/04/2014,Completed - Dup,06/13/2014,14-00841374,Alley Light Out,8928 S MERRILL AVE,60617.0,1192061.20370572,1846194.88272851,7.0,4.0,48.0,41.73294329004359,-87.57197292831799,"(41.73294329004359, -87.57197292831799)",2014-06-04
90057,06/06/2014,Completed - Dup,06/13/2014,14-00860071,Alley Light Out,6125 N HAMILTON AVE,60659.0,1160889.31707824,1940535.57992731,40.0,24.0,2.0,41.99252332853253,-87.68355423912395,"(41.99252332853253, -87.68355423912395)",2014-06-06
90058,06/08/2014,Completed,06/13/2014,14-00864153,Alley Light Out,7800 S CONSTANCE AVE,60649.0,1189889.67636645,1853622.59419452,8.0,4.0,43.0,41.75337806260628,-87.57968979966058,"(41.75337806260628, -87.5796897996606)",2014-06-08
90059,06/09/2014,Completed,06/13/2014,14-00869645,Alley Light Out,6112 N WOLCOTT AVE,60660.0,1162639.78967025,1940461.03450334,40.0,24.0,2.0,41.99228214656381,-87.67711752038296,"(41.99228214656381, -87.67711752038295)",2014-06-09
90060,06/10/2014,Completed,06/13/2014,14-00881650,Alley Light Out,7739 S STONY ISLAND XR,60649.0,1188261.56613313,1853982.7116288997,8.0,4.0,43.0,41.754405239136894,-87.58564465833588,"(41.7544052391369, -87.58564465833587)",2014-06-10
90061,06/11/2014,Completed,06/13/2014,14-00885295,Alley Light Out,9242 S LUELLA AVE,60617.0,1192788.23600688,1844013.50989343,7.0,4.0,48.0,41.72693972037847,-87.56938044589594,"(41.72693972037847, -87.56938044589594)",2014-06-11
90062,06/11/2014,Completed,06/13/2014,14-00887707,Alley Light Out,8243 S KIMBARK AVE,60619.0,1186309.38459456,1850590.99899471,8.0,4.0,45.0,41.74514437846883,-87.5929056559098,"(41.74514437846883, -87.59290565590982)",2014-06-11
90063,06/11/2014,Completed,06/13/2014,14-00889740,Alley Light Out,9235 S BENNETT AVE,60617.0,1190458.75082628,1844110.38231328,8.0,4.0,48.0,41.72726196346605,-87.57791038115509,"(41.72726196346605, -87.5779103811551)",2014-06-11
90064,06/12/2014,Completed - Dup,06/13/2014,14-00891403,Alley Light Out,10133 S OGLESBY AVE,60617.0,1193827.5142941999,1838246.9100327,10.0,4.0,51.0,41.71109024181817,-87.56576184240429,"(41.711090241818184, -87.56576184240429)",2014-06-12
90065,06/12/2014,Completed - Dup,06/13/2014,14-00894970,Alley Light Out,2701 W HARRISON ST,60612.0,1158453.24687397,1897257.69290941,2.0,11.0,27.0,41.87381620486745,-87.69370259225609,"(41.87381620486745, -87.6937025922561)",2014-06-12
90066,06/12/2014,Completed - Dup,06/13/2014,14-00895802,Alley Light Out,9137 S OGLESBY AVE,60617.0,1193427.97250102,1844840.34471375,7.0,4.0,48.0,41.729193027796576,-87.56701009127701,"(41.72919302779658, -87.567010091277)",2014-06-12
90067,06/12/2014,Completed - Dup,06/13/2014,14-00896526,Alley Light Out,11008 S AVENUE G,60617.0,1203191.58050278,1832580.73650582,10.0,4.0,52.0,41.69530762213142,-87.53166255277748,"(41.69530762213142, -87.53166255277748)",2014-06-12
90068,06/12/2014,Completed - Dup,06/13/2014,14-00897736,Alley Light Out,10149 S EBERHART AVE,60628.0,1181368.36050284,1837776.61057416,9.0,5.0,49.0,41.71009539595436,-87.6114039681752,"(41.710095395954355, -87.61140396817521)",2014-06-12
90069,06/12/2014,Completed - Dup,06/13/2014,14-00897866,Alley Light Out,10425 S FOREST AVE,60628.0,1180089.47928638,1835906.22990034,9.0,5.0,49.0,41.70499215009443,-87.61614445540428,"(41.70499215009442, -87.61614445540428)",2014-06-12
90070,06/12/2014,Completed,06/13/2014,14-00892432,Alley Light Out,2816 S WELLS ST,60616.0,1175081.78251102,1885929.56981574,11.0,9.0,34.0,41.842374769635455,-87.63299023286821,"(41.842374769635455, -87.63299023286822)",2014-06-12
90071,06/12/2014,Completed,06/13/2014,14-00895675,Alley Light Out,7900 S ELIZABETH ST,60620.0,1169361.580114,1852395.6776808999,21.0,6.0,71.0,41.75048006238068,-87.65495277629702,"(41.75048006238068, -87.65495277629702)",2014-06-12
90072,06/13/2014,Completed - Dup,06/13/2014,14-00898113,Alley Light Out,6107 S PARKSIDE AVE,60638.0,1139778.87793239,1863510.20916562,13.0,8.0,64.0,41.78156930208387,-87.76308916322708,"(41.781569302083874, -87.76308916322708)",2014-06-13
90073,06/13/2014,Completed - Dup,06/13/2014,14-00899459,Alley Light Out,7809 S PEORIA ST,60620.0,1171659.98471004,1853062.41439936,17.0,6.0,71.0,41.752259637562055,-87.64651086224876,"(41.752259637562055, -87.64651086224877)",2014-06-13
90074,06/13/2014,Completed - Dup,06/13/2014,14-00902893,Alley Light Out,9431 S EBERHART AVE,60619.0,1181231.93477631,1842546.13293365,9.0,6.0,49.0,41.723186704645435,-87.61175718968187,"(41.72318670464544, -87.61175718968187)",2014-06-13
90075,06/13/2014,Completed - Dup,06/13/2014,14-00903817,Alley Light Out,9529 S PEORIA ST,60643.0,1171992.80920331,1841602.20516959,21.0,22.0,73.0,41.7208039620537,-87.6456267892139,"(41.7208039620537, -87.6456267892139)",2014-06-13
90076,06/14/2014,Completed,06/14/2014,14-00904773,Alley Light Out,6510 N ONARGA AVE,60631.0,1127298.07369682,1942595.91011886,41.0,16.0,9.0,41.99880997626082,-87.80706958443237,"(41.99880997626082, -87.80706958443238)",2014-06-14
90077,06/15/2014,Completed,06/15/2014,14-00907252,Alley Light Out,4213 W 51ST ST,60632.0,1149087.14457656,1870464.44017234,23.0,8.0,57.0,41.80047833116736,-87.72878304417425,"(41.80047833116736, -87.72878304417425)",2014-06-15
90078,06/15/2014,Completed,06/15/2014,14-00907296,Alley Light Out,8146 S MAPLEWOOD AVE,60652.0,1160782.04569247,1850435.36986924,18.0,8.0,70.0,41.745282002311214,-87.6864463234495,"(41.74528200231121, -87.6864463234495)",2014-06-15
90079,06/15/2014,Completed,06/15/2014,14-00909421,Alley Light Out,10347 S AVENUE F,60617.0,1203489.320094,1836975.25980143,10.0,4.0,52.0,41.70735894285456,-87.53042245889506,"(41.70735894285456, -87.53042245889505)",2014-06-15
90080,06/15/2014,Completed,06/15/2014,14-00909422,Alley Light Out,2241 W 19TH ST,60608.0,1161727.93551344,1890703.08826963,25.0,12.0,31.0,41.855762151352536,-87.68186212041269,"(41.85576215135254, -87.68186212041269)",2014-06-15
90081,06/15/2014,Completed,06/15/2014,14-00909779,Alley Light Out,3137 W LYNDALE ST,60647.0,1155119.11791333,1914921.10598157,35.0,14.0,22.0,41.92235376612837,-87.70546935637589,"(41.92235376612837, -87.70546935637589)",2014-06-15
90082,06/05/2014,Completed - Dup,06/16/2014,14-00845767,Alley Light Out,3937 W 62ND PL,60629.0,1151081.08668193,1862863.84989483,13.0,8.0,65.0,41.77958243808478,-87.72166884935497,"(41.77958243808478, -87.72166884935497)",2014-06-05
90083,06/03/2014,Completed,06/16/2014,14-00831911,Alley Light Out,6500 N OLYMPIA AVE,60631.0,1124534.80689606,1942538.08239984,41.0,16.0,9.0,41.9986974444897,-87.81723632730423,"(41.9986974444897, -87.81723632730423)",2014-06-03
90086,06/12/2014,Completed - Dup,06/16/2014,14-00897886,Alley Light Out,8043 S AVALON AVE,60619.0,1185942.22618908,1851912.97916907,8.0,4.0,45.0,41.74878068701413,-87.59420935683096,"(41.748780687014126, -87.59420935683097)",2014-06-12
90087,06/13/2014,Completed - Dup,06/16/2014,14-00904436,Alley Light Out,11645 S MAPLEWOOD AVE,60655.0,1161484.27772342,1827225.49991091,19.0,22.0,75.0,41.68157567555088,-87.68451406187205,"(41.68157567555088, -87.68451406187205)",2014-06-13
90088,06/13/2014,Completed - Dup,06/16/2014,14-00904500,Alley Light Out,9306 S FOREST AVE,60619.0,1179888.19917286,1843339.13358141,6.0,6.0,49.0,41.72539360034708,-87.61665495218504,"(41.725393600347076, -87.61665495218503)",2014-06-13
90089,06/13/2014,Completed,06/16/2014,14-00904043,Alley Light Out,512 W 118TH ST,60628.0,1174961.21661429,1826649.1989671001,34.0,5.0,53.0,41.67970511885173,-87.63519817763606,"(41.67970511885173, -87.63519817763604)",2014-06-13
90090,06/14/2014,Completed,06/16/2014,14-00904707,Alley Light Out,6954 W HOBART AVE,60631.0,1128591.59000267,1937486.4499705,41.0,16.0,10.0,41.98476722222304,-87.80242755324349,"(41.984767222223034, -87.80242755324349)",2014-06-14
90091,06/15/2014,Completed - Dup,06/16/2014,14-00908521,Alley Light Out,8928 S MERRILL AVE,60617.0,1192061.20370572,1846194.88272851,7.0,4.0,48.0,41.73294329004359,-87.57197292831799,"(41.73294329004359, -87.57197292831799)",2014-06-15
90092,06/15/2014,Completed - Dup,06/16/2014,14-00909802,Alley Light Out,7801 S SOUTH SHORE DR,60649.0,1197567.46680355,1854365.95459019,7.0,4.0,43.0,41.75522989502421,-87.55152938831776,"(41.75522989502421, -87.55152938831777)",2014-06-15
90093,06/15/2014,Completed - Dup,06/16/2014,14-00909814,Alley Light Out,7841 S PEORIA ST,60620.0,1171665.98471004,1852848.21439936,17.0,6.0,71.0,41.751671713547815,-87.64649514114485,"(41.75167171354781, -87.64649514114485)",2014-06-15
90094,06/16/2014,Completed - Dup,06/16/2014,14-00909855,Alley Light Out,11529 S AVENUE L,60617.0,1201917.62093202,1829119.01653235,10.0,4.0,52.0,41.68584079180581,-87.53644406461291,"(41.685840791805816, -87.5364440646129)",2014-06-16
90095,06/16/2014,Completed - Dup,06/16/2014,14-00910845,Alley Light Out,9929 S EMERALD AVE,60628.0,1173059.46001757,1839017.71999223,34.0,22.0,73.0,41.71368831533628,-87.64179592984365,"(41.71368831533628, -87.64179592984365)",2014-06-16
90096,06/16/2014,Completed - Dup,06/16/2014,14-00912283,Alley Light Out,1409 E 69TH PL,60637.0,1186830.81493286,1859193.96999142,5.0,3.0,43.0,41.768739411332724,-87.59072297320068,"(41.76873941133273, -87.59072297320068)",2014-06-16
90097,06/16/2014,Completed - Dup,06/16/2014,14-00912954,Alley Light Out,430 E 91ST PL,60619.0,1180719.6696698999,1844403.86998309,6.0,6.0,44.0,41.72829633088357,-87.61357665909235,"(41.72829633088357, -87.61357665909236)",2014-06-16
90098,06/16/2014,Completed - Dup,06/16/2014,14-00913136,Alley Light Out,8517 S COLFAX AVE,60617.0,1194977.33937332,1849004.07078992,7.0,4.0,46.0,41.74058065721327,-87.56119764449295,"(41.740580657213265, -87.56119764449296)",2014-06-16
90099,06/16/2014,Completed - Dup,06/16/2014,14-00914815,Alley Light Out,9810 S HAMILTON AVE,60643.0,1163759.50561858,1839562.45860953,19.0,22.0,72.0,41.7153830906385,-87.67584068270827,"(41.7153830906385, -87.67584068270826)",2014-06-16
90100,06/16/2014,Completed - Dup,06/16/2014,14-00915490,Alley Light Out,8611 S MANISTEE AVE,60617.0,1195983.16286771,1848407.84502093,7.0,4.0,46.0,41.738919741579146,-87.55753217825104,"(41.738919741579146, -87.55753217825104)",2014-06-16
90101,06/16/2014,Completed - Dup,06/16/2014,14-00916339,Alley Light Out,10949 S EGGLESTON AVE,60628.0,1175235.51801214,1832297.36520961,34.0,22.0,49.0,41.695198449834784,-87.634026285598,"(41.695198449834784, -87.634026285598)",2014-06-16
90102,06/16/2014,Completed - Dup,06/16/2014,14-00917507,Alley Light Out,8611 S MANISTEE AVE,60617.0,1195983.16286771,1848407.84502093,7.0,4.0,46.0,41.738919741579146,-87.55753217825104,"(41.738919741579146, -87.55753217825104)",2014-06-16
90103,06/16/2014,Completed - Dup,06/16/2014,14-00917705,Alley Light Out,5106 W WINONA ST,60630.0,1141401.06479886,1933766.19327011,45.0,16.0,11.0,41.974330998231295,-87.75540729838318,"(41.9743309982313, -87.75540729838318)",2014-06-16
90104,06/16/2014,Completed - Dup,06/16/2014,14-00917718,Alley Light Out,140 W 116TH ST,60628.0,1177302.37860954,1827685.43417879,34.0,5.0,53.0,41.68249632945257,-87.62659741284945,"(41.68249632945257, -87.62659741284945)",2014-06-16
90105,06/16/2014,Completed,06/16/2014,14-00917525,Alley Light Out,5759 S HAMILTON AVE,60636.0,1163022.08999472,1866454.97001994,15.0,7.0,67.0,41.789195524958565,-87.677791008629,"(41.78919552495856, -87.677791008629)",2014-06-16
90109,06/03/2014,Completed,06/17/2014,14-00833466,Alley Light Out,10428 S CALUMET AVE,60628.0,1180422.69139846,1835895.36857109,9.0,5.0,49.0,41.70495472359981,-87.6149246147191,"(41.70495472359981, -87.61492461471911)",2014-06-03
90110,06/03/2014,Completed,06/17/2014,14-00836988,Alley Light Out,11549 S LOOMIS ST,60643.0,1169071.34587229,1828162.03552586,34.0,5.0,53.0,41.683985540471,-87.65671422416081,"(41.683985540471, -87.6567142241608)",2014-06-03
90111,06/03/2014,Completed,06/17/2014,14-00837058,Alley Light Out,11230 S TALMAN AVE,60655.0,1160723.09742459,1830056.61829005,19.0,22.0,75.0,41.68936048263236,-87.6872226952465,"(41.68936048263236, -87.6872226952465)",2014-06-03
90112,06/04/2014,Completed,06/17/2014,14-00839141,Alley Light Out,2444 W 117TH ST,60655.0,1162093.73550034,1826983.20123137,19.0,22.0,75.0,41.680898147009366,-87.68228979941598,"(41.680898147009366, -87.68228979941598)",2014-06-04
90113,06/05/2014,Completed - Dup,06/17/2014,14-00850889,Alley Light Out,1600 W 101ST ST,60643.0,1167448.47179543,1837659.5101077,19.0,22.0,72.0,41.71008300149106,-87.66238423294666,"(41.710083001491064, -87.66238423294665)",2014-06-05
90114,06/05/2014,Completed,06/17/2014,14-00850902,Alley Light Out,1452 W 103RD ST,60643.0,1168347.3520978,1836448.44072727,19.0,22.0,72.0,41.70674036882213,-87.65912710287779,"(41.706740368822125, -87.65912710287778)",2014-06-05
90115,06/05/2014,Completed,06/17/2014,14-00852176,Alley Light Out,533 E 44TH PL,60653.0,1180567.4588751001,1875626.68998195,3.0,2.0,38.0,41.813978398043936,-87.61317652507365,"(41.813978398043936, -87.61317652507365)",2014-06-05
90116,06/07/2014,Completed,06/17/2014,14-00860503,Alley Light Out,10054 S CARPENTER ST,60643.0,1171091.76531247,1838138.68988934,34.0,22.0,73.0,41.71131926674144,-87.64902793653324,"(41.711319266741434, -87.64902793653324)",2014-06-07
90117,06/07/2014,Completed,06/17/2014,14-00861130,Alley Light Out,1246 W 97TH PL,60643.0,1169725.20499758,1840190.51081972,21.0,22.0,73.0,41.71697946899457,-87.65397331548425,"(41.716979468994566, -87.65397331548427)",2014-06-07
90118,06/09/2014,Completed,06/17/2014,14-00872137,Alley Light Out,923 E 42ND PL,60653.0,1183152.7277105,1877107.58992622,4.0,2.0,36.0,41.81798225265962,-87.603647521348,"(41.81798225265962, -87.603647521348)",2014-06-09
90119,06/09/2014,Completed,06/17/2014,14-00874021,Alley Light Out,5024 S ST LAWRENCE AVE,60615.0,1181108.38586691,1871739.16519689,4.0,2.0,38.0,41.80329825572619,-87.6113121782044,"(41.80329825572619, -87.61131217820441)",2014-06-09
90120,06/10/2014,Completed,06/17/2014,14-00881225,Alley Light Out,9925 S EMERALD AVE,60628.0,1173058.76001757,1839044.51999223,34.0,22.0,73.0,41.7137618738579,-87.64179770518604,"(41.7137618738579, -87.64179770518604)",2014-06-10
90121,06/10/2014,Completed,06/17/2014,14-00881771,Alley Light Out,3812 N KEELER AVE,60641.0,1147726.29060219,1925012.83103431,38.0,17.0,16.0,41.950191665073355,-87.73237312832865,"(41.95019166507335, -87.73237312832865)",2014-06-10
90122,06/11/2014,Completed - Dup,06/17/2014,14-00890451,Alley Light Out,9925 S EMERALD AVE,60628.0,1173058.76001757,1839044.51999223,34.0,22.0,73.0,41.7137618738579,-87.64179770518604,"(41.7137618738579, -87.64179770518604)",2014-06-11
90123,06/11/2014,Completed,06/17/2014,14-00882502,Alley Light Out,7034 N RIDGE BLVD,60645.0,1161205.92819817,1946852.17950213,50.0,24.0,2.0,42.0098496707811,-87.68221294695427,"(42.0098496707811, -87.68221294695427)",2014-06-11
90124,06/11/2014,Completed,06/17/2014,14-00884652,Alley Light Out,4236 N TRIPP AVE,60641.0,1147237.4869711,1927815.11332131,38.0,17.0,16.0,41.95789074284469,-87.73409791244259,"(41.95789074284469, -87.73409791244259)",2014-06-11
90125,06/11/2014,Completed,06/17/2014,14-00888525,Alley Light Out,2842 W CULLOM AVE,60618.0,1156550.28427114,1928433.04353323,33.0,17.0,16.0,41.95940257644714,-87.69984390486749,"(41.95940257644714, -87.6998439048675)",2014-06-11
90126,06/13/2014,Completed,06/17/2014,14-00902649,Alley Light Out,3637 N TROY ST,60618.0,1154740.8598876002,1924017.13628194,33.0,17.0,16.0,41.94732154814368,-87.70661487777882,"(41.94732154814368, -87.70661487777882)",2014-06-13
90127,06/13/2014,Completed,06/17/2014,14-00902652,Alley Light Out,9600 S MORGAN ST,60643.0,1171345.27986952,1841039.74271842,21.0,22.0,73.0,41.71927465297876,-87.64801494113769,"(41.71927465297876, -87.64801494113769)",2014-06-13
90128,06/13/2014,Completed,06/17/2014,14-00904539,Alley Light Out,1324 W WINONA ST,60640.0,1166521.47678914,1934331.5393882,46.0,20.0,3.0,41.975380132906345,-87.66301592499184,"(41.97538013290634, -87.66301592499185)",2014-06-13
90129,06/13/2014,Completed,06/17/2014,14-00904552,Alley Light Out,1355 W 115TH ST,60643.0,1169279.76611305,1828495.90037066,34.0,5.0,53.0,41.684897227090936,-87.65594165260454,"(41.684897227090936, -87.65594165260455)",2014-06-13
90130,06/14/2014,Completed,06/17/2014,14-00904942,Alley Light Out,9443 S BISHOP ST,60620.0,1168322.66349733,1842115.13398274,21.0,22.0,73.0,41.72229118286488,-87.659055002798,"(41.72229118286488, -87.659055002798)",2014-06-14
90131,06/15/2014,Completed - Dup,06/17/2014,14-00909404,Alley Light Out,3812 N KEELER AVE,60641.0,1147726.29060219,1925012.83103431,38.0,17.0,16.0,41.950191665073355,-87.73237312832865,"(41.95019166507335, -87.73237312832865)",2014-06-15
90132,06/15/2014,Completed,06/17/2014,14-00908474,Alley Light Out,4017 N WHIPPLE ST,60618.0,1155335.12718969,1926548.24008279,33.0,17.0,16.0,41.95425512021652,-87.7043622212607,"(41.954255120216516, -87.70436222126071)",2014-06-15
90133,06/15/2014,Completed,06/17/2014,14-00909596,Alley Light Out,3744 N LEAVITT ST,60618.0,1161025.80762314,1924945.40712269,47.0,19.0,5.0,41.94974034690328,-87.6834871685001,"(41.94974034690328, -87.6834871685001)",2014-06-15
90134,06/16/2014,Completed,06/17/2014,14-00910708,Alley Light Out,5536 N MAGNOLIA AVE,60640.0,1166964.77641375,1936908.53059749,48.0,20.0,77.0,41.98244194228693,-87.66131141825207,"(41.982441942286925, -87.66131141825207)",2014-06-16
90135,06/16/2014,Completed,06/17/2014,14-00911255,Alley Light Out,2052 W BRADLEY PL,60618.0,1162001.00129671,1924895.42070456,47.0,19.0,5.0,41.9495828357304,-87.6799038810587,"(41.949582835730396, -87.67990388105872)",2014-06-16
90136,06/16/2014,Completed,06/17/2014,14-00913700,Alley Light Out,5657 N MANGO AVE,60646.0,1136878.65621594,1937251.32558503,45.0,16.0,11.0,41.98397701709365,-87.77195376750778,"(41.98397701709365, -87.77195376750778)",2014-06-16
90137,06/16/2014,Completed,06/17/2014,14-00913866,Alley Light Out,9710 S GENOA AVE,60643.0,1170578.98300243,1840290.08363149,21.0,22.0,73.0,41.7172341820396,-87.65084341308801,"(41.7172341820396, -87.65084341308801)",2014-06-16
90138,06/16/2014,Completed,06/17/2014,14-00914170,Alley Light Out,4022 N SACRAMENTO AVE,60618.0,1155667.14088921,1926586.47037576,33.0,17.0,16.0,41.954353333557,-87.70314065601362,"(41.954353333557, -87.70314065601362)",2014-06-16
90139,06/16/2014,Completed,06/17/2014,14-00914188,Alley Light Out,4209 N WHIPPLE ST,60618.0,1155295.85440092,1927819.05237064,33.0,17.0,16.0,41.95774310106533,-87.70447231204605,"(41.957743101065326, -87.70447231204605)",2014-06-16
90140,06/16/2014,Completed,06/17/2014,14-00914596,Alley Light Out,6137 N CENTRAL PARK AVE,60659.0,1151272.3358886002,1940508.15671571,50.0,17.0,13.0,41.992642862056854,-87.71892962465478,"(41.99264286205685, -87.71892962465476)",2014-06-16
90141,06/16/2014,Completed,06/17/2014,14-00917261,Alley Light Out,1615 W JARVIS AVE,60626.0,1164333.68120851,1949112.92726763,49.0,24.0,1.0,42.015987348295795,-87.6706405275669,"(42.0159873482958, -87.6706405275669)",2014-06-16
90142,06/17/2014,Completed - Dup,06/17/2014,14-00918922,Alley Light Out,2528 N LINDER AVE,60639.0,1139286.17966843,1916267.33912076,30.0,25.0,19.0,41.92635134851433,-87.76361220492633,"(41.92635134851433, -87.76361220492635)",2014-06-17
90143,06/17/2014,Completed - Dup,06/17/2014,14-00919038,Alley Light Out,432 E 91ST PL,60619.0,1180733.0696699,1844404.26998309,6.0,6.0,44.0,41.7282971210488,-87.61352756035065,"(41.728297121048804, -87.61352756035066)",2014-06-17
90144,06/17/2014,Completed - Dup,06/17/2014,14-00919421,Alley Light Out,7720 S GREEN ST,60620.0,1171974.81758759,1853660.98989729,17.0,6.0,71.0,41.75389530310545,-87.64533959816191,"(41.753895303105445, -87.6453395981619)",2014-06-17
90145,06/17/2014,Completed - Dup,06/17/2014,14-00920536,Alley Light Out,12946 S COMMERCIAL AVE,60633.0,1198090.85522578,1819722.41233035,10.0,4.0,55.0,41.66015177422182,-87.5507651223073,"(41.66015177422182, -87.5507651223073)",2014-06-17
90146,06/17/2014,Completed - Dup,06/17/2014,14-00920795,Alley Light Out,11000 S AVENUE G,60617.0,1203191.08050278,1832634.43650582,10.0,4.0,52.0,41.69545499227674,-87.53166255345604,"(41.69545499227674, -87.53166255345604)",2014-06-17
90147,06/17/2014,Completed - Dup,06/17/2014,14-00921472,Alley Light Out,9133 S OGLESBY AVE,60617.0,1193427.27250102,1844867.24471375,7.0,4.0,48.0,41.72926686097797,-87.56701177820949,"(41.729266860977965, -87.5670117782095)",2014-06-17
90148,06/17/2014,Completed - Dup,06/17/2014,14-00923395,Alley Light Out,4509 S LECLAIRE AVE,60638.0,1143116.01318536,1874261.87500795,23.0,8.0,56.0,41.81101225346125,-87.75058699515188,"(41.81101225346125, -87.75058699515188)",2014-06-17
90149,06/17/2014,Completed - Dup,06/17/2014,14-00924745,Alley Light Out,2072 W LUNT AVE,60645.0,1161020.06238041,1946510.98106749,50.0,24.0,2.0,42.008917290322536,-87.68290634729044,"(42.00891729032254, -87.68290634729044)",2014-06-17
90150,06/17/2014,Completed - Dup,06/17/2014,14-00927658,Alley Light Out,9139 S OGLESBY AVE,60617.0,1193428.37250102,1844826.84471375,7.0,4.0,48.0,41.729155972779395,-87.56700906628335,"(41.729155972779395, -87.56700906628335)",2014-06-17
90151,06/17/2014,Completed,06/17/2014,14-00919574,Alley Light Out,10 E 112TH PL,60628.0,1178306.60580835,1830380.52957586,9.0,5.0,49.0,41.689869403847524,-87.62283999341213,"(41.68986940384752, -87.62283999341214)",2014-06-17
90152,06/17/2014,Completed,06/17/2014,14-00919585,Alley Light Out,10 E 113TH ST,60628.0,1178316.33243297,1830048.5879173,9.0,5.0,49.0,41.68895828739052,-87.62281440774576,"(41.68895828739052, -87.62281440774576)",2014-06-17
90153,06/17/2014,Completed,06/17/2014,14-00920495,Alley Light Out,1741 W 21ST ST,60608.0,1165083.83389625,1890121.40283322,25.0,12.0,31.0,41.85409542125488,-87.66956086348839,"(41.85409542125488, -87.66956086348839)",2014-06-17
90154,06/17/2014,Completed,06/17/2014,14-00921535,Alley Light Out,6900 S MERRILL AVE,60649.0,1191735.08698571,1859638.52111988,5.0,3.0,43.0,41.76984169143832,-87.57273224291167,"(41.76984169143832, -87.57273224291166)",2014-06-17
90155,06/17/2014,Completed,06/17/2014,14-00924865,Alley Light Out,3135 N RACINE AVE,60657.0,1167734.53666919,1921077.52991161,44.0,19.0,6.0,41.938984490180076,-87.65893866896894,"(41.93898449018008, -87.65893866896894)",2014-06-17
90156,06/17/2014,Completed,06/17/2014,14-00924873,Alley Light Out,3113 N RACINE AVE,60657.0,1167742.05621665,1920869.2866116,44.0,19.0,6.0,41.938412898398255,-87.65891705394353,"(41.93841289839825, -87.65891705394351)",2014-06-17
90176,06/02/2014,Completed,06/18/2014,14-00822330,Alley Light Out,5308 S MCVICKER AVE,60638.0,1136936.16733435,1868764.50341968,23.0,8.0,56.0,41.79603928201872,-87.77338597131117,"(41.79603928201872, -87.77338597131117)",2014-06-02
90177,06/02/2014,Completed,06/18/2014,14-00828235,Alley Light Out,3259 N RACINE AVE,60657.0,1167710.34998576,1921853.83000625,44.0,19.0,6.0,41.94111521594112,-87.65900511735485,"(41.941115215941124, -87.65900511735485)",2014-06-02
90178,06/03/2014,Completed,06/18/2014,14-00835936,Alley Light Out,5110 S MERRIMAC AVE,60638.0,1135567.53817855,1870036.37880471,23.0,8.0,56.0,41.79955388647422,-87.77837481826143,"(41.79955388647422, -87.77837481826143)",2014-06-03
90179,06/04/2014,Completed,06/18/2014,14-00837434,Alley Light Out,5116 S KEATING AVE,60632.0,1145559.38890593,1870226.19986632,23.0,8.0,56.0,41.79989191978286,-87.74172664449449,"(41.79989191978286, -87.7417266444945)",2014-06-04
90180,06/04/2014,Completed,06/18/2014,14-00837437,Alley Light Out,5204 S KEATING AVE,60632.0,1145574.00040935,1869656.84377806,23.0,8.0,56.0,41.798329240715105,-87.74168743070221,"(41.7983292407151, -87.7416874307022)",2014-06-04
90181,06/04/2014,Completed,06/18/2014,14-00837439,Alley Light Out,5320 S KEATING AVE,60632.0,1145592.05918415,1869002.43423232,23.0,8.0,56.0,41.796533095880655,-87.74163772354906,"(41.79653309588066, -87.74163772354906)",2014-06-04
90182,06/09/2014,Completed,06/18/2014,14-00870789,Alley Light Out,1010 W VERMONT ST,60643.0,1171898.2699,1819725.4988,34.0,5.0,53.0,41.66077287602661,-87.6466118641651,"(41.660772876026606, -87.6466118641651)",2014-06-09
90183,06/10/2014,Completed - Dup,06/18/2014,14-00876548,Alley Light Out,5718 S MASON AVE,60638.0,1137688.95732934,1866045.94682493,23.0,8.0,56.0,41.788565597050436,-87.77069063058175,"(41.788565597050436, -87.77069063058177)",2014-06-10
90184,06/10/2014,Completed,06/18/2014,14-00876379,Alley Light Out,3251 N RACINE AVE,60657.0,1167711.54998576,1921814.13000625,44.0,19.0,6.0,41.94100625140555,-87.65900185474625,"(41.941006251405554, -87.65900185474625)",2014-06-10
90185,06/11/2014,Completed,06/18/2014,14-00883660,Alley Light Out,5711 N MAJOR AVE,60646.0,1137211.87938244,1937597.28562506,45.0,16.0,11.0,41.984920360523844,-87.77071984681568,"(41.984920360523844, -87.77071984681568)",2014-06-11
90186,06/11/2014,Completed,06/18/2014,14-00889347,Alley Light Out,1532 N KEELER AVE,60651.0,1148101.48010418,1909882.86468807,30.0,25.0,23.0,41.90866644354464,-87.73138441467108,"(41.90866644354464, -87.73138441467108)",2014-06-11
90187,06/11/2014,Completed,06/18/2014,14-00890296,Alley Light Out,5232 N NATOMA AVE,60656.0,1131254.12742886,1934500.46001963,41.0,16.0,10.0,41.97652767569039,-87.79270415288285,"(41.97652767569039, -87.79270415288285)",2014-06-11
90188,06/12/2014,Completed - Dup,06/18/2014,14-00893497,Alley Light Out,11831 S LAFLIN ST,60643.0,1168463.0105978998,1826276.98898435,34.0,5.0,53.0,41.67882574047852,-87.65899516188337,"(41.678825740478516, -87.65899516188338)",2014-06-12
90189,06/12/2014,Completed - Dup,06/18/2014,14-00897869,Alley Light Out,3200 W 79TH ST,60652.0,1156417.216028,1852064.73100572,18.0,8.0,70.0,41.749842165774744,-87.7023961548615,"(41.74984216577474, -87.7023961548615)",2014-06-12
90190,06/12/2014,Completed,06/18/2014,14-00891152,Alley Light Out,5800 S MOBILE AVE,60638.0,1135381.66667765,1865421.51122427,23.0,8.0,56.0,41.78689315552619,-87.77916556854406,"(41.786893155526194, -87.77916556854406)",2014-06-12
90191,06/12/2014,Completed,06/18/2014,14-00892916,Alley Light Out,5118 W WASHINGTON BLVD,60644.0,1142186.69500478,1900021.55761552,28.0,15.0,25.0,41.881717703803595,-87.75335762369802,"(41.88171770380359, -87.75335762369801)",2014-06-12
90192,06/12/2014,Completed,06/18/2014,14-00892951,Alley Light Out,5141 W WASHINGTON BLVD,60644.0,1142003.19500478,1900045.25761552,28.0,15.0,25.0,41.88178614052299,-87.75403085236584,"(41.88178614052299, -87.75403085236584)",2014-06-12
90193,06/13/2014,Completed,06/18/2014,14-00904662,Alley Light Out,3819 W POLK ST,60624.0,1151088.57189773,1896096.7467172001,24.0,11.0,26.0,41.87077785492381,-87.72077273039301,"(41.87077785492381, -87.720772730393)",2014-06-13
90194,06/14/2014,Completed,06/18/2014,14-00907050,Alley Light Out,1237 S HARDING AVE,60623.0,1150242.46988628,1894169.47270357,24.0,10.0,29.0,41.865505718142096,-87.72392931952825,"(41.865505718142096, -87.72392931952825)",2014-06-14
90195,06/15/2014,Completed - Dup,06/18/2014,14-00907241,Alley Light Out,5909 W 58TH ST,60638.0,1137944.61027946,1865506.85538002,23.0,8.0,56.0,41.78708163981323,-87.76976618151286,"(41.78708163981323, -87.76976618151288)",2014-06-15
90196,06/15/2014,Completed - Dup,06/18/2014,14-00909467,Alley Light Out,4825 N TRIPP AVE,60630.0,1147178.65443373,1931729.74960272,39.0,17.0,14.0,41.96863392961754,-87.73421357486424,"(41.96863392961754, -87.73421357486424)",2014-06-15
90197,06/15/2014,Completed,06/18/2014,14-00908571,Alley Light Out,135 N LARAMIE AVE,60644.0,1141689.07382762,1900582.36010628,28.0,15.0,25.0,41.88326582944345,-87.75517102686064,"(41.88326582944345, -87.75517102686064)",2014-06-15
90198,06/15/2014,Completed,06/18/2014,14-00909696,Alley Light Out,1333 W SCHOOL ST,60657.0,1166825.16259159,1922026.68729133,44.0,19.0,6.0,41.94160860628914,-87.66225352893831,"(41.94160860628913, -87.66225352893832)",2014-06-15
90199,06/15/2014,Completed,06/18/2014,14-00909730,Alley Light Out,3253 S ABERDEEN ST,60608.0,1169513.57761981,1883151.28562688,11.0,9.0,60.0,41.834873679948025,-87.6535045540184,"(41.834873679948025, -87.65350455401841)",2014-06-15
90200,06/16/2014,Completed - Dup,06/18/2014,14-00910090,Alley Light Out,12234 S ABERDEEN ST,60643.0,1171210.54136769,1823674.74701563,34.0,5.0,53.0,41.67162530228652,-87.64901376405369,"(41.67162530228652, -87.64901376405369)",2014-06-16
90201,06/16/2014,Completed - Dup,06/18/2014,14-00914295,Alley Light Out,10833 S EWING AVE,60617.0,1202192.34590935,1833735.05963233,10.0,4.0,52.0,41.69850064796075,-87.53528182205599,"(41.69850064796075, -87.53528182205599)",2014-06-16
90202,06/16/2014,Completed - Dup,06/18/2014,14-00917923,Alley Light Out,4824 N KEELER AVE,60630.0,1147514.28751477,1931729.59671929,39.0,17.0,14.0,41.96862706304355,-87.73297945729843,"(41.96862706304355, -87.73297945729844)",2014-06-16
90203,06/16/2014,Completed,06/18/2014,14-00912206,Alley Light Out,5324 N LAPORTE AVE,60630.0,1142323.55980879,1935347.34618668,45.0,16.0,12.0,41.978652677818225,-87.75197551374657,"(41.978652677818225, -87.75197551374656)",2014-06-16
90204,06/16/2014,Completed,06/18/2014,14-00914148,Alley Light Out,3014 W IRVING PARK RD,60618.0,1155671.54088921,1926439.47037576,33.0,17.0,16.0,41.953949867365424,-87.70312845479366,"(41.95394986736542, -87.70312845479366)",2014-06-16
90205,06/16/2014,Completed,06/18/2014,14-00916221,Alley Light Out,3001 W WELLINGTON AVE,60618.0,1155848.99942505,1919794.40000834,35.0,14.0,21.0,41.935711758641354,-87.70265583158312,"(41.93571175864135, -87.70265583158313)",2014-06-16
90206,06/16/2014,Completed,06/18/2014,14-00917649,Alley Light Out,6536 S CHAMPLAIN AVE,60637.0,1181690.94090508,1861815.33779835,20.0,3.0,42.0,41.776052935180935,-87.60948212038922,"(41.77605293518094, -87.60948212038922)",2014-06-16
90207,06/16/2014,Completed,06/18/2014,14-00917735,Alley Light Out,5559 S MAYFIELD AVE,60638.0,1137983.17831283,1867116.29857865,23.0,8.0,56.0,41.791497541834104,-87.76958607244471,"(41.7914975418341, -87.76958607244471)",2014-06-16
90208,06/17/2014,Completed - Dup,06/18/2014,14-00920332,Alley Light Out,7726 S TRUMBULL AVE,60652.0,1154719.66990192,1853163.63356836,18.0,8.0,70.0,41.75289172556497,-87.7085875144338,"(41.75289172556497, -87.70858751443379)",2014-06-17
90209,06/17/2014,Completed - Dup,06/18/2014,14-00927187,Alley Light Out,1010 W VERMONT ST,60643.0,1171898.2699,1819725.4988,34.0,5.0,53.0,41.66077287602661,-87.6466118641651,"(41.660772876026606, -87.6466118641651)",2014-06-17
90210,06/17/2014,Completed - Dup,06/18/2014,14-00927792,Alley Light Out,8045 S AVALON AVE,60619.0,1185942.52618908,1851899.47916907,8.0,4.0,45.0,41.74874363459264,-87.59420868248037,"(41.748743634592635, -87.59420868248037)",2014-06-17
90211,06/17/2014,Completed - Dup,06/18/2014,14-00927927,Alley Light Out,2211 N MOODY AVE,60639.0,1135043.38797852,1914086.35472355,29.0,25.0,19.0,41.92044277152717,-87.77925452580297,"(41.92044277152717, -87.77925452580297)",2014-06-17
90212,06/17/2014,Completed,06/18/2014,14-00920566,Alley Light Out,3609 N KIMBALL AVE,60618.0,1153082.0737191,1923790.40968966,35.0,17.0,16.0,41.94673251486279,-87.71271820502174,"(41.94673251486279, -87.71271820502174)",2014-06-17
90213,06/17/2014,Completed,06/18/2014,14-00920611,Alley Light Out,3001 N SPAULDING AVE,60618.0,1153863.1987753,1919775.56098808,35.0,14.0,21.0,41.93569991793826,-87.70995432502617,"(41.93569991793826, -87.70995432502617)",2014-06-17
90214,06/17/2014,Completed,06/18/2014,14-00921050,Alley Light Out,7722 S TRUMBULL AVE,60652.0,1154718.86990192,1853190.83356836,18.0,8.0,70.0,41.75296638274853,-87.70858972234585,"(41.75296638274853, -87.70858972234585)",2014-06-17
90215,06/17/2014,Completed,06/18/2014,14-00921190,Alley Light Out,3100 W POLK ST,60612.0,1155826.46982629,1896205.31868743,24.0,11.0,27.0,41.87098169117836,-87.70337525040209,"(41.87098169117836, -87.70337525040209)",2014-06-17
90216,06/18/2014,Completed - Dup,06/18/2014,14-00929309,Alley Light Out,9138 S HALSTED ST,60620.0,1172580.86677384,1844253.27416632,21.0,22.0,73.0,41.72806595855521,-87.64339504502044,"(41.72806595855521, -87.64339504502044)",2014-06-18
90217,06/18/2014,Completed - Dup,06/18/2014,14-00931231,Alley Light Out,7715 S YATES BLVD,60649.0,1193538.34817743,1854277.11998738,7.0,4.0,43.0,41.755085650123185,-87.56629763677653,"(41.75508565012318, -87.56629763677651)",2014-06-18
90218,06/18/2014,Completed - Dup,06/18/2014,14-00931651,Alley Light Out,8343 S SAGINAW AVE,60617.0,1195284.28898016,1850162.80963322,7.0,4.0,46.0,41.74375276803136,-87.56003488438526,"(41.74375276803136, -87.56003488438527)",2014-06-18
90219,06/18/2014,Completed - Dup,06/18/2014,14-00932148,Alley Light Out,8922 S BLACKSTONE AVE,60619.0,1187674.80587933,1846115.63981777,8.0,4.0,48.0,41.73283119199653,-87.58804461650766,"(41.73283119199653, -87.58804461650767)",2014-06-18
90220,06/18/2014,Completed - Dup,06/18/2014,14-00932234,Alley Light Out,244 W 111TH ST,60628.0,1176622.71121334,1831330.56681457,34.0,5.0,49.0,41.692514394393186,-87.62897629307797,"(41.692514394393186, -87.62897629307797)",2014-06-18
90221,06/18/2014,Completed - Dup,06/18/2014,14-00934353,Alley Light Out,9431 S EBERHART AVE,60619.0,1181231.93477631,1842546.13293365,9.0,6.0,49.0,41.723186704645435,-87.61175718968187,"(41.72318670464544, -87.61175718968187)",2014-06-18
90222,06/18/2014,Completed - Dup,06/18/2014,14-00936573,Alley Light Out,600 W 129TH PL,60628.0,1174684.23357843,1818786.15790865,9.0,5.0,53.0,41.65813380239108,-87.63644480669858,"(41.65813380239108, -87.63644480669856)",2014-06-18
90223,06/18/2014,Completed,06/18/2014,14-00935076,Alley Light Out,11044 S AVENUE H,60617.0,1202864.20052542,1832340.06340151,10.0,4.0,52.0,41.69465554963161,-87.53286935503151,"(41.694655549631605, -87.53286935503152)",2014-06-18
90224,06/18/2014,Completed,06/18/2014,14-00936248,Alley Light Out,5947 N MCCOOK AVE,60646.0,1135012.59000426,1939165.61998919,45.0,16.0,10.0,41.98926336236196,-87.77877139761307,"(41.98926336236196, -87.77877139761307)",2014-06-18
90225,06/18/2014,Completed,06/18/2014,14-00937121,Alley Light Out,407 N STATE ST,60654.0,1176295.21801203,1903094.30770004,42.0,18.0,8.0,41.889448678104536,-87.62801979019062,"(41.88944867810454, -87.62801979019062)",2014-06-18
90240,06/05/2014,Completed - Dup,06/19/2014,14-00849615,Alley Light Out,10008 S MORGAN ST,60643.0,1171415.1800788,1838453.0326086003,34.0,22.0,73.0,41.71217481095572,-87.64783435111063,"(41.71217481095572, -87.64783435111063)",2014-06-05
90241,06/10/2014,Completed - Dup,06/19/2014,14-00877715,Alley Light Out,10008 S MORGAN ST,60643.0,1171415.1800788,1838453.0326086003,34.0,22.0,73.0,41.71217481095572,-87.64783435111063,"(41.71217481095572, -87.64783435111063)",2014-06-10
90242,06/11/2014,Completed,06/19/2014,14-00890508,Alley Light Out,5524 N SPAULDING AVE,60625.0,1153385.66600038,1936523.00061436,40.0,17.0,13.0,41.98166551563029,-87.71126249988907,"(41.98166551563029, -87.71126249988907)",2014-06-11
90243,06/12/2014,Completed,06/19/2014,14-00891456,Alley Light Out,2530 N RICHMOND ST,60647.0,1156276.11428123,1916810.73639402,35.0,14.0,22.0,41.92751573288579,-87.70116699887325,"(41.927515732885794, -87.70116699887325)",2014-06-12
90244,06/13/2014,Completed,06/19/2014,14-00901833,Alley Light Out,6441 N SACRAMENTO AVE,60645.0,1155168.9488749,1942572.70777692,50.0,24.0,2.0,41.99823047387631,-87.70454071336292,"(41.99823047387631, -87.70454071336292)",2014-06-13
90245,06/14/2014,Completed,06/19/2014,14-00907008,Alley Light Out,3525 N SEMINARY AVE,60657.0,1168316.16999668,1923710.35019885,44.0,19.0,6.0,41.946196489456675,-87.65672464999945,"(41.94619648945667, -87.65672464999945)",2014-06-14
90246,06/16/2014,Completed - Dup,06/19/2014,14-00913975,Alley Light Out,10008 S MORGAN ST,60643.0,1171415.1800788,1838453.0326086003,34.0,22.0,73.0,41.71217481095572,-87.64783435111063,"(41.71217481095572, -87.64783435111063)",2014-06-16
90247,06/17/2014,Completed - Dup,06/19/2014,14-00928110,Alley Light Out,8042 S KIMBARK AVE,60619.0,1186274.25152141,1851928.1338813999,8.0,4.0,45.0,41.74881443994251,-87.59299223242976,"(41.74881443994251, -87.59299223242976)",2014-06-17
90248,06/17/2014,Completed,06/19/2014,14-00920114,Alley Light Out,2415 N ST LOUIS AVE,60647.0,1152638.80993391,1915833.87261925,26.0,14.0,22.0,41.92490794662008,-87.7145586085889,"(41.924907946620074, -87.7145586085889)",2014-06-17
