SERVICE REQUEST TYPE,SERVICE REQUEST NUMBER,DATE SERVICE REQUEST WAS RECEIVED,"LOCATION OF BUILDING ON THE LOT (IF GARAGE, CHANGE TYPE CODE TO BGD).",IS THE BUILDING DANGEROUS OR HAZARDOUS?,IS BUILDING OPEN OR BOARDED?,"IF THE BUILDING IS OPEN, WHERE IS THE ENTRY POINT?",IS THE BUILDING CURRENTLY VACANT OR OCCUPIED?,IS THE BUILDING VACANT DUE TO FIRE?,"ANY PEOPLE USING PROPERTY? (HOMELESS, CHILDEN, GANGS)",ADDRESS STREET NUMBER,ADDRESS STREET DIRECTION,ADDRESS STREET NAME,ADDRESS STREET SUFFIX,ZIP CODE,X COORDINATE,Y COORDINATE,Ward,Police District,Community Area,LATITUDE,LONGITUDE,Location,date
Vacant/Abandoned Building,13-00005167,01/02/2013,,,,,,,,7840,S,MORGAN,ST,60620.0,1171004.46663227,1852836.53559331,17.0,6.0,71.0,41.75165413120225,-87.64891963226867,"(41.75165413120225, -87.64891963226867)",2013-01-02
Vacant/Abandoned Building,13-00000333,01/01/2013,Front,,Open,FRONT & REAR,Vacant,False,True,3239,N,OZANAM,AVE,60634.0,1123525.20641961,1920595.88461521,36.0,16.0,17.0,41.938502200720855,-87.82143271240513,"(41.938502200720855, -87.82143271240513)",2013-01-01
Vacant/Abandoned Building,13-00001024,01/01/2013,Front,,Open,REAR,Vacant,False,True,7325,S,WOLCOTT,AVE,60636.0,1164955.30512185,1856097.26176699,17.0,7.0,67.0,41.76073193385562,-87.67099502215801,"(41.76073193385562, -87.67099502215802)",2013-01-01
Vacant/Abandoned Building,13-00001894,01/01/2013,Rear,,Open,REAR,Vacant,False,True,1937,N,LAWNDALE,AVE,60647.0,1151398.96853185,1912759.69276879,26.0,25.0,22.0,41.91649658603093,-87.71919526933624,"(41.916496586030924, -87.71919526933623)",2013-01-01
Vacant/Abandoned Building,13-00001918,01/01/2013,Front,,Open,FRONT & REAR,Vacant,False,False,706,E,50TH,PL,60615.0,1181868.50758849,1871686.59778003,4.0,2.0,38.0,41.80313645070464,-87.6085261060884,"(41.80313645070464, -87.6085261060884)",2013-01-01
Vacant/Abandoned Building,13-00002225,01/02/2013,,,,,,,,33,E,120TH,ST,60628.0,1178603.27539484,1825405.74369693,9.0,5.0,53.0,41.6762111340306,-87.62190428179736,"(41.6762111340306, -87.62190428179736)",2013-01-02
Vacant/Abandoned Building,13-00002462,01/02/2013,,,,,,,,3030,S,WENTWORTH,AVE,60616.0,1175441.42458608,1884800.61156675,11.0,9.0,34.0,41.839268764592646,-87.63170430372546,"(41.83926876459265, -87.63170430372546)",2013-01-02
Vacant/Abandoned Building,13-00002465,01/02/2013,,,,,,,,3032,S,WENTWORTH,AVE,60616.0,1175441.72458608,1884789.61156675,11.0,9.0,34.0,41.83923857299628,-87.63170353260564,"(41.83923857299628, -87.63170353260564)",2013-01-02
Vacant/Abandoned Building,13-00002471,01/02/2013,,,,,,,,3620,S,CALUMET,AVE,60653.0,1179109.37151384,1881005.02101237,2.0,2.0,35.0,41.82877037486829,-87.61836070163368,"(41.82877037486829, -87.61836070163368)",2013-01-02
Vacant/Abandoned Building,13-00003271,01/02/2013,Front,,Open,,Vacant,False,False,5318,S,PEORIA,ST,60609.0,1171207.84006577,1869464.16797232,20.0,9.0,61.0,41.797277903227744,-87.64768857322565,"(41.79727790322774, -87.64768857322565)",2013-01-02
Vacant/Abandoned Building,13-00007606,01/02/2013,Front,,Open,REAR,Vacant,False,False,3426,S,PRAIRIE,AVE,60616.0,1178494.87649504,1882300.89168234,3.0,2.0,35.0,41.832340355013365,-87.62057577378515,"(41.83234035501337, -87.62057577378516)",2013-01-02
Vacant/Abandoned Building,13-00007763,01/02/2013,Front,,Open,THROUGH OPEN MISSING WINDOWS,Vacant,False,True,5710,S,THROOP,ST,60636.0,1168633.02372938,1866903.63326844,16.0,7.0,67.0,41.790307468119394,-87.6572046057259,"(41.79030746811939, -87.6572046057259)",2013-01-02
Vacant/Abandoned Building,13-00007849,01/02/2013,Front,,Open,FRONT,Vacant,False,True,7139,S,PEORIA,ST,60621.0,1171539.67537646,1857503.30093369,17.0,7.0,68.0,41.7644486281386,-87.64682187390905,"(41.7644486281386, -87.64682187390906)",2013-01-02
Vacant/Abandoned Building,13-00007924,01/02/2013,Rear,,Boarded,,Vacant,False,True,437,N,AVERS,AVE,60624.0,1150645.24001774,1902675.74000427,27.0,11.0,23.0,41.888840003552396,-87.72222838119802,"(41.8888400035524, -87.72222838119802)",2013-01-02
Vacant/Abandoned Building,13-00009227,01/03/2013,Rear,,Open,FRONT AND REAR,Vacant,False,True,4943,W,OHIO,ST,60644.0,1143296.61057602,1903538.75527081,37.0,15.0,25.0,41.89134866042864,-87.74919407609613,"(41.89134866042864, -87.74919407609613)",2013-01-03
Vacant/Abandoned Building,13-00009565,01/03/2013,Front,,Open,,Vacant,False,False,5331,S,LAFLIN,ST,60609.0,1167242.14820943,1869381.82629011,16.0,9.0,61.0,41.79713782685491,-87.66223364275915,"(41.79713782685491, -87.66223364275915)",2013-01-03
Vacant/Abandoned Building,13-00009603,01/03/2013,Front,,Open,,Vacant,False,False,5131,S,CENTRAL,AVE,60638.0,1139892.88349003,1870040.94906679,23.0,8.0,56.0,41.79948870244597,-87.76251221030502,"(41.79948870244597, -87.76251221030502)",2013-01-03
Vacant/Abandoned Building,13-00009630,01/03/2013,Rear,,Open,BACK BASEMENT DOOR,Vacant,False,False,1032,E,103RD ST,ER,60628.0,1184855.5155021,1839049.88390765,8.0,5.0,50.0,41.71350847328737,-87.59859377091577,"(41.71350847328737, -87.59859377091578)",2013-01-03
Vacant/Abandoned Building,13-00009647,01/03/2013,Front,,Open,REAR BASEMENT DOOR IS OPEN,Vacant,False,False,1028,E,103RD ST,ER,60628.0,1184829.3155021002,1839049.58390765,8.0,5.0,50.0,41.713508263527615,-87.59868973304687,"(41.713508263527615, -87.59868973304687)",2013-01-03
Vacant/Abandoned Building,13-00009655,01/03/2013,Front,,Open,"FRONT DOOR, BASEMENT DOOR AS WELL AS THE SIDE GARAGE DOOR.",Vacant,False,False,8752,S,HERMITAGE,AVE,60620.0,1166205.0369749,1846652.17752038,21.0,22.0,71.0,41.734786775011976,-87.66668288429938,"(41.73478677501198, -87.66668288429938)",2013-01-03
Vacant/Abandoned Building,13-00009788,01/03/2013,Front,,Open,SIDE,Vacant,False,False,3614,S,HERMITAGE,AVE,60609.0,1165275.02079671,1880750.09602478,11.0,9.0,59.0,41.828375564099275,-87.66912513536911,"(41.82837556409927, -87.66912513536911)",2013-01-03
Vacant/Abandoned Building,13-00010063,01/03/2013,Front,,Open,,Vacant,False,False,6008,S,PAULINA,ST,60636.0,1166039.08832443,1864858.92761822,15.0,7.0,67.0,41.784752127757116,-87.66677401299738,"(41.784752127757116, -87.66677401299737)",2013-01-03
Vacant/Abandoned Building,13-00010392,01/03/2013,Front,,Open,,Vacant,False,True,217,N,KOSTNER,AVE,60624.0,1147023.4111113998,1900801.80897495,28.0,11.0,26.0,41.883767734712094,-87.73557717998276,"(41.883767734712094, -87.73557717998277)",2013-01-03
Vacant/Abandoned Building,13-00010472,01/03/2013,Front,,Open,,Vacant,False,True,3713,W,CHICAGO,AVE,60651.0,1151434.81861408,1905083.80690853,27.0,11.0,23.0,41.89543251804857,-87.71926543729803,"(41.89543251804857, -87.71926543729803)",2013-01-03
Vacant/Abandoned Building,13-00010670,01/03/2013,Front,,Open,,Vacant,False,True,5151,S,PAULINA,ST,60609.0,1165882.35688157,1870544.37989799,16.0,9.0,61.0,41.80035703512493,-87.66718713461262,"(41.80035703512493, -87.66718713461263)",2013-01-03
Vacant/Abandoned Building,13-00010952,01/03/2013,Front,,Open,,Vacant,True,False,4446,W,MAYPOLE,AVE,60624.0,1146602.8598215,1901082.55489819,28.0,11.0,26.0,41.88454616181626,-87.73711433585426,"(41.88454616181626, -87.73711433585426)",2013-01-03
Vacant/Abandoned Building,13-00011555,01/03/2013,Front,,Open,OPEN IN FRONT WINDOWS AND DOORS IN BACK,Vacant,False,True,7309,S,ABERDEEN,ST,60621.0,1170247.52916804,1856341.35957969,17.0,7.0,68.0,41.76128831513848,-87.65159167254228,"(41.76128831513848, -87.65159167254228)",2013-01-03
Vacant/Abandoned Building,13-00011814,01/03/2013,Front,,Open,OPEN IN FRONT AND BACK,Vacant,False,True,7927,S,EMERALD,AVE,60620.0,1172676.76978425,1852306.75167716,17.0,6.0,71.0,41.75016366826379,-87.64280702028256,"(41.75016366826379, -87.64280702028255)",2013-01-03
Vacant/Abandoned Building,13-00012418,01/03/2013,Front,,Open,,Vacant,False,False,1542,S,KOMENSKY,AVE,60623.0,1149636.01421498,1892123.55341344,24.0,10.0,29.0,41.85990326243125,-87.72620877785944,"(41.85990326243125, -87.72620877785944)",2013-01-03
Vacant/Abandoned Building,13-00012424,01/03/2013,Front,,Open,,Vacant,False,False,1338,S,SPRINGFIELD,AVE,60623.0,1150593.18011069,1893504.573621,24.0,10.0,29.0,41.86367431833912,-87.72265919915962,"(41.863674318339115, -87.72265919915962)",2013-01-03
Vacant/Abandoned Building,13-00012427,01/03/2013,Front,,Open,,Vacant,False,False,1202,S,SPRINGFIELD,AVE,60623.0,1150566.27930845,1894413.36536963,24.0,10.0,29.0,41.8661686742395,-87.72273422289342,"(41.8661686742395, -87.72273422289342)",2013-01-03
Vacant/Abandoned Building,13-00012430,01/03/2013,Front,,Open,,Vacant,False,False,1302,S,SPRINGFIELD,AVE,60623.0,1150586.58011069,1893746.4736209998,24.0,10.0,29.0,41.86433824915653,-87.72267711114092,"(41.864338249156525, -87.72267711114092)",2013-01-03
Vacant/Abandoned Building,13-00012507,01/03/2013,Garage,,Open,,Vacant,False,True,7312,W,RASCHER,AVE,60656.0,1126563.68000442,1935114.95060648,41.0,16.0,10.0,41.978293836338686,-87.80993944522444,"(41.97829383633869, -87.80993944522444)",2013-01-03
Vacant/Abandoned Building,13-00012761,01/03/2013,Front,,Open,,Vacant,False,True,4133,W,CULLERTON,ST,60623.0,1149140.09992784,1890100.85209668,24.0,10.0,29.0,41.854362328979775,-87.7280814971738,"(41.85436232897977, -87.7280814971738)",2013-01-03
Vacant/Abandoned Building,13-00015423,01/04/2013,Front,,Open,,Vacant,False,True,50,E,37TH,ST,60653.0,1177378.34561091,1880483.63742231,3.0,2.0,35.0,41.827379013295285,-87.62472744168888,"(41.82737901329528, -87.62472744168888)",2013-01-04
Vacant/Abandoned Building,13-00015518,01/04/2013,Garage,,Open,,Vacant,False,False,842,W,61ST,ST,60621.0,1171632.93928057,1864397.54320589,16.0,7.0,68.0,41.78336520688161,-87.64627816420341,"(41.78336520688161, -87.6462781642034)",2013-01-04
Vacant/Abandoned Building,13-00015557,01/04/2013,Rear,,Open,,Vacant,False,False,5920,S,EMERALD,AVE,60621.0,1172310.74969844,1865635.02210707,16.0,7.0,68.0,41.78674609890433,-87.64375670213732,"(41.78674609890433, -87.64375670213731)",2013-01-04
Vacant/Abandoned Building,13-00015575,01/04/2013,Rear,,Open,2ND FLR BACK DOOR,Vacant,False,False,5956,S,GREEN,ST,60621.0,1171658.37261987,1865349.68889248,16.0,7.0,68.0,41.78597744530675,-87.64615701794958,"(41.78597744530675, -87.64615701794958)",2013-01-04
Vacant/Abandoned Building,13-00015590,01/04/2013,Rear,,Open,BASEMENT,Vacant,False,False,5920,S,GREEN,ST,60621.0,1171651.72242591,1865591.0525947,16.0,7.0,68.0,41.7866399204346,-87.64617432809496,"(41.7866399204346, -87.64617432809496)",2013-01-04
Vacant/Abandoned Building,13-00015607,01/04/2013,Rear,,Open,,Vacant,False,False,5937,S,PEORIA,ST,60621.0,1171322.45830715,1865467.64648051,16.0,7.0,68.0,41.786308494900034,-87.64738519021154,"(41.78630849490003, -87.64738519021155)",2013-01-04
Vacant/Abandoned Building,13-00015627,01/04/2013,Front,,Open,,Vacant,False,False,5800,S,PEORIA,ST,60621.0,1171298.24469827,1866379.05449803,16.0,7.0,68.0,41.78881003170878,-87.64744731118786,"(41.78881003170877, -87.64744731118786)",2013-01-04
Vacant/Abandoned Building,13-00016230,01/04/2013,Rear,,Open,REAR,Vacant,False,True,6341,S,WOODLAWN,AVE,60637.0,1185310.63012094,1863041.95998128,20.0,3.0,42.0,41.77933452115182,-87.5961742426463,"(41.77933452115181, -87.5961742426463)",2013-01-04
Vacant/Abandoned Building,13-00016434,01/04/2013,Front,,Open,THE ENTRY POINT IS IN THE FRONT.,Vacant,False,True,7046,S,ABERDEEN,ST,60621.0,1170200.11107688,1858082.23226925,17.0,7.0,68.0,41.76606652211503,-87.651714903997,"(41.766066522115025, -87.651714903997)",2013-01-04
Vacant/Abandoned Building,13-00016443,01/04/2013,Front,,Open,,Vacant,False,True,2617,N,RUTHERFORD,AVE,60707.0,1130975.57011289,1916656.36630254,36.0,25.0,18.0,41.92756634865469,-87.79414138866257,"(41.927566348654686, -87.79414138866257)",2013-01-04
Vacant/Abandoned Building,13-00017108,01/04/2013,Front,,Open,,Vacant,True,False,6158,S,TALMAN,AVE,60629.0,1159764.45589265,1863716.48640629,15.0,8.0,66.0,41.781748288534544,-87.68981089995705,"(41.781748288534544, -87.68981089995704)",2013-01-04
Vacant/Abandoned Building,13-00017717,01/04/2013,Front,,Open,BLDG IS OPEN IN FRONT,Vacant,False,False,3713,W,CHICAGO,AVE,60651.0,1151434.81861408,1905083.80690853,27.0,11.0,23.0,41.89543251804857,-87.71926543729803,"(41.89543251804857, -87.71926543729803)",2013-01-04
Vacant/Abandoned Building,13-00017805,01/04/2013,Front,,Open,ALL AROUND,Vacant,False,False,6429,S,CARPENTER,ST,60621.0,1170418.12548415,1862181.26061622,16.0,7.0,68.0,41.777310015260156,-87.65079657100803,"(41.77731001526016, -87.65079657100803)",2013-01-04
Vacant/Abandoned Building,13-00017899,01/04/2013,Front,,Open,ALL AROUND,Vacant,False,False,1938,W,GARFIELD,BLVD,60609.0,1164273.43997691,1868189.32079462,16.0,9.0,61.0,41.793928527525566,-87.6731538717913,"(41.79392852752556, -87.6731538717913)",2013-01-04
Vacant/Abandoned Building,13-00017932,01/04/2013,Front,,Open,ALL AROUND,Vacant,False,False,5354,S,HONORE,ST,60609.0,1164925.9703078999,1869184.17972342,16.0,9.0,61.0,41.79664476653904,-87.67073295684244,"(41.79664476653904, -87.67073295684244)",2013-01-04
Vacant/Abandoned Building,13-00017953,01/04/2013,Front,,Open,ALL AROUND,Vacant,False,False,5530,S,BISHOP,ST,60636.0,1167609.82011099,1867975.63600289,16.0,7.0,67.0,41.793271191346356,-87.66092567861223,"(41.79327119134636, -87.66092567861223)",2013-01-04
Vacant/Abandoned Building,13-00017980,01/04/2013,Front,,Open,ALL AROUND,Vacant,False,False,5518,S,LOOMIS,BLVD,60636.0,1167939.73237269,1868049.9258209,16.0,7.0,67.0,41.793467963940614,-87.65971378741432,"(41.79346796394062, -87.65971378741432)",2013-01-04
Vacant/Abandoned Building,13-00018011,01/04/2013,Front,,Boarded,,Vacant,True,False,2559,W,36TH,ST,60632.0,1159822.73242446,1880708.51972332,12.0,9.0,58.0,41.828375407988034,-87.68913031180028,"(41.82837540798803, -87.6891303118003)",2013-01-04
Vacant/Abandoned Building,13-00018180,01/04/2013,,,,,,,,7652,S,VINCENNES,AVE,60620.0,1175393.58412268,1854146.70042589,17.0,6.0,69.0,41.75515244664944,-87.63279654244825,"(41.75515244664944, -87.63279654244825)",2013-01-04
Vacant/Abandoned Building,13-00019009,01/05/2013,Front,,Open,FRONT/REAR,Vacant,True,False,4044,W,WILCOX,ST,60624.0,1149454.25756937,1899028.9821832,28.0,11.0,26.0,41.87885609109296,-87.72669682850504,"(41.87885609109296, -87.72669682850503)",2013-01-05
Vacant/Abandoned Building,13-00019567,01/05/2013,Front,,Open,FRONT AND BACK,Vacant,False,True,1038,W,103RD,ST,60643.0,1171101.47979219,1836514.08262143,34.0,22.0,73.0,41.70686088613322,-87.64903964060795,"(41.706860886133214, -87.64903964060795)",2013-01-05
Vacant/Abandoned Building,13-00019690,01/05/2013,Front,,Open,FRONT,Vacant,False,False,5028,S,MICHIGAN,AVE,60615.0,1178008.52727229,1871715.97351438,3.0,2.0,38.0,41.80330550921376,-87.62268144030746,"(41.803305509213764, -87.62268144030747)",2013-01-05
Vacant/Abandoned Building,13-00019720,01/05/2013,Garage,,Open,,Vacant,False,True,6148,S,LANGLEY,AVE,60637.0,1181949.71349014,1864395.68642617,20.0,3.0,42.0,41.78312767333426,-87.60845375116365,"(41.783127673334256, -87.60845375116365)",2013-01-05
Vacant/Abandoned Building,13-00019822,01/05/2013,Front,,Open,"FRONT, REAR,",Vacant,False,True,833,N,ST LOUIS,AVE,60651.0,1152895.6607755,1905334.27558024,27.0,11.0,23.0,41.89609101239742,-87.71389344079017,"(41.89609101239742, -87.71389344079017)",2013-01-05
Vacant/Abandoned Building,13-00019849,01/05/2013,Front,,Open,FRONT AND BASEMENT,Vacant,False,False,3857,W,FLOURNOY,ST,60624.0,1150793.70512576,1896752.51906986,24.0,11.0,26.0,41.87258313762828,-87.72183814548917,"(41.872583137628276, -87.72183814548917)",2013-01-05
Vacant/Abandoned Building,13-00019918,01/05/2013,Rear,,Open,GARAGE OPEN APPEARS SOMEONE IS LIVING INSIDE,Vacant,False,True,6510,S,ARTESIAN,AVE,60629.0,1161160.0031978001,1861419.23380605,15.0,8.0,66.0,41.77541553571098,-87.68475797373594,"(41.775415535710984, -87.68475797373593)",2013-01-05
Vacant/Abandoned Building,13-00020004,01/05/2013,Rear,,Open,REAR,Vacant,False,True,169,N,LOCKWOOD,AVE,60644.0,1141016.49412309,1900769.18039966,28.0,15.0,25.0,41.88379089533403,-87.75763621348312,"(41.88379089533403, -87.75763621348312)",2013-01-05
Vacant/Abandoned Building,13-00020345,01/05/2013,Rear,,Open,REAR DOOR ALL THE LOCKS ON THE DOORS AND EVERYTHING WAS STOLEN,Vacant,False,True,6812,W,MEDILL,AVE,60707.0,1130570.9985968,1914763.19091114,36.0,25.0,18.0,41.9223782137026,-87.79567167825918,"(41.9223782137026, -87.79567167825918)",2013-01-05
Vacant/Abandoned Building,13-00020569,01/06/2013,Front,,Open,FRONT & REAR,Vacant,False,True,6619,S,ROCKWELL,ST,60629.0,1160180.51217939,1860663.33330803,15.0,8.0,66.0,41.773361452128135,-87.68836947854204,"(41.77336145212814, -87.68836947854204)",2013-01-06
Vacant/Abandoned Building,13-00020743,01/06/2013,Front,,Open,FRONT DOOR,Vacant,False,True,3259,W,FLOURNOY,ST,60624.0,1154742.86769443,1896846.96279828,24.0,11.0,27.0,41.87276418375172,-87.70733638107059,"(41.87276418375172, -87.70733638107059)",2013-01-06
Vacant/Abandoned Building,13-00020802,01/06/2013,Front,,Open,FRONT,Vacant,False,True,4512,W,HARRISON,ST,60624.0,1146309.5699003001,1896975.08220266,24.0,11.0,26.0,41.873280358265966,-87.73829592167641,"(41.87328035826597, -87.7382959216764)",2013-01-06
Vacant/Abandoned Building,13-00021285,01/06/2013,Front,,Open,"FRONT, REAR",Vacant,False,True,6825,S,MAPLEWOOD,AVE,60629.0,1160550.19447987,1859309.36720295,15.0,8.0,66.0,41.76963835974437,-87.6870515976919,"(41.76963835974437, -87.6870515976919)",2013-01-06
Vacant/Abandoned Building,13-00021340,01/06/2013,Front,,Boarded,REAR,Vacant,False,True,3231,S,SPRINGFIELD,AVE,60623.0,1150887.13419736,1882892.48482806,22.0,10.0,30.0,41.83454768769154,-87.72185749374611,"(41.83454768769154, -87.72185749374611)",2013-01-06
Vacant/Abandoned Building,13-00021546,01/06/2013,Front,,Boarded,REAR,Vacant,False,True,1971,W,111TH,ST,60643.0,1165154.25996769,1831032.57996959,19.0,22.0,75.0,41.691946341169135,-87.67097269621813,"(41.691946341169135, -87.67097269621813)",2013-01-06
Vacant/Abandoned Building,13-00021713,01/06/2013,Front,,Open,ALL BSMNT WINDOWS WERE BOARDED UP BY FIRE DPT,Vacant,False,True,3206,S,HOYNE,AVE,60608.0,1162864.33007769,1883400.36608323,12.0,9.0,59.0,41.83569899866503,-87.67789557185594,"(41.83569899866503, -87.67789557185596)",2013-01-06
Vacant/Abandoned Building,13-00021842,01/06/2013,Front,,Open,,Vacant,False,False,5019,S,RACINE,AVE,60609.0,1169171.63797573,1871505.13922545,16.0,9.0,61.0,41.80292288077431,-87.65509652934138,"(41.80292288077431, -87.65509652934138)",2013-01-06
Vacant/Abandoned Building,13-00022358,01/07/2013,Front,,Open,ALL AROUND,Vacant,True,False,4247,W,VAN BUREN,ST,60624.0,1148142.31040779,1897684.07786877,24.0,11.0,26.0,41.8751908637111,-87.73154871687805,"(41.8751908637111, -87.73154871687804)",2013-01-07
Vacant/Abandoned Building,13-00022668,01/07/2013,Front,,Open,,Vacant,False,False,6822,W,ARMITAGE,AVE,60707.0,1130516.21749892,1912546.78258685,36.0,25.0,25.0,41.91629705223608,-87.79592399882526,"(41.91629705223608, -87.79592399882526)",2013-01-07
Vacant/Abandoned Building,13-00022875,01/07/2013,Front,,Open,FRONT ENTRY DOOR,Vacant,False,False,5045,S,CARPENTER,ST,60609.0,1170169.51990856,1871356.60191887,16.0,9.0,61.0,41.80249361247579,-87.65144117032004,"(41.80249361247579, -87.65144117032003)",2013-01-07
Vacant/Abandoned Building,13-00023328,01/07/2013,Front,,Open,,Vacant,False,False,5023,W,DRUMMOND,PL,60639.0,1142448.67059987,1917159.9811286,31.0,25.0,19.0,41.92874260082084,-87.7519691344535,"(41.92874260082084, -87.75196913445352)",2013-01-07
Vacant/Abandoned Building,13-00023334,01/07/2013,Front,,Open,,Vacant,False,False,1817,W,58TH,ST,60636.0,1165159.69502393,1866218.37301993,15.0,7.0,67.0,41.78850127991856,-87.66995978669048,"(41.788501279918556, -87.66995978669048)",2013-01-07
Vacant/Abandoned Building,13-00023822,01/07/2013,Front,,Open,FRONT AND BACK  DOOR,Vacant,False,True,1727,N,MOODY,AVE,60639.0,1135148.90029287,1910840.73231954,29.0,25.0,25.0,41.911534523188294,-87.7789439324803,"(41.911534523188294, -87.77894393248029)",2013-01-07
Vacant/Abandoned Building,13-00024046,01/07/2013,Front,,Open,,Vacant,False,False,9023,S,KINGSTON,AVE,60617.0,1194727.35012973,1845634.21621971,7.0,4.0,48.0,41.73133963840132,-87.56222418402146,"(41.73133963840132, -87.56222418402146)",2013-01-07
Vacant/Abandoned Building,13-00024198,01/07/2013,Front,,Open,IN FRONT AND REAR,Vacant,False,True,3713,S,WOOD,ST,60609.0,1164960.23102424,1880084.64298401,11.0,9.0,59.0,41.82655616257153,-87.67029891467438,"(41.82655616257153, -87.67029891467438)",2013-01-07
Vacant/Abandoned Building,13-00025169,01/07/2013,Front,,Open,,Vacant,False,True,2222,S,DRAKE,AVE,60623.0,1153049.96138095,1888944.01790888,22.0,10.0,30.0,41.851111315785346,-87.71376124884327,"(41.85111131578534, -87.71376124884327)",2013-01-07
Vacant/Abandoned Building,13-00025186,01/07/2013,Front,,Open,FRONT,Vacant,False,True,161,N,LARAMIE,AVE,60644.0,1141683.64837927,1900738.4199307,28.0,15.0,25.0,41.88369417728712,-87.75518708902422,"(41.88369417728712, -87.75518708902422)",2013-01-07
Vacant/Abandoned Building,13-00025745,01/07/2013,Front,,Open,ALL AROUND,Vacant,False,False,5952,S,MAPLEWOOD,AVE,60629.0,1160391.74547992,1865105.52668033,16.0,8.0,66.0,41.78554710034975,-87.687472835824,"(41.78554710034975, -87.68747283582398)",2013-01-07
Vacant/Abandoned Building,13-00025841,01/07/2013,Garage,,Open,GARAGE,Occupied,False,False,6439,S,RACINE,AVE,60636.0,1169427.18290676,1862088.06519237,16.0,7.0,68.0,41.777075800846184,-87.65443205363044,"(41.77707580084619, -87.65443205363046)",2013-01-07
Vacant/Abandoned Building,13-00025947,01/07/2013,Front,,Open,,Vacant,False,False,257,N,KOSTNER,AVE,60624.0,1147012.12108311,1901162.12513106,28.0,11.0,26.0,41.88475669918322,-87.73560942267406,"(41.88475669918322, -87.73560942267406)",2013-01-07
Vacant/Abandoned Building,13-00026024,01/07/2013,Front,,Open,ALL AROUND,Vacant,False,False,6015,S,MAY,ST,60621.0,1169681.02490049,1864906.66850407,16.0,7.0,68.0,41.78480488298438,-87.65341977238484,"(41.78480488298438, -87.65341977238484)",2013-01-07
Vacant/Abandoned Building,13-00026345,01/07/2013,Front,,Open,,Vacant,True,False,3014,S,EMERALD,AVE,60616.0,1171788.56402708,1884900.94560981,11.0,9.0,60.0,41.83962519025821,-87.6451055787541,"(41.83962519025821, -87.6451055787541)",2013-01-07
Vacant/Abandoned Building,13-00026426,01/07/2013,Front,,Open,ALL AROUND,Vacant,False,False,5221,S,CARPENTER,ST,60609.0,1170199.68331295,1870186.01707998,16.0,9.0,61.0,41.79928074336394,-87.65136460917694,"(41.799280743363944, -87.65136460917694)",2013-01-07
Vacant/Abandoned Building,13-00026483,01/07/2013,Front,,Open,ALL AROUND,Vacant,False,False,5309,S,CARPENTER,ST,60609.0,1170215.31509009,1869608.17622515,16.0,9.0,61.0,41.797694744079756,-87.65132409666298,"(41.797694744079756, -87.65132409666299)",2013-01-07
Vacant/Abandoned Building,13-00026845,01/07/2013,Front,,Open,REAR,Vacant,False,False,1219,W,MONROE,ST,60607.0,1168276.27807353,1899703.93338192,27.0,12.0,28.0,41.88032234199189,-87.6575665205095,"(41.880322341991885, -87.65756652050952)",2013-01-07
Vacant/Abandoned Building,13-00026941,01/07/2013,Front,,Open,GARAGE IS UNSECURED,Vacant,False,True,1933,N,LAWNDALE,AVE,60647.0,1151400.16853185,1912717.69276879,26.0,25.0,22.0,41.916381310652255,-87.71919196553067,"(41.91638131065226, -87.71919196553065)",2013-01-07
Vacant/Abandoned Building,13-00027500,01/08/2013,Front,,Boarded,,Vacant,False,False,8019,S,SOUTH SHORE,DR,60617.0,1198545.53922636,1852399.944428,7.0,4.0,46.0,41.74981058234168,-87.54801086174761,"(41.74981058234168, -87.54801086174761)",2013-01-08
Vacant/Abandoned Building,13-00027502,01/08/2013,Front,,Open,,Vacant,False,False,635,W,119TH,ST,60628.0,1174105.54778502,1825967.52259009,34.0,5.0,53.0,41.67785347334277,-87.638350422706,"(41.677853473342765, -87.638350422706)",2013-01-08
Vacant/Abandoned Building,13-00027949,01/08/2013,Front,,Open,,Vacant,False,True,3652,W,AUGUSTA,BLVD,60651.0,1151772.03050216,1906420.59288601,27.0,11.0,23.0,41.899094161659214,-87.71799171709131,"(41.89909416165922, -87.71799171709132)",2013-01-08
Vacant/Abandoned Building,13-00028133,01/08/2013,Garage,,Open,GARAGE OPEN,Vacant,False,True,5219,W,RACE,AVE,60644.0,1141476.52526916,1903053.55979482,28.0,15.0,25.0,41.89005103224946,-87.75589046578263,"(41.89005103224946, -87.75589046578263)",2013-01-08
Vacant/Abandoned Building,13-00028134,01/08/2013,Front,,Open,OPEN REAR FIRST FLOOR WINDOWS,Vacant,False,False,5624,S,DAMEN,AVE,60636.0,1163985.36583299,1867358.08512855,15.0,7.0,67.0,41.7916535781547,-87.67423359470017,"(41.7916535781547, -87.67423359470017)",2013-01-08
Vacant/Abandoned Building,13-00028146,01/08/2013,Front,,Open,REAR COACH HOUSE ALL WINDOWS ARE OPEN,Vacant,False,False,5626,S,DAMEN,AVE,60636.0,1163985.76583299,1867344.68512855,15.0,7.0,67.0,41.791616798447116,-87.67423250466938,"(41.79161679844712, -87.67423250466938)",2013-01-08
Vacant/Abandoned Building,13-00028348,01/08/2013,Front,,Open,ALL,Vacant,False,True,4312,W,FLOURNOY,ST,60624.0,1147744.96246959,1896688.25011003,24.0,11.0,26.0,41.87246583046039,-87.73303320461916,"(41.872465830460385, -87.73303320461916)",2013-01-08
Vacant/Abandoned Building,13-00028435,01/08/2013,Garage,,Open,,Vacant,False,False,5233,S,WOOD,ST,60609.0,1165234.32902458,1869990.16467857,16.0,9.0,61.0,41.7988499587492,-87.66957935126865,"(41.7988499587492, -87.66957935126865)",2013-01-08
Vacant/Abandoned Building,13-00028686,01/08/2013,Front,,Open,WINDOWS,Vacant,False,False,442,E,87TH,ST,60619.0,1180885.16999062,1847404.60060897,6.0,6.0,44.0,41.736526894458756,-87.61287839237656,"(41.736526894458756, -87.61287839237654)",2013-01-08
Vacant/Abandoned Building,13-00028777,01/08/2013,Front,,Open,,Vacant,False,False,1302,S,HEATH,AVE,60608.0,1161021.78987642,1893992.42430431,25.0,12.0,28.0,41.864803087800034,-87.68436275924225,"(41.86480308780003, -87.68436275924225)",2013-01-08
Vacant/Abandoned Building,13-00029207,01/08/2013,Front,,Open,FRONT,Vacant,False,True,1438,N,MAPLEWOOD,AVE,60622.0,1159144.22391675,1909476.11178384,26.0,14.0,24.0,41.90733046382018,-87.69082974259209,"(41.90733046382018, -87.6908297425921)",2013-01-08
Vacant/Abandoned Building,13-00029417,01/08/2013,Front,,Open,ALL AROUND,Vacant,False,False,5410,S,CARPENTER,ST,60609.0,1170232.35718816,1868938.66777639,16.0,9.0,61.0,41.79585716757155,-87.65128108097986,"(41.79585716757155, -87.65128108097986)",2013-01-08
Vacant/Abandoned Building,13-00029443,01/08/2013,Front,,Open,FRONT AND REAR,Vacant,False,True,5518,S,ADA,ST,60636.0,1168270.45006737,1868057.23502866,16.0,7.0,67.0,41.793480903735436,-87.65850086352056,"(41.79348090373544, -87.65850086352056)",2013-01-08
Vacant/Abandoned Building,13-00029447,01/08/2013,Garage,,Open,GARAGE,Vacant,False,False,1013,W,GARFIELD,BLVD,60621.0,1170460.82419095,1868213.94077533,16.0,7.0,68.0,41.79386345865594,-87.65046439307565,"(41.793863458655935, -87.65046439307565)",2013-01-08
Vacant/Abandoned Building,13-00029551,01/08/2013,Front,,Open,DOORS / WINDOS,Vacant,True,True,6203,S,ARTESIAN,AVE,60629.0,1161103.21946913,1863458.22740174,15.0,8.0,66.0,41.78101199170803,-87.68490977523962,"(41.78101199170803, -87.68490977523962)",2013-01-08
Vacant/Abandoned Building,13-00029666,01/08/2013,Rear,,Open,FRONT AND REAR,Vacant,False,False,3947,W,POLK,ST,60624.0,1150195.78561846,1896075.37648015,24.0,11.0,26.0,41.870736648658266,-87.724051041192,"(41.870736648658266, -87.724051041192)",2013-01-08
Vacant/Abandoned Building,13-00029822,01/08/2013,Rear,,Open,REAR,Vacant,False,True,1837,W,21ST,ST,60608.0,1164444.03512417,1890105.39972217,25.0,12.0,31.0,41.85406505500871,-87.67190962350348,"(41.85406505500871, -87.67190962350348)",2013-01-08
Vacant/Abandoned Building,13-00029858,01/08/2013,Front,,Open,"FRONT/REAR DOORS, WINDOWS",Vacant,False,False,2250,W,50TH,PL,60609.0,1162411.3599777,1871146.99002394,16.0,9.0,63.0,41.80208378291235,-87.67989959163035,"(41.80208378291234, -87.67989959163035)",2013-01-08
Vacant/Abandoned Building,13-00029965,01/08/2013,Front,,Open,FRONT AND REAR DOORS..,Vacant,False,False,1938,S,CHRISTIANA,AVE,60623.0,1154339.95490537,1890256.00877278,24.0,10.0,29.0,41.85468593225498,-87.70899164867598,"(41.85468593225498, -87.70899164867599)",2013-01-08
Vacant/Abandoned Building,13-00029976,01/08/2013,Front,,Open,,Vacant,False,True,6725,W,BELMONT,AVE,60634.0,1130906.6248093,1920523.90952551,36.0,25.0,18.0,41.93818053637061,-87.79430538899807,"(41.93818053637061, -87.79430538899808)",2013-01-08
Vacant/Abandoned Building,13-00030628,01/08/2013,Front,,Open,,Vacant,False,False,1501,W,51ST,ST,60609.0,1167188.55517726,1870916.24291813,16.0,9.0,61.0,41.80134959213883,-87.66238625443397,"(41.80134959213883, -87.66238625443397)",2013-01-08
Vacant/Abandoned Building,13-00030663,01/08/2013,Front,,Open,,Vacant,False,False,200,N,KEYSTONE,AVE,60624.0,1149369.05003356,1900665.37966577,28.0,11.0,26.0,41.88334820029119,-87.72696724392863,"(41.88334820029119, -87.72696724392863)",2013-01-08
Vacant/Abandoned Building,13-00030778,01/08/2013,Front,,Open,THE FRONT AND REAR DOOR ARE OPEN,Vacant,False,True,5811,S,CARPENTER,ST,60621.0,1170307.81370574,1866223.92153074,16.0,7.0,68.0,41.788405953825105,-87.6510833811854,"(41.7884059538251, -87.65108338118539)",2013-01-08
Vacant/Abandoned Building,13-00030853,01/08/2013,Front,,Open,SIDE DOOR,Vacant,False,False,12717,S,MORGAN,ST,60643.0,1171983.31999951,1820455.53099559,34.0,5.0,53.0,41.66277435054909,-87.6462793393042,"(41.662774350549086, -87.64627933930421)",2013-01-08
Vacant/Abandoned Building,13-00031006,01/08/2013,Front,,Boarded,,Vacant,False,False,57,E,21ST,ST,60616.0,1177204.98107047,1890281.59360327,2.0,1.0,33.0,41.854269258574575,-87.62506705311806,"(41.854269258574575, -87.62506705311806)",2013-01-08
Vacant/Abandoned Building,13-00031098,01/08/2013,Front,,Open,,Vacant,False,False,1105,N,PULASKI,RD,60651.0,1149518.44420608,1907076.75592086,27.0,11.0,23.0,41.90093879677278,-87.72625207995998,"(41.90093879677277, -87.72625207995999)",2013-01-08
Vacant/Abandoned Building,13-00031146,01/08/2013,Front,,Boarded,THE WINDOW IN THE BASEMENT,Vacant,False,True,4053,W,CERMAK,RD,60623.0,1149699.06590444,1889071.80217204,22.0,10.0,29.0,41.85152765779127,-87.7260565584203,"(41.85152765779127, -87.7260565584203)",2013-01-08
Vacant/Abandoned Building,13-00031438,01/08/2013,Front,,Open,,Vacant,False,True,1304,N,SPRINGFIELD,AVE,60651.0,1150142.38530236,1908401.05987584,27.0,25.0,23.0,41.90456067963262,-87.72392572429185,"(41.90456067963262, -87.72392572429185)",2013-01-08
Vacant/Abandoned Building,13-00031470,01/08/2013,Front,,Open,REAR,Vacant,False,True,220,N,LA CROSSE,AVE,60644.0,1144003.87426575,1901119.24370699,28.0,15.0,25.0,41.88469599356805,-87.74665735212515,"(41.884695993568045, -87.74665735212515)",2013-01-08
Vacant/Abandoned Building,13-00031476,01/08/2013,Front,,Open,REAR,Vacant,False,True,224,N,LA CROSSE,AVE,60644.0,1144003.27426575,1901138.24370699,28.0,15.0,25.0,41.884748143093795,-87.74665907845093,"(41.884748143093795, -87.74665907845092)",2013-01-08
Vacant/Abandoned Building,13-00031480,01/08/2013,Front,,Open,REAR AT BASEMENHT,Vacant,True,True,174,N,LA CROSSE,AVE,60644.0,1144023.74017476,1900543.76498052,28.0,15.0,25.0,41.88311643828133,-87.74659884917826,"(41.883116438281334, -87.74659884917827)",2013-01-08
Vacant/Abandoned Building,13-00031498,01/08/2013,Rear,,Open,SIDE DOOR,Vacant,False,True,4910,W,WEST END,AVE,60644.0,1143586.68727852,1900533.11787277,28.0,15.0,25.0,41.88309540978484,-87.74820401703786,"(41.88309540978484, -87.74820401703786)",2013-01-08
Vacant/Abandoned Building,13-00031511,01/08/2013,Garage,,Open,GARAGE,Vacant,False,False,5718,S,SANGAMON,ST,60621.0,1170952.63788846,1866913.3629786998,16.0,7.0,68.0,41.79028379343589,-87.64869892638659,"(41.79028379343589, -87.6486989263866)",2013-01-08
Vacant/Abandoned Building,13-00031513,01/08/2013,Front,,Open,REAR SECOND FLOOR,Vacant,False,True,175,N,LEAMINGTON,AVE,60644.0,1142015.75191629,1900749.49161928,28.0,15.0,25.0,41.88371841333753,-87.75396728523876,"(41.883718413337526, -87.75396728523876)",2013-01-08
Vacant/Abandoned Building,13-00031515,01/08/2013,Front,,Open,REAR,Vacant,False,True,177,N,LEAMINGTON,AVE,60644.0,1142015.15191629,1900768.39161928,28.0,15.0,25.0,41.88377028838721,-87.75396901997209,"(41.88377028838721, -87.75396901997209)",2013-01-08
Vacant/Abandoned Building,13-00031548,01/08/2013,Rear,,Open,REAR OF BUILDING,Vacant,False,False,5613,S,CARPENTER,ST,60621.0,1170271.56136819,1867591.81418304,16.0,7.0,68.0,41.792160396543906,-87.65117650876591,"(41.792160396543906, -87.6511765087659)",2013-01-08
Vacant/Abandoned Building,13-00031550,01/08/2013,Front,,Open,REAR,Vacant,False,True,183,N,LARAMIE,AVE,60644.0,1141679.14837927,1900870.4199307,28.0,15.0,25.0,41.88405648484964,-87.75520034818085,"(41.88405648484963, -87.75520034818084)",2013-01-08
Vacant/Abandoned Building,13-00031570,01/08/2013,Front,,Open,ALL AROUND,Vacant,False,False,5805,S,CARPENTER,ST,60621.0,1170305.71370574,1866294.02153074,16.0,7.0,68.0,41.78859836200064,-87.65108904148443,"(41.788598362000634, -87.65108904148443)",2013-01-08
Vacant/Abandoned Building,13-00031575,01/08/2013,Front,,Open,ALL AROUND,Vacant,False,False,911,W,59TH,ST,60621.0,1171198.05830715,1865712.64648051,16.0,7.0,68.0,41.786983525318064,-87.64783414062293,"(41.786983525318064, -87.64783414062293)",2013-01-08
Vacant/Abandoned Building,13-00031598,01/08/2013,Front,,Open,THE 2ND FLOOR REAR WINDOWS,Vacant,False,True,4329,W,VAN BUREN,ST,60624.0,1147596.68940614,1897671.09288715,24.0,11.0,26.0,41.8751657114284,-87.73355237119394,"(41.8751657114284, -87.73355237119394)",2013-01-08
Vacant/Abandoned Building,13-00031799,01/08/2013,Front,,Open,ALL DOORS AND WINDOWS,Vacant,False,True,708,N,TROY,ST,60612.0,1155247.92617513,1904547.39161586,27.0,12.0,23.0,41.89388480126553,-87.70527516232555,"(41.89388480126552, -87.70527516232555)",2013-01-08
Vacant/Abandoned Building,13-00032043,01/08/2013,Front,,Boarded,,Vacant,False,False,3717,W,CHICAGO,AVE,60651.0,1151392.01402281,1905083.08987768,27.0,11.0,23.0,41.895431391014526,-87.71942266819475,"(41.89543139101452, -87.71942266819475)",2013-01-08
Vacant/Abandoned Building,13-00032333,01/09/2013,Front,,Open,,Vacant,False,False,1119,W,78TH,ST,60620.0,1170132.9654232,1853080.93738696,17.0,6.0,71.0,41.752343781774,-87.65210618154867,"(41.752343781774, -87.65210618154867)",2013-01-09
Vacant/Abandoned Building,13-00032334,01/09/2013,Front,,Open,,Vacant,False,False,7917,S,MORGAN,ST,60620.0,1171019.23077752,1852327.3041812,17.0,6.0,71.0,41.750256410932295,-87.64888037366259,"(41.7502564109323, -87.64888037366259)",2013-01-09
Vacant/Abandoned Building,13-00032764,01/09/2013,,,,,,,,1635,S,ST LOUIS,AVE,60623.0,1153305.56462016,1891585.34549863,24.0,10.0,29.0,41.85835436245709,-87.7127530586548,"(41.858354362457085, -87.7127530586548)",2013-01-09
Vacant/Abandoned Building,13-00033002,01/09/2013,Front,,Open,,Vacant,False,False,11316,S,HARVARD,AVE,60628.0,1175973.80990839,1829883.82459104,34.0,5.0,49.0,41.68855885256967,-87.63139518217075,"(41.68855885256967, -87.63139518217075)",2013-01-09
Vacant/Abandoned Building,13-00033008,01/09/2013,Front,,Open,,Vacant,False,False,1829,N,DRAKE,AVE,60647.0,1152531.02809796,1911924.34708797,26.0,14.0,22.0,41.91418200284021,-87.71505821840464,"(41.9141820028402, -87.71505821840464)",2013-01-09
Vacant/Abandoned Building,13-00033033,01/09/2013,Front,,Open,,Vacant,False,False,1139,W,68TH,ST,60621.0,1169789.07227113,1859705.25868081,17.0,7.0,68.0,41.770529239095005,-87.65317446103228,"(41.77052923909501, -87.65317446103228)",2013-01-09
Vacant/Abandoned Building,13-00033040,01/09/2013,,,,,,,,549,N,LECLAIRE,AVE,60644.0,1142267.04150663,1903155.13560976,28.0,15.0,25.0,41.89031513359106,-87.75298477223757,"(41.89031513359106, -87.75298477223757)",2013-01-09
Vacant/Abandoned Building,13-00033633,01/09/2013,Front,,Open,,Vacant,False,True,5540,N,FRANCISCO,AVE,60625.0,1156022.25181766,1936775.06598711,40.0,20.0,4.0,41.98230424179132,-87.701559023023,"(41.98230424179132, -87.701559023023)",2013-01-09
Vacant/Abandoned Building,13-00033864,01/09/2013,Rear,,Open,WINDOWS AND DOORS,Vacant,False,False,6200,S,LANGLEY,AVE,60637.0,1181960.86307653,1864053.72010624,20.0,3.0,42.0,41.78218902820016,-87.60842344343824,"(41.78218902820016, -87.60842344343823)",2013-01-09
Vacant/Abandoned Building,13-00034111,01/09/2013,Rear,,Open,YARD IS WIDE OPEN -- ALLLOWING FOR DUMPING,Vacant,False,False,1614,S,PULASKI,RD,60623.0,1149982.71889868,1891654.9432792,24.0,10.0,29.0,41.85861060491645,-87.7249482986988,"(41.85861060491645, -87.72494829869882)",2013-01-09
Vacant/Abandoned Building,13-00034123,01/09/2013,Rear,,Open,YARD IS WIDE OPEN -- ALLLOWING FOR DUMPING,Vacant,False,False,1616,S,PULASKI,RD,60623.0,1149983.11889868,1891641.5432792,24.0,10.0,29.0,41.858573825915656,-87.72494717895796,"(41.858573825915656, -87.72494717895796)",2013-01-09
Vacant/Abandoned Building,13-00034189,01/09/2013,,,,,,,,4406,W,WEST END,AVE,60624.0,1146966.7111113998,1900610.30897495,28.0,11.0,26.0,41.883243320326855,-87.73579028603358,"(41.88324332032686, -87.73579028603358)",2013-01-09
Vacant/Abandoned Building,13-00034201,01/09/2013,,,,,,,,2452,W,IOWA,ST,60622.0,1159891.74887708,1905916.67086742,1.0,12.0,24.0,41.89754767293644,-87.6881820839703,"(41.89754767293644, -87.68818208397029)",2013-01-09
Vacant/Abandoned Building,13-00034206,01/09/2013,,,,,,,,317,N,FRANCISCO,AVE,60612.0,1156999.5133075002,1902051.92270132,27.0,12.0,27.0,41.88700164040007,-87.6989099015343,"(41.887001640400065, -87.69890990153428)",2013-01-09
Vacant/Abandoned Building,13-00034299,01/09/2013,Front,,Open,ALL AROUND,Vacant,False,False,6202,S,ABERDEEN,ST,60621.0,1170045.33769972,1863676.12466683,16.0,7.0,68.0,41.781420212421224,-87.65211979369506,"(41.78142021242123, -87.65211979369506)",2013-01-09
Vacant/Abandoned Building,13-00034360,01/09/2013,Rear,,Open,,Vacant,False,False,3206,E,90TH,ST,60617.0,1198950.57616927,1845897.30822725,10.0,4.0,46.0,41.731956717341596,-87.54674446926218,"(41.73195671734159, -87.54674446926218)",2013-01-09
Vacant/Abandoned Building,13-00034405,01/09/2013,,,,,,,,2804,W,LOGAN,BLVD,60647.0,1157221.30186641,1917163.4950018998,35.0,14.0,22.0,41.92846455364559,-87.69768419358014,"(41.92846455364559, -87.69768419358016)",2013-01-09
Vacant/Abandoned Building,13-00034905,01/09/2013,Front,,Open,FRONT,Vacant,False,True,14,S,PULASKI,RD,60624.0,1149730.49029691,1899666.01269848,28.0,11.0,26.0,41.88059881146852,-87.7256659846134,"(41.880598811468516, -87.72566598461341)",2013-01-09
Vacant/Abandoned Building,13-00035090,01/09/2013,,,,,,,,1208,E,53RD,ST,60615.0,1185155.84778297,1870374.35781923,4.0,2.0,41.0,41.79945886173894,-87.59651130594683,"(41.79945886173894, -87.59651130594683)",2013-01-09
Vacant/Abandoned Building,13-00035097,01/09/2013,Front,,Open,,Vacant,False,True,7619,S,PAXTON,AVE,60649.0,1192189.03183391,1854878.57478973,7.0,4.0,43.0,41.756768996926226,-87.57122289327091,"(41.756768996926226, -87.57122289327091)",2013-01-09
Vacant/Abandoned Building,13-00035299,01/09/2013,Front,,Open,FRONT,Vacant,False,True,6401,S,ABERDEEN,ST,60621.0,1170081.95279061,1862360.39761347,16.0,7.0,68.0,41.77780890398166,-87.65202377327925,"(41.77780890398166, -87.65202377327925)",2013-01-09
Vacant/Abandoned Building,13-00035323,01/09/2013,Front,,Open,REAR,Vacant,False,False,2429,W,BYRON,ST,60618.0,1159489.00706991,1925826.85670735,47.0,19.0,5.0,41.95219093130375,-87.68911190497649,"(41.95219093130375, -87.68911190497649)",2013-01-09
Vacant/Abandoned Building,13-00035703,01/09/2013,Rear,,Open,,Vacant,False,True,7136,S,INGLESIDE,AVE,60619.0,1183792.70999059,1857878.01077973,5.0,3.0,69.0,41.765199734667185,-87.60190004035765,"(41.76519973466719, -87.60190004035765)",2013-01-09
Vacant/Abandoned Building,13-00035883,01/09/2013,Front,,Open,FENCE TORE DWN FROM THE REAR .. ALOT OF GARBAGE IN YARD AND A LOOSE DOG IN HSE ..,Vacant,False,False,1466,W,114TH,PL,60643.0,1168430.61417213,1828804.78642871,34.0,22.0,75.0,41.68576314270414,-87.65904132921641,"(41.68576314270414, -87.65904132921641)",2013-01-09
Vacant/Abandoned Building,13-00036157,01/09/2013,Front,,Open,THE FRONT AND REAR ARE OPEN,Vacant,True,False,5400,W,CORTEZ,ST,60651.0,1140117.10350533,1906470.38007303,37.0,15.0,25.0,41.899452197795384,-87.76079921275709,"(41.89945219779538, -87.7607992127571)",2013-01-09
Vacant/Abandoned Building,13-00036200,01/09/2013,,,,,,,,5656,S,INDIANA,AVE,60637.0,1178562.96830155,1867559.72809463,20.0,2.0,40.0,41.79188778912742,-87.62077441094647,"(41.79188778912742, -87.62077441094647)",2013-01-09
Vacant/Abandoned Building,13-00036204,01/09/2013,Front,,Open,FRONT/REAR DOOR,Vacant,False,False,8051,S,BURNHAM,AVE,60617.0,1196235.46107052,1852122.6503836997,7.0,4.0,46.0,41.74910721360846,-87.55648495655825,"(41.74910721360846, -87.55648495655825)",2013-01-09
Vacant/Abandoned Building,13-00036265,01/09/2013,Front,,Open,WHOLE BUILDING,Vacant,False,True,4340,W,MONROE,ST,60624.0,1147468.01253036,1899308.525069,28.0,11.0,26.0,41.87966148286079,-87.73398284259031,"(41.87966148286079, -87.73398284259031)",2013-01-09
Vacant/Abandoned Building,13-00036268,01/09/2013,Front,,Open,WHOLE BUILDING,Vacant,False,True,4459,W,ADAMS,ST,60624.0,1146694.63772457,1898640.61410522,28.0,11.0,26.0,41.877843442103796,-87.73683963702688,"(41.8778434421038, -87.73683963702689)",2013-01-09
Vacant/Abandoned Building,13-00036308,01/09/2013,Front,,Open,WHOLE BUILDING,Vacant,False,True,4908,W,WEST END,AVE,60644.0,1143607.48727852,1900533.61787277,28.0,15.0,25.0,41.88309639265317,-87.74812762488851,"(41.883096392653165, -87.74812762488851)",2013-01-09
Vacant/Abandoned Building,13-00036542,01/09/2013,Front,,Open,?,Vacant,False,False,1105,N,PULASKI,RD,60651.0,1149518.44420608,1907076.75592086,27.0,11.0,23.0,41.90093879677278,-87.72625207995998,"(41.90093879677277, -87.72625207995999)",2013-01-09
Vacant/Abandoned Building,13-00036638,01/09/2013,Front,,Open,FRONT DOOR,Vacant,False,False,838,N,CALIFORNIA,AVE,60622.0,1157570.54926974,1905461.61317771,26.0,12.0,24.0,41.896346535776274,-87.69671999303625,"(41.896346535776274, -87.69671999303625)",2013-01-09
Vacant/Abandoned Building,13-00036752,01/09/2013,Front,,Open,FRONT DOOR,Vacant,False,False,64,W,115TH,ST,60628.0,1177695.31377222,1828708.00071747,34.0,5.0,49.0,41.68529355101233,-87.62512827106016,"(41.68529355101233, -87.62512827106015)",2013-01-09
Vacant/Abandoned Building,13-00036896,01/09/2013,Front,,Open,,Vacant,True,True,1332,N,HARDING,AVE,60651.0,1149802.77802883,1908665.71609472,27.0,25.0,23.0,41.905293536131936,-87.72516631532123,"(41.905293536131936, -87.72516631532123)",2013-01-09
Vacant/Abandoned Building,13-00037135,01/10/2013,Front,,Open,,Vacant,False,False,111,N,PINE,AVE,60644.0,1139486.94483043,1900283.94537376,28.0,15.0,25.0,41.882487367701174,-87.76326477836345,"(41.882487367701174, -87.76326477836345)",2013-01-10
Vacant/Abandoned Building,13-00037586,01/10/2013,Front,,Open,REAR AND WINDOWS,Vacant,False,True,5018,W,QUINCY,ST,60644.0,1143092.78311976,1898537.86796633,28.0,15.0,25.0,41.8776294248069,-87.75006747520705,"(41.8776294248069, -87.75006747520705)",2013-01-10
Vacant/Abandoned Building,13-00037806,01/10/2013,Front,,Open,,Vacant,False,True,6055,S,PEORIA,ST,60621.0,1171353.42996946,1864572.0799823997,16.0,7.0,68.0,41.78385027999752,-87.64729783193394,"(41.78385027999752, -87.64729783193393)",2013-01-10
Vacant/Abandoned Building,13-00037995,01/10/2013,Rear,,Open,REAR,Occupied,False,True,1520,N,KEYSTONE,AVE,60651.0,1149104.37008278,1909801.63419552,30.0,25.0,23.0,41.90842416708506,-87.72770235543513,"(41.90842416708506, -87.72770235543513)",2013-01-10
Vacant/Abandoned Building,13-00038008,01/10/2013,Front,,Open,,Vacant,False,False,2400,W,21ST,ST,60608.0,1160690.83638446,1890008.03080117,25.0,10.0,31.0,41.85387637211032,-87.68568802469463,"(41.85387637211032, -87.68568802469463)",2013-01-10
Vacant/Abandoned Building,13-00038420,01/10/2013,Front,,Boarded,,Vacant,False,False,6500,S,HOYNE,AVE,60636.0,1163480.81871122,1861531.2501049999,15.0,7.0,67.0,41.775674578189104,-87.676246956838,"(41.7756745781891, -87.676246956838)",2013-01-10
Vacant/Abandoned Building,13-00038548,01/10/2013,Front,,Open,NOT BOARDED UP AT ALL,Vacant,False,True,1618,S,DRAKE,AVE,60623.0,1152971.13160555,1891692.81631363,24.0,10.0,29.0,41.85865590137225,-87.71397780238361,"(41.85865590137225, -87.71397780238361)",2013-01-10
Vacant/Abandoned Building,13-00038658,01/10/2013,Front,,Open,FRONT DOOR,Vacant,False,True,4050,W,MONROE,ST,60624.0,1149740.49601598,1899361.02220854,28.0,11.0,26.0,41.87976168925944,-87.72563717401627,"(41.87976168925944, -87.72563717401626)",2013-01-10
Vacant/Abandoned Building,13-00038740,01/10/2013,Front,,Open,REAR,Vacant,False,False,643,E,92ND,PL,60619.0,1182145.57058736,1843782.06658592,9.0,6.0,44.0,41.72655719137797,-87.60837252838112,"(41.72655719137797, -87.60837252838111)",2013-01-10
Vacant/Abandoned Building,13-00038813,01/10/2013,Garage,,Open,WINDOWS  ALSO DOOR  MISSING  FROM GARAGE,Vacant,,True,1040,N,LOCKWOOD,AVE,60651.0,1140834.10919731,1906421.45189713,37.0,15.0,25.0,41.89930477239145,-87.75816682596356,"(41.89930477239145, -87.75816682596356)",2013-01-10
Vacant/Abandoned Building,13-00039076,01/10/2013,Front,,Boarded,SIDE,Vacant,False,True,6728,S,ARTESIAN,AVE,60629.0,1161200.37923278,1859971.94510125,15.0,8.0,66.0,41.77144313614518,-87.6846499775516,"(41.77144313614518, -87.6846499775516)",2013-01-10
Vacant/Abandoned Building,13-00039365,01/10/2013,Front,,Open,FRONT AND REAR,Vacant,False,False,3328,W,65TH,ST,60629.0,1155324.14917149,1861324.38862044,15.0,8.0,66.0,41.775274050258474,-87.70615426184004,"(41.77527405025848, -87.70615426184003)",2013-01-10
Vacant/Abandoned Building,13-00039401,01/10/2013,Rear,,Open,,Vacant,False,False,1636,N,AVERS,AVE,60647.0,1150461.89460438,1910600.26228055,30.0,25.0,23.0,41.91058926865404,-87.7226945588571,"(41.91058926865405, -87.72269455885709)",2013-01-10
Vacant/Abandoned Building,13-00039430,01/10/2013,,,,,,,,10353,S,SEELEY,AVE,60643.0,1164562.18799616,1835981.42986758,19.0,22.0,72.0,41.705539300401625,-87.67300144951334,"(41.705539300401625, -87.67300144951334)",2013-01-10
Vacant/Abandoned Building,13-00039525,01/10/2013,Front,,Open,FRONT AND BACK DOOR,Vacant,False,True,316,N,LATROBE,AVE,60644.0,1141323.57848684,1901535.35579643,28.0,15.0,25.0,41.885887717255784,-87.75648964377828,"(41.88588771725578, -87.75648964377828)",2013-01-10
Vacant/Abandoned Building,13-00039854,01/10/2013,Front,,Open,"FRONT/REAR DOOORS, WINDOWS",Vacant,False,False,3811,N,SPAULDING,AVE,60618.0,1153711.24841796,1925149.74742947,33.0,17.0,16.0,41.95045010908318,-87.71036921714918,"(41.95045010908318, -87.71036921714919)",2013-01-10
Vacant/Abandoned Building,13-00040112,01/10/2013,Front,,Open,WINDOW AND DOORS,Vacant,False,False,6948,S,WINCHESTER,AVE,60636.0,1164554.92593183,1858610.81563094,17.0,7.0,67.0,41.76763792376116,-87.67239165003777,"(41.76763792376116, -87.67239165003777)",2013-01-10
Vacant/Abandoned Building,13-00040266,01/10/2013,,,,,,,,10729,S,CHAMPLAIN,AVE,60628.0,1182509.31868268,1833944.78163103,9.0,5.0,50.0,41.69955403693642,-87.60734392717245,"(41.699554036936426, -87.60734392717245)",2013-01-10
Vacant/Abandoned Building,13-00040412,01/10/2013,Front,,Open,FRONT,Vacant,False,True,4338,W,MONROE,ST,60624.0,1147481.51253036,1899308.8250689998,28.0,11.0,26.0,41.87966204737904,-87.73393326436127,"(41.879662047379036, -87.73393326436127)",2013-01-10
Vacant/Abandoned Building,13-00040681,01/10/2013,Front,,Open,FRONT DOOR OPEN AND BROKEN WINDOW,Vacant,False,True,6801,S,DAMEN,AVE,60636.0,1164199.73123429,1859552.23716707,17.0,7.0,67.0,41.77022879588535,-87.67366713373501,"(41.770228795885345, -87.673667133735)",2013-01-10
Vacant/Abandoned Building,13-00040893,01/10/2013,Front,,Open,ALL AROUND,Vacant,False,True,4231,W,JACKSON,BLVD,60624.0,1148228.28180797,1898350.34358965,28.0,11.0,26.0,41.87701751959104,-87.73121590019576,"(41.87701751959104, -87.73121590019576)",2013-01-10
Vacant/Abandoned Building,13-00040968,01/10/2013,Front,,Open,FRONT DOOR,Vacant,False,False,6837,S,TALMAN,AVE,60629.0,1159887.08991247,1859209.68283193,15.0,8.0,66.0,41.76937845885335,-87.68948499536054,"(41.76937845885335, -87.68948499536054)",2013-01-10
Vacant/Abandoned Building,13-00040993,01/10/2013,Garage,,Open,FRONT,Vacant,True,False,3539,W,65TH,ST,60629.0,1153783.25800332,1861280.23122149,15.0,8.0,66.0,41.77518357410384,-87.71180420824581,"(41.775183574103835, -87.71180420824582)",2013-01-10
Vacant/Abandoned Building,13-00041174,01/10/2013,,,,,,,,10734,S,CHAMPLAIN,AVE,60628.0,1182510.41868268,1833910.58163103,9.0,5.0,50.0,41.699460162189524,-87.60734095506174,"(41.69946016218952, -87.60734095506173)",2013-01-10
Vacant/Abandoned Building,13-00041230,01/10/2013,Front,,Open,FRONT,Vacant,False,True,1712,W,71ST,ST,60636.0,1166110.82689357,1857616.18171388,17.0,7.0,67.0,41.76487556408433,-87.66671682757139,"(41.76487556408433, -87.66671682757139)",2013-01-10
Vacant/Abandoned Building,13-00041401,01/10/2013,,,,,,,,10748,S,CHAMPLAIN,AVE,60628.0,1182513.41868268,1833814.78163103,9.0,5.0,50.0,41.69919720497529,-87.60733292734311,"(41.69919720497529, -87.60733292734311)",2013-01-10
Vacant/Abandoned Building,13-00041697,01/10/2013,Front,,Open,REAR,Vacant,False,True,2212,W,50TH,PL,60609.0,1162348.2599777,1871145.39002394,16.0,9.0,63.0,41.80208070842585,-87.68013105051485,"(41.80208070842584, -87.68013105051485)",2013-01-10
Vacant/Abandoned Building,13-00041749,01/10/2013,Front,,Open,FRONT,Vacant,False,True,3721,W,WABANSIA,AVE,60647.0,1151209.53997152,1911039.39097198,26.0,25.0,23.0,41.91177963997013,-87.71993643127442,"(41.911779639970135, -87.7199364312744)",2013-01-10
Vacant/Abandoned Building,13-00042022,01/11/2013,Front,,Open,REAR DOOR,Vacant,False,False,6400,S,GREEN,ST,60621.0,1171721.699978,1862397.20999596,16.0,7.0,68.0,41.77787411453481,-87.64601135874689,"(41.77787411453481, -87.64601135874689)",2013-01-11
Vacant/Abandoned Building,13-00042344,01/11/2013,Front,,Open,,Vacant,False,False,3016,N,SEMINARY,AVE,60657.0,1168426.03229991,1920187.80687315,44.0,19.0,6.0,41.936528093291614,-87.65642307808349,"(41.93652809329161, -87.6564230780835)",2013-01-11
Vacant/Abandoned Building,13-00042345,01/11/2013,Front,,Open,,Vacant,False,False,5612,S,WINCHESTER,AVE,60636.0,1164315.29178834,1867409.38381535,15.0,7.0,67.0,41.791787400874796,-87.67302237022925,"(41.791787400874796, -87.67302237022925)",2013-01-11
Vacant/Abandoned Building,13-00042466,01/11/2013,Front,,Open,"SIDE WINDOWS, AND REAR",Vacant,False,True,10500,S,STATE,ST,60628.0,1178108.51090537,1835332.41000346,34.0,5.0,49.0,41.7034625517521,-87.62341579420277,"(41.70346255175209, -87.62341579420277)",2013-01-11
Vacant/Abandoned Building,13-00042478,01/11/2013,Rear,,Open,REAR DOOR,Occupied,False,True,1937,N,LAWNDALE,AVE,60647.0,1151398.96853185,1912759.69276879,26.0,25.0,22.0,41.91649658603093,-87.71919526933624,"(41.916496586030924, -87.71919526933623)",2013-01-11
Vacant/Abandoned Building,13-00042479,01/11/2013,Front,,Boarded,,Vacant,False,False,266,N,CALIFORNIA,AVE,60612.0,1157681.34177466,1901659.30002236,27.0,12.0,27.0,41.885910387328245,-87.69641673365544,"(41.88591038732824, -87.69641673365544)",2013-01-11
Vacant/Abandoned Building,13-00042841,01/11/2013,Front,,Boarded,,Vacant,False,True,264,N,CALIFORNIA,AVE,60612.0,1157681.74177466,1901645.40002236,27.0,12.0,27.0,41.885872236286616,-87.69641564361929,"(41.88587223628662, -87.69641564361929)",2013-01-11
Vacant/Abandoned Building,13-00042844,01/11/2013,Front,,Boarded,,Vacant,False,True,268,N,CALIFORNIA,AVE,60612.0,1157681.04177466,1901673.20002236,27.0,12.0,27.0,41.88594853633289,-87.69641745647004,"(41.88594853633289, -87.69641745647004)",2013-01-11
Vacant/Abandoned Building,13-00043115,01/11/2013,Rear,,Open,,Vacant,False,True,1931,N,LAWNDALE,AVE,60647.0,1151400.76853185,1912696.79276879,26.0,25.0,22.0,41.916323947371104,-87.7191903110005,"(41.916323947371104, -87.7191903110005)",2013-01-11
Vacant/Abandoned Building,13-00043354,01/11/2013,Front,,Open,BOARDS HAVE BEEN TAKEN DOWN,Vacant,False,True,7258,S,CARPENTER,ST,60621.0,1170569.30192744,1856685.13898059,17.0,7.0,68.0,41.762224685655106,-87.65040234791803,"(41.762224685655106, -87.65040234791803)",2013-01-11
Vacant/Abandoned Building,13-00043814,01/11/2013,Rear,,Open,ALL OVER,Vacant,False,True,6438,S,LAFLIN,ST,60636.0,1167442.07751435,1862041.35159099,17.0,7.0,67.0,41.7769903873008,-87.66171075017868,"(41.7769903873008, -87.66171075017867)",2013-01-11
Vacant/Abandoned Building,13-00043859,01/11/2013,Front,,Boarded,,Vacant,False,False,3512,W,BELMONT,AVE,60618.0,1152321.86146842,1921053.78482035,35.0,17.0,21.0,41.93923807932046,-87.7155850286412,"(41.93923807932046, -87.71558502864121)",2013-01-11
Vacant/Abandoned Building,13-00043884,01/11/2013,,,,,,,,5729,W,SUPERIOR,ST,60644.0,1138018.69560773,1904422.84970321,29.0,15.0,25.0,41.89387168948065,-87.76855626887587,"(41.89387168948065, -87.76855626887586)",2013-01-11
Vacant/Abandoned Building,13-00043923,01/11/2013,Front,,Boarded,,Vacant,False,False,1310,N,CICERO,AVE,60651.0,1144130.64073065,1908320.9800323998,37.0,25.0,25.0,41.90445600330297,-87.74601081074518,"(41.90445600330297, -87.74601081074518)",2013-01-11
Vacant/Abandoned Building,13-00044233,01/11/2013,Front,,Open,WINDOWS,Vacant,False,True,524,N,HARDING,AVE,60624.0,1149964.3879011,1903209.30817633,27.0,11.0,23.0,41.89031744970106,-87.7247148513375,"(41.890317449701065, -87.72471485133748)",2013-01-11
Vacant/Abandoned Building,13-00044247,01/11/2013,Front,,Open,WINDOWS ARE BOARDED UP,Vacant,False,True,526,N,HARDING,AVE,60624.0,1149963.9879011002,1903222.80817633,27.0,11.0,23.0,41.89035450291464,-87.7247159686788,"(41.89035450291464, -87.7247159686788)",2013-01-11
Vacant/Abandoned Building,13-00044270,01/11/2013,Garage,,Open,VACANT OPEN GARAGE,Vacant,True,True,6529,S,TALMAN,AVE,60629.0,1159832.67059347,1861240.28228373,15.0,8.0,66.0,41.774951833972565,-87.68962876296203,"(41.774951833972565, -87.68962876296203)",2013-01-11
Vacant/Abandoned Building,13-00044443,01/11/2013,Front,,Open,,Vacant,False,False,2230,W,50TH,PL,60609.0,1162253.5599777,1871143.09002394,16.0,9.0,63.0,41.80207637127596,-87.68047841939675,"(41.80207637127596, -87.68047841939674)",2013-01-11
Vacant/Abandoned Building,13-00044634,01/11/2013,Front,,Open,REAR,Vacant,False,False,12434,S,PARNELL,AVE,60628.0,1174893.1806835,1822442.38350531,34.0,5.0,53.0,41.66816245376017,-87.63557191141884,"(41.66816245376017, -87.63557191141885)",2013-01-11
Vacant/Abandoned Building,13-00044989,01/11/2013,Front,,Open,"FRONT/REAR DOORS, WINDOWS",Vacant,True,True,7437,S,HARVARD,AVE,60621.0,1175243.58988977,1855634.44257411,17.0,7.0,69.0,41.75923833917209,-87.63330186306356,"(41.75923833917209, -87.63330186306356)",2013-01-11
Vacant/Abandoned Building,13-00045462,01/11/2013,Front,,Open,REAR,Vacant,False,True,4450,W,CONGRESS,PKWY,60624.0,1147139.13706566,1897327.23090185,24.0,11.0,26.0,41.87423087486201,-87.73524113375571,"(41.87423087486201, -87.7352411337557)",2013-01-11
Vacant/Abandoned Building,13-00045502,01/11/2013,Front,,Open,FRONT DOORS.. WIDE OPEN,Vacant,False,True,3417,W,MELROSE,ST,60618.0,1153004.77996802,1921403.26208947,35.0,17.0,21.0,41.94018353988224,-87.7130658090743,"(41.94018353988224, -87.7130658090743)",2013-01-11
Vacant/Abandoned Building,13-00045551,01/11/2013,Front,,Open,REAR,Vacant,False,True,4451,W,JACKSON,BLVD,60624.0,1146759.2753083,1898315.86309377,24.0,11.0,26.0,41.87695105403712,-87.7366105917458,"(41.876951054037114, -87.73661059174579)",2013-01-11
Vacant/Abandoned Building,13-00045629,01/11/2013,Front,,Open,WHOLE BUILDING,Vacant,False,True,4517,W,WILCOX,ST,60624.0,1146308.41756623,1898956.57617138,28.0,11.0,26.0,41.8787178364162,-87.73824971244859,"(41.8787178364162, -87.7382497124486)",2013-01-11
Vacant/Abandoned Building,13-00045656,01/11/2013,Front,,Open,WHOLE BUILDING,Vacant,False,True,4515,W,WILCOX,ST,60624.0,1146320.81756623,1898956.87617138,28.0,11.0,26.0,41.87871842371256,-87.7382041739897,"(41.878718423712556, -87.73820417398971)",2013-01-11
Vacant/Abandoned Building,13-00045664,01/11/2013,Front,,Open,IN THE FRONT,Vacant,False,True,3401,S,HOYNE,AVE,60608.0,1162905.91512257,1882106.19179128,11.0,9.0,59.0,41.83214677383066,-87.67777922276579,"(41.83214677383066, -87.6777792227658)",2013-01-11
Vacant/Abandoned Building,13-00045674,01/11/2013,Front,,Open,FRONT,Vacant,False,True,4510,W,WILCOX,ST,60624.0,1146351.91756623,1898957.57617138,28.0,11.0,26.0,41.87871975276532,-87.73808996192899,"(41.87871975276532, -87.738089961929)",2013-01-11
Vacant/Abandoned Building,13-00045703,01/11/2013,Front,,Open,FRONT,Vacant,False,True,8453,S,THROOP,ST,60620.0,1169133.7324106002,1848714.75361041,21.0,6.0,71.0,41.74038402491793,-87.65589390864528,"(41.74038402491793, -87.65589390864528)",2013-01-11
Vacant/Abandoned Building,13-00045954,01/11/2013,Front,,Open,,Vacant,False,False,2754,S,KEDVALE,AVE,60623.0,1149162.92989061,1885361.81732599,22.0,10.0,30.0,41.84135737005692,-87.7281202859712,"(41.84135737005692, -87.7281202859712)",2013-01-11
Vacant/Abandoned Building,13-00046155,01/11/2013,Front,,Open,NONE,Vacant,False,False,1233,W,OHIO,ST,60642.0,1168027.85921618,1904152.1027330002,27.0,12.0,24.0,41.8925338029557,-87.65835021032123,"(41.892533802955704, -87.65835021032123)",2013-01-11
Vacant/Abandoned Building,13-00046315,01/11/2013,Front,,Open,FRONT AND REAR,Vacant,False,True,2043,W,53RD,ST,60609.0,1163521.95012099,1869498.64657652,16.0,9.0,61.0,41.797537284775366,-87.67587282952015,"(41.797537284775366, -87.67587282952015)",2013-01-11
Vacant/Abandoned Building,13-00046379,01/11/2013,Front,,Open,SECOND OR THIRD FLOOR - THE DOORS AND WINDOWS ARE ALL OPEN,Vacant,False,True,1141,S,WESTERN,AVE,60612.0,1160552.60682336,1894935.13180737,25.0,12.0,28.0,41.86739968847835,-87.68605904051512,"(41.86739968847835, -87.68605904051512)",2013-01-11
Vacant/Abandoned Building,13-00046418,01/11/2013,Front,,Open,?,Vacant,False,False,1939,W,GARFIELD,BLVD,60636.0,1164267.29989404,1868056.05200762,15.0,7.0,67.0,41.79356295074438,-87.67318013987244,"(41.79356295074438, -87.67318013987243)",2013-01-11
Vacant/Abandoned Building,13-00047271,01/12/2013,Front,,Open,FRONT AND REAR,Occupied,False,True,4510,W,HARRISON,ST,60624.0,1146329.8699003,1896975.58220266,24.0,11.0,26.0,41.873281344132316,-87.73822137690658,"(41.873281344132316, -87.7382213769066)",2013-01-12
Vacant/Abandoned Building,13-00047486,01/12/2013,Front,,Open,,Vacant,False,False,1248,S,KOLIN,AVE,60623.0,1147580.01008634,1894026.33778403,24.0,10.0,29.0,41.86516438593321,-87.7337070912072,"(41.865164385933205, -87.7337070912072)",2013-01-12
Vacant/Abandoned Building,13-00047603,01/12/2013,Rear,,Boarded,,Vacant,False,False,903,N,LAWNDALE,AVE,60651.0,1151552.6007937,1905770.3464314,27.0,11.0,23.0,41.89731413701938,-87.71881478834501,"(41.897314137019386, -87.71881478834501)",2013-01-12
Vacant/Abandoned Building,13-00047866,01/12/2013,Front,,Open,FRONT DOOR WIDE OPEN,Vacant,False,True,6210,S,CLAREMONT,AVE,60636.0,1161792.84012895,1863407.68762663,15.0,8.0,66.0,41.7808590056419,-87.68238287496887,"(41.78085900564191, -87.68238287496888)",2013-01-12
Vacant/Abandoned Building,13-00048162,01/12/2013,Front,,Open,FRONT AND REAR DOORS OPEN,Vacant,False,True,170,N,LARAMIE,AVE,60644.0,1141681.84837927,1900792.4199307,28.0,15.0,25.0,41.88384239326379,-87.75519236298523,"(41.88384239326379, -87.75519236298523)",2013-01-12
Vacant/Abandoned Building,13-00049139,01/13/2013,Front,,Open,"WINDOWS , FRONT DOOR , BACK DOOR.",Vacant,False,True,1004,N,AVERS,AVE,60651.0,1150535.89373212,1906423.24201112,27.0,11.0,23.0,41.89912567106376,-87.7225319731411,"(41.899125671063764, -87.72253197314109)",2013-01-13
Vacant/Abandoned Building,13-00050027,01/14/2013,Front,,Open,,Vacant,False,False,8404,S,EXCHANGE,AVE,60617.0,1197293.55321497,1849831.66030458,10.0,4.0,46.0,41.742794284902686,-87.55268394771488,"(41.74279428490269, -87.55268394771487)",2013-01-14
Vacant/Abandoned Building,13-00050030,01/14/2013,Front,,Open,,Vacant,False,False,40,W,113TH,PL,60628.0,1177981.3752940001,1829709.07869876,34.0,5.0,49.0,41.68803419906961,-87.62405090172686,"(41.688034199069605, -87.62405090172686)",2013-01-14
Vacant/Abandoned Building,13-00050032,01/14/2013,Front,,Open,,Vacant,False,False,7135,S,SANGAMON,ST,60621.0,1171208.01143158,1857521.08779908,17.0,7.0,68.0,41.7645046949477,-87.64803698685844,"(41.7645046949477, -87.64803698685843)",2013-01-14
Vacant/Abandoned Building,13-00050181,01/14/2013,Front,,Open,,Vacant,False,False,7950,S,ESSEX,AVE,60617.0,1194228.81139211,1853072.72011668,7.0,4.0,46.0,41.751763761840635,-87.56380680696981,"(41.75176376184063, -87.56380680696981)",2013-01-14
Vacant/Abandoned Building,13-00050185,01/14/2013,Front,,Open,,Vacant,False,False,3313,S,CARPENTER,ST,60608.0,1169854.76657214,1882854.82062876,11.0,9.0,60.0,41.834052735643,-87.65226126385966,"(41.834052735643, -87.65226126385966)",2013-01-14
Vacant/Abandoned Building,13-00050191,01/14/2013,Front,,Open,,Vacant,False,False,6428,S,MARSHFIELD,AVE,60636.0,1166429.14568708,1862081.28148752,15.0,7.0,67.0,41.77712160872433,-87.66542300096269,"(41.77712160872433, -87.6654230009627)",2013-01-14
Vacant/Abandoned Building,13-00050198,01/14/2013,Front,,Open,,Vacant,False,False,6216,S,MARSHFIELD,AVE,60636.0,1166405.11668607,1863486.95558827,15.0,7.0,67.0,41.78097946974029,-87.66547106856962,"(41.78097946974029, -87.66547106856963)",2013-01-14
Vacant/Abandoned Building,13-00050219,01/14/2013,Front,,Open,FRONT AND REAR,Vacant,True,True,128,N,MENARD,AVE,60644.0,1137694.32220202,1900359.90458988,29.0,15.0,25.0,41.8827282973669,-87.76984559267677,"(41.88272829736691, -87.76984559267677)",2013-01-14
Vacant/Abandoned Building,13-00050456,01/14/2013,Front,,Open,,Vacant,False,False,101,N,PINE,AVE,60644.0,1139489.34483043,1900210.64537376,28.0,15.0,25.0,41.882286179325135,-87.76325775335103,"(41.882286179325135, -87.76325775335101)",2013-01-14
Vacant/Abandoned Building,13-00050463,01/14/2013,Front,,Open,,Vacant,False,False,105,N,PINE,AVE,60644.0,1139488.34483043,1900239.94537376,28.0,15.0,25.0,41.882366600522964,-87.76326071072201,"(41.882366600522964, -87.76326071072201)",2013-01-14
Vacant/Abandoned Building,13-00050469,01/14/2013,Front,,Open,,Vacant,False,False,121,N,PINE,AVE,60644.0,1139484.54483043,1900357.14537376,28.0,15.0,25.0,41.882688281657174,-87.76327180585217,"(41.88268828165717, -87.76327180585216)",2013-01-14
Vacant/Abandoned Building,13-00051162,01/14/2013,Front,,Open,REAR,Vacant,False,True,4651,W,WASHINGTON,BLVD,60644.0,1145380.42298585,1900094.75633196,28.0,11.0,25.0,41.88185874439678,-87.7416283485597,"(41.88185874439678, -87.74162834855971)",2013-01-14
Vacant/Abandoned Building,13-00051183,01/14/2013,,,,,,,,5238,S,HARPER,AVE,60615.0,1187175.14976975,1870581.16572441,4.0,2.0,41.0,41.7999786206224,-87.58909955055073,"(41.799978620622404, -87.58909955055074)",2013-01-14
Vacant/Abandoned Building,13-00051450,01/14/2013,Front,,Boarded,REAR DOOR,Vacant,False,True,4844,W,RACE,AVE,60644.0,1143967.45206557,1903222.58640693,28.0,15.0,25.0,41.89046849763282,-87.74673830194172,"(41.89046849763282, -87.74673830194172)",2013-01-14
Vacant/Abandoned Building,13-00051991,01/14/2013,Front,,Open,SIDE DOORS WIDE OPEN,Vacant,False,True,7700,S,WOOD,ST,60620.0,1165686.28098417,1853625.66910505,17.0,6.0,71.0,41.75393406311056,-87.66838596993534,"(41.75393406311056, -87.66838596993534)",2013-01-14
Vacant/Abandoned Building,13-00052115,01/14/2013,Rear,,Open,FRONT ENTRANCE,Vacant,True,False,3229,S,ABERDEEN,ST,60608.0,1169510.47761981,1883265.28562688,11.0,9.0,60.0,41.835186573974354,-87.6535126182518,"(41.835186573974354, -87.6535126182518)",2013-01-14
Vacant/Abandoned Building,13-00052258,01/14/2013,Front,,Open,,Vacant,False,False,228,W,113TH,ST,60628.0,1176657.22987225,1830007.3932704,34.0,5.0,49.0,41.688882634708186,-87.6288895312529,"(41.688882634708186, -87.6288895312529)",2013-01-14
Vacant/Abandoned Building,13-00052269,01/14/2013,Front,,Open,,Vacant,False,False,4903,W,AUGUSTA,BLVD,60651.0,1143490.51060257,1906202.48290267,37.0,15.0,25.0,41.89865461197312,-87.74841527270534,"(41.898654611973114, -87.74841527270534)",2013-01-14
Vacant/Abandoned Building,13-00052288,01/14/2013,Front,,Open,,Vacant,False,False,11753,S,LOWE,AVE,60628.0,1174066.73307755,1826941.39896779,34.0,5.0,53.0,41.68052680490179,-87.6384637484086,"(41.68052680490179, -87.63846374840861)",2013-01-14
Vacant/Abandoned Building,13-00052305,01/14/2013,Front,,Open,,Vacant,False,False,5229,W,FERDINAND,ST,60644.0,1141422.73578361,1902647.27978696,28.0,15.0,25.0,41.88893714357553,-87.75609804489233,"(41.888937143575525, -87.75609804489233)",2013-01-14
Vacant/Abandoned Building,13-00052317,01/14/2013,Front,,Open,,Vacant,False,False,13252,S,RIVERDALE,AVE,60827.0,1181898.23946677,1817440.03968565,9.0,5.0,54.0,41.654276762149074,-87.61008867896189,"(41.654276762149074, -87.61008867896189)",2013-01-14
Vacant/Abandoned Building,13-00052332,01/14/2013,Front,,Open,,Vacant,False,False,4907,W,WALTON,ST,60651.0,1143471.54501114,1905862.70328345,37.0,15.0,25.0,41.89772257279839,-87.74849344055147,"(41.89772257279839, -87.74849344055147)",2013-01-14
Vacant/Abandoned Building,13-00052342,01/14/2013,Front,,Open,,Vacant,False,False,1207,E,72ND,ST,60619.0,1185539.08550977,1857515.09157538,5.0,3.0,69.0,41.764162921205845,-87.59551053729416,"(41.76416292120584, -87.59551053729416)",2013-01-14
Vacant/Abandoned Building,13-00052369,01/14/2013,Front,,Open,,Vacant,False,False,7948,S,UNION,AVE,60620.0,1173013.54701552,1852175.23957817,17.0,6.0,71.0,41.74979535869864,-87.64157679619207,"(41.749795358698634, -87.64157679619208)",2013-01-14
Vacant/Abandoned Building,13-00052380,01/14/2013,Front,,Open,,Vacant,False,False,6645,S,OAKLEY,AVE,60636.0,1162216.03632094,1860538.6438869,15.0,8.0,66.0,41.77297715483379,-87.68091114814756,"(41.77297715483379, -87.68091114814756)",2013-01-14
Vacant/Abandoned Building,13-00052396,01/14/2013,Front,,Open,,Vacant,False,False,6146,S,ROCKWELL,ST,60629.0,1160093.86047857,1863806.35113113,15.0,8.0,66.0,41.781988118561756,-87.68860074382458,"(41.78198811856176, -87.68860074382458)",2013-01-14
Vacant/Abandoned Building,13-00052405,01/14/2013,Front,,Open,,Vacant,False,False,5637,S,ARTESIAN,AVE,60629.0,1160992.61996633,1867218.40998708,16.0,8.0,63.0,41.79133272808769,-87.68521134124956,"(41.79133272808769, -87.68521134124956)",2013-01-14
Vacant/Abandoned Building,13-00052418,01/14/2013,Front,,Open,,Vacant,False,False,4612,W,JACKSON,BLVD,60644.0,1145629.33989784,1898289.55472334,28.0,11.0,25.0,41.87690034310136,-87.74076008789453,"(41.876900343101354, -87.74076008789453)",2013-01-14
Vacant/Abandoned Building,13-00052434,01/14/2013,Front,,Open,,Vacant,False,False,6210,S,FAIRFIELD,AVE,60629.0,1159109.73411259,1863356.20261943,15.0,8.0,66.0,41.780773039798014,-87.69222113559981,"(41.780773039798014, -87.69222113559981)",2013-01-14
Vacant/Abandoned Building,13-00052443,01/14/2013,Front,,Open,,Vacant,False,False,449,N,HARDING,AVE,60624.0,1149977.22749223,1902751.37391966,27.0,11.0,23.0,41.889060579610174,-87.72467962713215,"(41.88906057961017, -87.72467962713215)",2013-01-14
Vacant/Abandoned Building,13-00052475,01/14/2013,Front,,Open,,Vacant,False,False,36,E,117TH,ST,60628.0,1178558.00770992,1827385.93002497,9.0,5.0,53.0,41.681646088563326,-87.62201013415165,"(41.68164608856333, -87.62201013415164)",2013-01-14
Vacant/Abandoned Building,13-00052483,01/14/2013,Front,,Open,,Vacant,False,False,621,E,63RD,ST,60637.0,1181543.53406605,1863376.3902173,20.0,3.0,42.0,41.78034001564926,-87.6099743588687,"(41.78034001564926, -87.60997435886871)",2013-01-14
Vacant/Abandoned Building,13-00052488,01/14/2013,Front,,Open,,Vacant,False,False,736,N,LECLAIRE,AVE,60644.0,1142221.29749849,1904494.89991841,28.0,15.0,25.0,41.893992455242284,-87.75311949616713,"(41.89399245524228, -87.75311949616713)",2013-01-14
Vacant/Abandoned Building,13-00052497,01/14/2013,Front,,Open,,Vacant,False,False,3600,W,LEXINGTON,ST,60624.0,1152498.01202142,1896461.03052625,24.0,11.0,27.0,41.8717497730889,-87.71558852710507,"(41.8717497730889, -87.71558852710507)",2013-01-14
Vacant/Abandoned Building,13-00052502,01/14/2013,Front,,Open,,Vacant,False,False,322,N,LATROBE,AVE,60644.0,1141322.47848684,1901571.55579643,28.0,15.0,25.0,41.88598707482323,-87.75649278967602,"(41.885987074823234, -87.75649278967602)",2013-01-14
Vacant/Abandoned Building,13-00052512,01/14/2013,Front,,Open,,Vacant,False,False,1051,N,LOREL,AVE,60651.0,1140482.17440795,1906488.49307271,37.0,15.0,25.0,41.89949520864725,-87.75945784694237,"(41.899495208647245, -87.75945784694237)",2013-01-14
Vacant/Abandoned Building,13-00052517,01/14/2013,Front,,Open,,Vacant,False,False,1541,N,MASSASOIT,AVE,60651.0,1137724.3711189,1909667.41372255,29.0,25.0,25.0,41.90826872774196,-87.76951065000787,"(41.90826872774196, -87.76951065000787)",2013-01-14
Vacant/Abandoned Building,13-00052527,01/14/2013,Front,,Open,,Vacant,False,False,4737,W,ARTHINGTON,ST,60644.0,1144943.99700677,1895611.18992656,24.0,11.0,25.0,41.869563536537036,-87.74334408412275,"(41.869563536537036, -87.74334408412275)",2013-01-14
Vacant/Abandoned Building,13-00052529,01/14/2013,Front,,Open,,Vacant,False,False,4721,W,ARTHINGTON,ST,60644.0,1145050.99700677,1895614.18992656,24.0,11.0,25.0,41.86956975017604,-87.7429511771675,"(41.86956975017604, -87.7429511771675)",2013-01-14
Vacant/Abandoned Building,13-00052530,01/14/2013,Front,,Open,,Vacant,False,False,1617,N,LONG,AVE,60639.0,1140157.55998332,1910224.56926666,37.0,25.0,25.0,41.90975339008597,-87.76055854306415,"(41.90975339008597, -87.76055854306415)",2013-01-14
Vacant/Abandoned Building,13-00052537,01/14/2013,Front,,Open,,Vacant,False,False,11845,S,LAFAYETTE,AVE,60628.0,1178043.15540593,1826419.39659477,34.0,5.0,53.0,41.67900542432061,-87.62392389881985,"(41.67900542432061, -87.62392389881984)",2013-01-14
Vacant/Abandoned Building,13-00052721,01/14/2013,Front,,Open,BACK DOOR AND GARAGE,Vacant,False,False,7831,S,MAY,ST,60620.0,1170010.6654232,1852869.53738696,17.0,6.0,71.0,41.75176632844868,-87.65256048798037,"(41.75176632844868, -87.65256048798038)",2013-01-14
Vacant/Abandoned Building,13-00052847,01/14/2013,Front,,Open,FRONT AND REAR,Vacant,False,False,3643,W,DIVERSEY,AVE,60647.0,1151508.05991293,1918370.78147239,35.0,25.0,22.0,41.93189175430882,-87.71864669207798,"(41.93189175430882, -87.71864669207798)",2013-01-14
Vacant/Abandoned Building,13-00053010,01/14/2013,Front,,Open,,Vacant,False,True,12846,S,LOWE,AVE,60628.0,1174328.59101509,1819578.48552163,9.0,5.0,53.0,41.660315966389156,-87.63772277969248,"(41.66031596638916, -87.63772277969247)",2013-01-14
Vacant/Abandoned Building,13-00053323,01/14/2013,Rear,,Open,,Vacant,False,True,7746,S,MORGAN,ST,60620.0,1170986.81119987,1853459.60193114,17.0,6.0,71.0,41.75336429213573,-87.64896616930972,"(41.75336429213573, -87.6489661693097)",2013-01-14
Vacant/Abandoned Building,13-00053399,01/14/2013,Front,,Open,,Vacant,False,True,7815,S,UNION,AVE,60620.0,1172989.01356718,1853056.80597247,17.0,6.0,71.0,41.752215030372994,-87.64164072662443,"(41.75221503037299, -87.64164072662443)",2013-01-14
Vacant/Abandoned Building,13-00053535,01/14/2013,Front,,Open,REAR,Vacant,False,False,5171,W,MONTROSE,AVE,60641.0,1141120.38548315,1928763.62801468,45.0,16.0,15.0,41.96060872741428,-87.75656329053356,"(41.960608727414275, -87.75656329053356)",2013-01-14
Vacant/Abandoned Building,13-00053563,01/14/2013,Front,,Open,FRONT,Vacant,False,True,1013,N,KEYSTONE,AVE,60651.0,1149202.17360818,1906455.2550182,37.0,11.0,23.0,41.89923947023523,-87.72742989807622,"(41.89923947023523, -87.72742989807624)",2013-01-14
Vacant/Abandoned Building,13-00054082,01/14/2013,Rear,,Open,REAR ENTRANCE BASEMENT DOOR IS OPEN,Vacant,False,True,7829,S,DREXEL,AVE,60619.0,1183589.59533435,1853286.01110487,8.0,6.0,69.0,41.75260356391343,-87.60278743989971,"(41.75260356391343, -87.60278743989971)",2013-01-14
Vacant/Abandoned Building,13-00054083,01/14/2013,Front,,Open,,Vacant,False,True,1515,N,MOHAWK,ST,60610.0,1172379.79132486,1910433.66451711,43.0,18.0,8.0,41.90967570202098,-87.64218159358175,"(41.90967570202098, -87.64218159358175)",2013-01-14
Vacant/Abandoned Building,13-00054646,01/14/2013,Front,,Open,SIDE DOOR OPEN,Vacant,False,False,1328,N,WICKER PARK,AVE,60622.0,1163983.08329691,1909177.06719214,1.0,14.0,24.0,41.906409030591824,-87.67306295207185,"(41.90640903059182, -87.67306295207185)",2013-01-14
Vacant/Abandoned Building,13-00055062,01/14/2013,Front,,Open,REAR DOOR,Vacant,False,True,2920,N,NAGLE,AVE,60634.0,1132910.07581058,1918716.01247393,36.0,25.0,19.0,41.9331846565133,-87.78698448602958,"(41.9331846565133, -87.7869844860296)",2013-01-14
Vacant/Abandoned Building,13-00055628,01/15/2013,Front,,Open,,Vacant,False,False,180,N,LA CROSSE,AVE,60644.0,1144013.27426575,1900845.24370699,28.0,15.0,25.0,41.88394392843799,-87.74662971250338,"(41.88394392843799, -87.74662971250338)",2013-01-15
Vacant/Abandoned Building,13-00055767,01/15/2013,Front,,Open,,Vacant,False,False,1246,W,71ST,PL,60636.0,1169147.52558311,1857365.38987497,17.0,7.0,67.0,41.76412223903664,-87.65559370139424,"(41.76412223903664, -87.65559370139424)",2013-01-15
Vacant/Abandoned Building,13-00055788,01/15/2013,Front,,Open,SIDE WINDOW,Vacant,False,False,5143,N,SAYRE,AVE,60656.0,1128944.45338659,1933753.39673054,41.0,16.0,10.0,41.97451734340928,-87.80121502544173,"(41.974517343409275, -87.80121502544175)",2013-01-15
Vacant/Abandoned Building,13-00057225,01/15/2013,Front,,Open,,Vacant,False,True,5229,W,OHIO,ST,60644.0,1141257.26017514,1903465.76579461,28.0,15.0,25.0,41.891186221872786,-87.7566855436969,"(41.89118622187279, -87.75668554369689)",2013-01-15
Vacant/Abandoned Building,13-00057445,01/15/2013,Front,,Open,FRONT AND BACK BOTH OPEN,Vacant,False,True,4235,S,CHAMPLAIN,AVE,60653.0,1181300.71983044,1877064.9720906003,4.0,2.0,38.0,41.817908261952866,-87.61044250736643,"(41.817908261952866, -87.61044250736643)",2013-01-15
Vacant/Abandoned Building,13-00057498,01/15/2013,Front,,Open,,Vacant,False,False,520,N,LARAMIE,AVE,60644.0,1141608.42526916,1902931.05979482,28.0,15.0,25.0,41.88971244062339,-87.75540909294331,"(41.88971244062339, -87.75540909294332)",2013-01-15
Vacant/Abandoned Building,13-00058044,01/15/2013,Front,,Open,REAR,Vacant,False,True,3425,S,PRAIRIE,AVE,60616.0,1178494.77649504,1882307.29168234,2.0,2.0,35.0,41.832357919376285,-87.62057594585598,"(41.83235791937629, -87.62057594585599)",2013-01-15
Vacant/Abandoned Building,13-00058143,01/15/2013,Front,,Open,ALL AROUND,Vacant,False,False,4917,S,RACINE,AVE,60609.0,1169154.63682053,1872096.88790059,16.0,9.0,61.0,41.80454707223567,-87.65514175625933,"(41.80454707223567, -87.65514175625933)",2013-01-15
Vacant/Abandoned Building,13-00058173,01/15/2013,Rear,,Open,REAR,Vacant,False,False,1242,S,TRIPP,AVE,60623.0,1148245.28007851,1894083.80686791,24.0,10.0,29.0,41.865309310972044,-87.73126336518128,"(41.86530931097205, -87.73126336518126)",2013-01-15
Vacant/Abandoned Building,13-00058531,01/15/2013,Front,,Open,WIDE OPEN ALL OVER,Vacant,False,False,5832,S,LOWE,AVE,60621.0,1172967.02290924,1866095.97322136,3.0,7.0,68.0,41.78799653051747,-87.6413368615213,"(41.78799653051747, -87.6413368615213)",2013-01-15
Vacant/Abandoned Building,13-00058836,01/15/2013,Front,,Open,,Vacant,False,False,2102,S,PULASKI,RD,60623.0,1150036.47002587,1889741.87998832,24.0,10.0,29.0,41.853359879979905,-87.72480076333288,"(41.85335987997991, -87.72480076333287)",2013-01-15
Vacant/Abandoned Building,13-00059065,01/15/2013,Front,,Boarded,FRONT DOOR BROKEN INTO,Vacant,False,True,2228,W,50TH,PL,60609.0,1162264.0599777,1871143.39002394,16.0,9.0,63.0,41.8020769756577,-87.68043990311611,"(41.802076975657705, -87.68043990311611)",2013-01-15
Vacant/Abandoned Building,13-00059382,01/15/2013,Front,,Open,REAR,Vacant,False,True,4339,W,VAN BUREN,ST,60624.0,1147529.28940614,1897669.49288715,24.0,11.0,26.0,41.87516261300141,-87.73379988036268,"(41.87516261300141, -87.73379988036268)",2013-01-15
Vacant/Abandoned Building,13-00059410,01/15/2013,Front,,Open,REAR,Vacant,False,True,4314,W,CONGRESS,PKWY,60624.0,1147648.53990207,1897338.25230984,24.0,11.0,26.0,41.87425136330679,-87.73337053730707,"(41.87425136330679, -87.73337053730707)",2013-01-15
Vacant/Abandoned Building,13-00059573,01/15/2013,Front,,Open,REAR,Vacant,False,True,4054,W,VAN BUREN,ST,60624.0,1149429.48642923,1897715.15112168,24.0,11.0,26.0,41.87525127033811,-87.72682187439518,"(41.87525127033811, -87.72682187439518)",2013-01-15
Vacant/Abandoned Building,13-00059618,01/15/2013,Front,,Open,REAR,Vacant,False,True,4145,W,GLADYS,AVE,60624.0,1148811.8921275,1898032.12838877,24.0,11.0,26.0,41.87613304561461,-87.72908126213362,"(41.87613304561461, -87.72908126213363)",2013-01-15
Vacant/Abandoned Building,13-00059664,01/15/2013,Front,,Open,FRONT,Vacant,False,,7218,S,CRANDON,AVE,60649.0,1192796.95250179,1857548.27110254,5.0,3.0,43.0,41.764080053425936,-87.56890807208497,"(41.764080053425936, -87.56890807208497)",2013-01-15
Vacant/Abandoned Building,13-00060693,01/16/2013,Front,,Open,,Vacant,False,False,2105,N,MELVINA,AVE,60639.0,1134741.70993043,1913208.08996805,29.0,25.0,19.0,41.918038051886526,-87.78038377552097,"(41.91803805188652, -87.78038377552097)",2013-01-16
Vacant/Abandoned Building,13-00061570,01/16/2013,Front,,Open,,Vacant,False,False,2615,W,23RD,PL,60608.0,1159300.92147444,1888303.77001428,28.0,10.0,30.0,41.849228352855405,-87.69083635091299,"(41.84922835285541, -87.69083635091299)",2013-01-16
Vacant/Abandoned Building,13-00061753,01/16/2013,Front,,Open,FRONT DOOR AND 2ND FLOOR WINDOW/FRONT,Vacant,False,True,915,N,WALLER,AVE,60651.0,1138190.57972183,1905533.44469324,29.0,15.0,25.0,41.896916194047435,-87.76789810421768,"(41.89691619404744, -87.76789810421768)",2013-01-16
Vacant/Abandoned Building,13-00061877,01/16/2013,Rear,,Open,REAR,Vacant,False,True,1933,N,LAWNDALE,AVE,60647.0,1151400.16853185,1912717.69276879,26.0,25.0,22.0,41.916381310652255,-87.71919196553067,"(41.91638131065226, -87.71919196553065)",2013-01-16
Vacant/Abandoned Building,13-00062110,01/16/2013,Front,,Open,FRONT AND REAR AND ROOF DOORS AND WINDOWS..,Vacant,False,True,4700,S,CALIFORNIA,AVE,60632.0,1158494.11870049,1873375.82862965,14.0,9.0,58.0,41.80828082766107,-87.69420501107565,"(41.80828082766107, -87.69420501107564)",2013-01-16
Vacant/Abandoned Building,13-00062241,01/16/2013,Front,,Open,ALL AROUND,Vacant,False,False,5614,S,MAY,ST,60621.0,1169608.96440263,1867566.76598377,16.0,7.0,68.0,41.79210606314288,-87.65360686901856,"(41.792106063142874, -87.65360686901856)",2013-01-16
Vacant/Abandoned Building,13-00062617,01/16/2013,Front,,Open,FRONT AND BACK,Vacant,False,False,1822,N,LONG,AVE,60639.0,1140114.85889021,1911441.50582759,37.0,25.0,25.0,41.91309358446383,-87.76068556375833,"(41.91309358446383, -87.76068556375833)",2013-01-16
Vacant/Abandoned Building,13-00062620,01/16/2013,Front,,Open,OPEN IN REAR,Vacant,False,False,5650,S,BISHOP,ST,60636.0,1167619.82023259,1867606.86426981,16.0,7.0,67.0,41.79225902343656,-87.66089958615856,"(41.79225902343656, -87.66089958615856)",2013-01-16
Vacant/Abandoned Building,13-00062624,01/16/2013,Front,,Open,,Vacant,False,False,1244,S,KOLIN,AVE,60623.0,1147579.21008634,1894053.23778403,24.0,10.0,29.0,41.865238218158865,-87.73370933830975,"(41.86523821815887, -87.73370933830975)",2013-01-16
Vacant/Abandoned Building,13-00062985,01/16/2013,Front,,Open,FRONT,Vacant,False,True,3847,W,FLOURNOY,ST,60624.0,1150865.65999254,1896754.29010655,24.0,11.0,26.0,41.872586590602104,-87.72157391843317,"(41.87258659060211, -87.72157391843317)",2013-01-16
Vacant/Abandoned Building,13-00063143,01/16/2013,Front,,Open,FRONT,Vacant,False,False,4527,S,WASHTENAW,AVE,60632.0,1159125.81371163,1874535.27787908,12.0,9.0,58.0,41.811449589474776,-87.69185634811,"(41.811449589474776, -87.69185634811)",2013-01-16
Vacant/Abandoned Building,13-00063168,01/16/2013,Front,,Open,OPEN IN REAR,Vacant,False,False,6151,S,ADA,ST,60636.0,1168369.9900203,1863953.47483159,16.0,7.0,67.0,41.78221755203407,-87.65825401436169,"(41.78221755203407, -87.65825401436169)",2013-01-16
Vacant/Abandoned Building,13-00063854,01/16/2013,Front,,Open,OPEN IN REAR,Vacant,False,False,6422,S,GREEN,ST,60621.0,1171729.0999780002,1862253.00999596,16.0,7.0,68.0,41.77747825054859,-87.64598845559581,"(41.77747825054859, -87.64598845559581)",2013-01-16
Vacant/Abandoned Building,13-00064094,01/16/2013,Front,,Boarded,FRONT,Vacant,False,False,2635,S,TRUMBULL,AVE,60623.0,1153790.77172866,1886280.39609478,22.0,10.0,30.0,41.843787320213664,-87.7111131266588,"(41.843787320213664, -87.7111131266588)",2013-01-16
Vacant/Abandoned Building,13-00064418,01/16/2013,Front,,Open,REAR,Vacant,True,False,4033,W,WILCOX,ST,60624.0,1149528.45756937,1899030.7821832001,28.0,11.0,26.0,41.87885959098571,-87.72642433121081,"(41.87885959098571, -87.72642433121082)",2013-01-16
Vacant/Abandoned Building,13-00064428,01/16/2013,Front,,Open,FRONT,Vacant,False,True,4229,W,WILCOX,ST,60624.0,1148219.82052565,1899000.5815713,28.0,11.0,26.0,41.878802010306075,-87.73123021879502,"(41.87880201030607, -87.73123021879502)",2013-01-16
Vacant/Abandoned Building,13-00064432,01/16/2013,Front,,Open,REAR DOOR,Vacant,False,True,4216,W,WILCOX,ST,60624.0,1148307.22052565,1899002.5815713,28.0,11.0,26.0,41.87880581554258,-87.73090924840258,"(41.87880581554258, -87.73090924840258)",2013-01-16
Vacant/Abandoned Building,13-00064545,01/16/2013,Front,,Open,FRON,Vacant,False,True,4043,W,WEST END,AVE,60624.0,1149282.74988884,1900663.334302,28.0,11.0,26.0,41.88334426042962,-87.72728419956222,"(41.88334426042962, -87.72728419956223)",2013-01-16
Vacant/Abandoned Building,13-00064659,01/16/2013,Front,,Open,FRONT DOOR,Vacant,False,True,1727,N,MOODY,AVE,60639.0,1135148.90029287,1910840.73231954,29.0,25.0,25.0,41.911534523188294,-87.7789439324803,"(41.911534523188294, -87.77894393248029)",2013-01-16
Vacant/Abandoned Building,13-00064675,01/16/2013,Front,,Open,FRONT DOOR OPEN REAR?,Vacant,False,False,4905,W,MADISON,ST,60644.0,1143635.59848804,1899573.28089718,28.0,15.0,25.0,41.88046058518902,-87.74804844757746,"(41.88046058518902, -87.74804844757745)",2013-01-16
Vacant/Abandoned Building,13-00065424,01/17/2013,Front,,Open,FRONT DOOR,Vacant,False,False,832,N,DRAKE,AVE,60651.0,1152563.5563818,1905321.33140791,27.0,11.0,23.0,41.89606206548356,-87.71511354280732,"(41.89606206548356, -87.71511354280732)",2013-01-17
Vacant/Abandoned Building,13-00065496,01/17/2013,Front,,Open,"WINDOWS BROKEN OUT, NO FRONT DOOR",Vacant,False,False,6447,S,HONORE,ST,60636.0,1165120.48670437,1861920.86381228,15.0,7.0,67.0,41.77670919303482,-87.67022506736454,"(41.77670919303482, -87.67022506736453)",2013-01-17
Vacant/Abandoned Building,13-00065511,01/17/2013,Front,,Open,"WINDOWS BROKEN OUT, NO FRONT DOOR",Vacant,False,False,6417,S,HONORE,ST,60636.0,1165114.98670437,1862121.56381228,15.0,7.0,67.0,41.777260056525506,-87.67023955691242,"(41.77726005652551, -87.67023955691242)",2013-01-17
Vacant/Abandoned Building,13-00065856,01/17/2013,Front,,Open,,Vacant,False,False,7003,S,WINCHESTER,AVE,60636.0,1164565.12231894,1858226.19287766,17.0,7.0,67.0,41.766582251209776,-87.67236510949421,"(41.76658225120977, -87.6723651094942)",2013-01-17
Vacant/Abandoned Building,13-00065857,01/17/2013,Front,,Open,,Vacant,False,False,6940,S,MARSHFIELD,AVE,60636.0,1166540.80509344,1858685.24798938,17.0,7.0,67.0,41.76780006945346,-87.66511039072715,"(41.76780006945346, -87.66511039072716)",2013-01-17
Vacant/Abandoned Building,13-00065862,01/17/2013,Front,,Open,FRONT AND REAR DOORS ARE WIDE OPEN,Vacant,False,True,614,N,MONTICELLO,AVE,60624.0,1151942.21726807,1903849.51813123,27.0,11.0,23.0,41.89203552531817,-87.71743441268688,"(41.89203552531817, -87.71743441268687)",2013-01-17
Vacant/Abandoned Building,13-00065865,01/17/2013,Front,,Open,,Vacant,False,False,2233,W,69TH,ST,60636.0,1162501.06071929,1858862.45780467,17.0,8.0,66.0,41.76837152829652,-87.67991299809631,"(41.76837152829652, -87.67991299809631)",2013-01-17
Vacant/Abandoned Building,13-00066724,01/17/2013,Front,,Open,12 UNIT BUILDING,Vacant,False,True,7300,S,PRINCETON,AVE,60621.0,1175556.89011574,1856555.2011319,17.0,7.0,69.0,41.761758006773036,-87.63212612788206,"(41.761758006773036, -87.63212612788207)",2013-01-17
Vacant/Abandoned Building,13-00066778,01/17/2013,Rear,,Open,,Vacant,False,False,6728,S,PEORIA,ST,60621.0,1171466.56189264,1860226.95558024,17.0,7.0,68.0,41.77192427033936,-87.64701019439596,"(41.77192427033936, -87.64701019439595)",2013-01-17
Vacant/Abandoned Building,13-00067937,01/17/2013,Front,,Open,FRONT DOOR,Vacant,True,True,3044,N,DRAKE,AVE,60618.0,1152259.32982526,1920116.27019389,35.0,14.0,21.0,41.93666670198709,-87.71583966991034,"(41.936666701987086, -87.71583966991035)",2013-01-17
Vacant/Abandoned Building,13-00068323,01/17/2013,Front,,Open,,Vacant,True,True,6946,S,WINCHESTER,AVE,60636.0,1164554.62593183,1858623.31563094,17.0,7.0,67.0,41.76767223179691,-87.67239239759157,"(41.76767223179691, -87.67239239759158)",2013-01-17
Vacant/Abandoned Building,13-00068642,01/17/2013,Front,,Open,,Vacant,False,True,3610,W,GRAND,AVE,60651.0,1152088.65080688,1907607.12719542,26.0,11.0,23.0,41.90234388898412,-87.71679745255226,"(41.90234388898412, -87.71679745255227)",2013-01-17
Vacant/Abandoned Building,13-00068732,01/17/2013,Front,,Open,FRONT DOOR,Vacant,False,True,2030,W,68TH,ST,60636.0,1164013.43123429,1859559.13716707,15.0,7.0,67.0,41.770251649501404,-87.67434984162462,"(41.770251649501404, -87.67434984162463)",2013-01-17
Vacant/Abandoned Building,13-00068758,01/17/2013,Front,,Open,FRONT,Vacant,False,True,257,N,KOSTNER,AVE,60624.0,1147012.12108311,1901162.12513106,28.0,11.0,26.0,41.88475669918322,-87.73560942267406,"(41.88475669918322, -87.73560942267406)",2013-01-17
Vacant/Abandoned Building,13-00068892,01/17/2013,Front,,Open,,Vacant,False,False,6128,N,PULASKI,RD,60646.0,1148569.72847644,1940407.48661325,39.0,17.0,13.0,41.992419394411456,-87.72887343561675,"(41.99241939441145, -87.72887343561675)",2013-01-17
Vacant/Abandoned Building,13-00068906,01/17/2013,Front,,Open,FRONT AND REAR,Vacant,False,False,4920,W,CRYSTAL,ST,60651.0,1143337.39809025,1907869.23477207,37.0,25.0,25.0,41.903231230304044,-87.74893595034328,"(41.90323123030404, -87.74893595034328)",2013-01-17
Vacant/Abandoned Building,13-00069423,01/17/2013,Front,,Open,,Vacant,False,True,2720,N,WILTON,AVE,60614.0,1169484.10660955,1918258.15049597,43.0,19.0,7.0,41.9312100365221,-87.65259086510241,"(41.9312100365221, -87.6525908651024)",2013-01-17
Vacant/Abandoned Building,13-00069622,01/17/2013,Rear,,Open,,Vacant,True,False,3704,W,HURON,ST,60624.0,1151553.73089648,1904416.47541482,27.0,11.0,23.0,41.89359895692576,-87.7188462516654,"(41.89359895692576, -87.7188462516654)",2013-01-17
Vacant/Abandoned Building,13-00069623,01/17/2013,Front,,Open,,Vacant,False,False,6343,S,PAULINA,ST,60636.0,1166088.87682305,1862631.13271006,15.0,7.0,67.0,41.778637716657045,-87.66665479551737,"(41.778637716657045, -87.66665479551737)",2013-01-17
Vacant/Abandoned Building,13-00069886,01/17/2013,Front,,Open,FRONT AND REAR,Vacant,False,False,6400,S,WINCHESTER,AVE,60636.0,1164455.57713032,1862218.15261748,15.0,7.0,67.0,41.77753903631812,-87.67265423257885,"(41.77753903631812, -87.67265423257885)",2013-01-17
Vacant/Abandoned Building,13-00069892,01/17/2013,Front,,Open,FRONT AND REAR,Vacant,False,False,6452,S,WINCHESTER,AVE,60636.0,1164465.10980603,1861870.48881966,15.0,7.0,67.0,41.776584799849616,-87.6726290779224,"(41.776584799849616, -87.67262907792241)",2013-01-17
Vacant/Abandoned Building,13-00069904,01/17/2013,Front,,Open,"FRONT, REAR",Vacant,False,False,6448,S,WOLCOTT,AVE,60636.0,1164792.56618864,1861924.73197044,15.0,7.0,67.0,41.77672674018946,-87.67142710461914,"(41.77672674018946, -87.67142710461914)",2013-01-17
Vacant/Abandoned Building,13-00069927,01/17/2013,Front,,Open,ALL DOORS & WINDOWS,Vacant,False,True,5631,S,BISHOP,ST,60636.0,1167625.42023259,1867399.16426981,16.0,7.0,67.0,41.79168894978571,-87.66088500896983,"(41.79168894978571, -87.66088500896981)",2013-01-17
Vacant/Abandoned Building,13-00070114,01/17/2013,Front,,Open,,Vacant,False,False,1113,N,ASHLAND,AVE,60622.0,1165522.09308715,1907557.83006704,1.0,12.0,24.0,41.90193308672089,-87.66745575880907,"(41.90193308672089, -87.66745575880906)",2013-01-17
Vacant/Abandoned Building,13-00070678,01/18/2013,Front,,Open,,Vacant,False,False,635,S,WOLCOTT,AVE,60612.0,1163871.85472525,1897162.88438185,2.0,12.0,28.0,41.87344351429199,-87.6738107473335,"(41.873443514291985, -87.67381074733352)",2013-01-18
Vacant/Abandoned Building,13-00070686,01/18/2013,Front,,Open,DOOR,Vacant,False,False,6348,S,WOLCOTT,AVE,60636.0,1164775.08059888,1862563.67731751,15.0,7.0,67.0,41.77848045954645,-87.67147317828987,"(41.778480459546444, -87.67147317828987)",2013-01-18
Vacant/Abandoned Building,13-00070907,01/18/2013,Front,,Open,2ND FLOOR WINDOWS ARE OUT,Vacant,False,True,5930,S,CAMPBELL,AVE,60629.0,1160719.86481979,1865262.8547333,16.0,8.0,66.0,41.78597206008763,-87.68626545050924,"(41.78597206008763, -87.68626545050923)",2013-01-18
Vacant/Abandoned Building,13-00070959,01/18/2013,Front,,Open,,Vacant,False,False,6823,S,WINCHESTER,AVE,60636.0,1164533.4098848999,1859417.02791917,17.0,7.0,67.0,41.769850733837856,-87.67244780928603,"(41.76985073383786, -87.67244780928601)",2013-01-18
Vacant/Abandoned Building,13-00071681,01/18/2013,Front,,Open,,Vacant,False,True,6433,S,MARSHFIELD,AVE,60636.0,1166430.04568708,1862047.78148752,15.0,7.0,67.0,41.77702966124178,-87.66542065542231,"(41.77702966124178, -87.66542065542232)",2013-01-18
Vacant/Abandoned Building,13-00071841,01/18/2013,Garage,,Open,FRONT AND REAR,Vacant,False,False,6942,S,PEORIA,ST,60621.0,1171503.67480889,1858808.32286876,17.0,7.0,68.0,41.768030557342,-87.64691565321695,"(41.768030557342, -87.64691565321696)",2013-01-18
Vacant/Abandoned Building,13-00072006,01/18/2013,Front,,Open,ALL AROUND,Vacant,False,True,954,E,76TH,ST,60619.0,1183986.69371205,1854819.4253051002,8.0,6.0,69.0,41.756802146270225,-87.60128444161354,"(41.75680214627023, -87.60128444161354)",2013-01-18
Vacant/Abandoned Building,13-00072440,01/18/2013,Front,,Open,FRONT,Vacant,False,False,4435,W,JACKSON,BLVD,60624.0,1146867.02799495,1898318.2824918998,24.0,11.0,26.0,41.876955636723594,-87.73621489031216,"(41.87695563672359, -87.73621489031216)",2013-01-18
Vacant/Abandoned Building,13-00072483,01/18/2013,Front,,Open,FRONT,Vacant,False,True,4108,W,GLADYS,AVE,60624.0,1149061.1921275,1898038.12838877,28.0,11.0,26.0,41.87614469047937,-87.72816575552814,"(41.87614469047937, -87.72816575552814)",2013-01-18
Vacant/Abandoned Building,13-00072763,01/18/2013,Front,,Open,WHOLE BUILDING,Vacant,False,True,3235,W,FULTON,BLVD,60624.0,1154748.17552893,1901818.64059706,28.0,11.0,27.0,41.886406868059396,-87.70718372178612,"(41.886406868059396, -87.70718372178612)",2013-01-18
Vacant/Abandoned Building,13-00073606,01/18/2013,Front,,Open,FRONT AND REAR,Vacant,False,True,5915,W,FOSTER,AVE,60630.0,1135694.7883995,1934216.8338112,45.0,16.0,11.0,41.97567131425868,-87.77638048859832,"(41.975671314258676, -87.77638048859833)",2013-01-18
Vacant/Abandoned Building,13-00073682,01/18/2013,Front,,Open,THE ENTRY POINT IS IN THE FRONT OF THE BUILDING.,Vacant,False,False,1426,W,73RD,PL,60636.0,1168003.09047274,1856007.14187632,17.0,7.0,67.0,41.76041969444107,-87.65982731239944,"(41.76041969444107, -87.65982731239946)",2013-01-18
Vacant/Abandoned Building,13-00073776,01/18/2013,Front,,Open,REAR DOOR,Vacant,False,True,3519,W,CHICAGO,AVE,60651.0,1152699.1563818,1905109.13140791,27.0,11.0,23.0,41.895477085600035,-87.71462112902884,"(41.895477085600035, -87.71462112902884)",2013-01-18
Vacant/Abandoned Building,13-00073970,01/18/2013,Garage,,Open,SIDE DOOR AND GARAGE DOOR BROKEN OPEN,Vacant,True,True,6238,S,CALIFORNIA,AVE,60629.0,1158782.95171782,1863159.3203013001,15.0,8.0,66.0,41.780239446293905,-87.69342456204349,"(41.78023944629391, -87.6934245620435)",2013-01-18
Vacant/Abandoned Building,13-00074144,01/18/2013,Front,,Open,ALL DOORS AND WINDOWS,Vacant,False,True,3320,W,65TH,PL,60629.0,1155384.74482944,1860995.94686931,15.0,8.0,66.0,41.774371543455466,-87.7059409072678,"(41.774371543455466, -87.7059409072678)",2013-01-18
Vacant/Abandoned Building,13-00074388,01/18/2013,,,,,,,,5300,S,ASHLAND,AVE,60609.0,1166573.4994827,1869571.68656698,16.0,9.0,61.0,41.79767312431974,-87.66468024718327,"(41.79767312431974, -87.66468024718326)",2013-01-18
Vacant/Abandoned Building,13-00074471,01/18/2013,Front,,Open,THE FRONT DOOR,Vacant,False,False,5028,W,DIVISION,ST,60651.0,1142490.09001919,1907520.17991463,37.0,25.0,25.0,41.90228918140358,-87.75205701511558,"(41.902289181403575, -87.75205701511558)",2013-01-18
Vacant/Abandoned Building,13-00074488,01/18/2013,Rear,,Open,SIDES AND REAR,Vacant,False,False,5516,W,CORTLAND,ST,60639.0,1139248.48357067,1911905.31187866,37.0,25.0,25.0,41.91438215021768,-87.76385716226505,"(41.91438215021769, -87.76385716226505)",2013-01-18
Vacant/Abandoned Building,13-00074529,01/19/2013,Front,,Open,FRONT & REAR,Vacant,False,False,3916,W,ROOSEVELT,RD,60624.0,1150565.87930845,1894426.86536963,24.0,11.0,29.0,41.866205727617434,-87.72273533883545,"(41.86620572761744, -87.72273533883545)",2013-01-19
Vacant/Abandoned Building,13-00074642,01/19/2013,Front,,Boarded,THE BOARD ON THE SIDE BASEMENT DOOR HAS BEEN REMOVED,Vacant,False,True,6450,S,CLAREMONT,AVE,60636.0,1161841.50018691,1862151.96547306,15.0,8.0,66.0,41.777412121451356,-87.68223933425442,"(41.77741212145136, -87.68223933425442)",2013-01-19
Vacant/Abandoned Building,13-00074679,01/19/2013,Front,,Open,FRONT,Vacant,False,True,6142,S,ASHLAND,AVE,60636.0,1166723.55111798,1863985.12176826,15.0,7.0,67.0,41.782339707504384,-87.66428941146232,"(41.782339707504384, -87.66428941146233)",2013-01-19
Vacant/Abandoned Building,13-00074811,01/19/2013,Front,,Open,FRONT AND REAR,Vacant,False,False,3920,W,FLOURNOY,ST,60624.0,1150356.70512576,1896741.41906986,24.0,11.0,26.0,41.87256120967898,-87.72344287136318,"(41.87256120967898, -87.72344287136318)",2013-01-19
Vacant/Abandoned Building,13-00074906,01/19/2013,Front,,Open,,Vacant,True,True,4247,W,VAN BUREN,ST,60624.0,1148142.31040779,1897684.07786877,24.0,11.0,26.0,41.8751908637111,-87.73154871687805,"(41.8751908637111, -87.73154871687804)",2013-01-19
Vacant/Abandoned Building,13-00074976,01/19/2013,Front,,Open,REAR,Vacant,False,True,3336,W,MONROE,ST,60624.0,1154170.13832037,1899338.87353039,28.0,11.0,27.0,41.879613690207705,-87.70937263447935,"(41.8796136902077, -87.70937263447935)",2013-01-19
Vacant/Abandoned Building,13-00074985,01/19/2013,Front,,Open,FRONT,Vacant,False,False,5538,S,LAFAYETTE,AVE,60621.0,1176922.93017244,1868198.40547331,3.0,2.0,40.0,41.79367752694933,-87.6267688522195,"(41.793677526949324, -87.6267688522195)",2013-01-19
Vacant/Abandoned Building,13-00074993,01/19/2013,Front,,Open,WHOLE BUILDING,Vacant,False,True,3317,W,VAN BUREN,ST,60624.0,1154243.81731046,1897829.92816732,28.0,11.0,27.0,41.87547151716979,-87.70914238965038,"(41.8754715171698, -87.70914238965037)",2013-01-19
Vacant/Abandoned Building,13-00075054,01/19/2013,Front,,Open,FRONT,Vacant,False,True,4718,W,MAYPOLE,AVE,60644.0,1144887.94858028,1901045.30906881,28.0,11.0,25.0,41.88447647710614,-87.7434127325655,"(41.88447647710614, -87.7434127325655)",2013-01-19
Vacant/Abandoned Building,13-00075058,01/19/2013,Front,,Open,WHOLE BUILDING,Vacant,False,True,4646,W,MAYPOLE,AVE,60644.0,1145383.81379889,1901056.19968704,28.0,11.0,25.0,41.884496993978466,-87.74159155410992,"(41.88449699397847, -87.74159155410992)",2013-01-19
Vacant/Abandoned Building,13-00075166,01/19/2013,Front,,Open,,Vacant,False,False,3700,W,HURON,ST,60624.0,1151594.03089648,1904417.37541482,27.0,11.0,23.0,41.893600634520716,-87.71869821900974,"(41.893600634520716, -87.71869821900974)",2013-01-19
Vacant/Abandoned Building,13-00075195,01/19/2013,Front,,Open,SIDE EAST,Vacant,False,True,3248,W,HURON,ST,60624.0,1154510.41258324,1904478.47912463,27.0,11.0,23.0,41.893710481118724,-87.70798566407991,"(41.89371048111873, -87.7079856640799)",2013-01-19
Vacant/Abandoned Building,13-00075280,01/19/2013,Front,,Open,OPEN AND ABANDON -- OPEN AND FILLED WITH GARBAGE,Vacant,False,True,6727,S,CHAPPEL,AVE,60649.0,1191035.78999097,1860770.79000746,5.0,3.0,43.0,41.77296566620733,-87.57525893405358,"(41.772965666207334, -87.57525893405358)",2013-01-19
Vacant/Abandoned Building,13-00075423,01/19/2013,Front,,Boarded,,Vacant,False,True,1518,N,TALMAN,AVE,60622.0,1158471.04329662,1909992.69230186,26.0,14.0,24.0,41.90876181249751,-87.69328847681889,"(41.90876181249751, -87.69328847681889)",2013-01-19
Vacant/Abandoned Building,13-00075434,01/19/2013,Front,,Open,FRONT AND BACK DOOR IS OPEN.,Vacant,False,True,5812,S,WOLCOTT,AVE,60636.0,1164679.15888543,1866206.92867068,15.0,7.0,67.0,41.78848003606861,-87.6717220629643,"(41.78848003606862, -87.67172206296432)",2013-01-19
Vacant/Abandoned Building,13-00075449,01/19/2013,Front,,Open,FRONT,Vacant,False,False,324,W,80TH,ST,60620.0,1175419.16068921,1851899.39390242,17.0,6.0,44.0,41.74898499267081,-87.63276987167225,"(41.74898499267081, -87.63276987167225)",2013-01-19
Vacant/Abandoned Building,13-00076136,01/20/2013,Front,,Open,FRONT,Vacant,False,True,5236,S,ALBANY,AVE,60632.0,1156598.49962788,1869750.23148333,14.0,9.0,63.0,41.79837017219269,-87.70125553234489,"(41.79837017219269, -87.70125553234489)",2013-01-20
Vacant/Abandoned Building,13-00076234,01/20/2013,Front,,Open,,Vacant,False,True,12621,S,EGGLESTON,AVE,60628.0,1175599.98367619,1821136.89009589,9.0,5.0,53.0,41.6645642339472,-87.63302399511896,"(41.6645642339472, -87.63302399511895)",2013-01-20
Vacant/Abandoned Building,13-00076265,01/20/2013,Front,,Open,REAR DOOR,Vacant,False,True,6755,S,WOLCOTT,AVE,60636.0,1164851.63853261,1859872.84972142,15.0,7.0,67.0,41.77109485422128,-87.6712684552004,"(41.77109485422128, -87.6712684552004)",2013-01-20
Vacant/Abandoned Building,13-00076399,01/20/2013,Front,,Boarded,OVERGROWN BACKYARD TREE,Vacant,False,False,6051,S,PEORIA,ST,60621.0,1171353.52996946,1864588.6799823998,16.0,7.0,68.0,41.783895830114496,-87.64729697970465,"(41.7838958301145, -87.64729697970466)",2013-01-20
Vacant/Abandoned Building,13-00076436,01/20/2013,Front,,Boarded,,Vacant,False,False,6734,S,CHAPPEL,AVE,60649.0,1191037.18999097,1860723.99000746,5.0,3.0,43.0,41.77283720956233,-87.57525531429998,"(41.77283720956233, -87.57525531429998)",2013-01-20
Vacant/Abandoned Building,13-00076450,01/20/2013,Front,,Open,DOORS,Vacant,False,True,3332,W,61ST,ST,60629.0,1155223.61501217,1863978.57869342,16.0,8.0,66.0,41.782559556699574,-87.7064518801518,"(41.78255955669958, -87.70645188015179)",2013-01-20
Vacant/Abandoned Building,13-00077140,01/20/2013,Front,,Open,,Vacant,False,False,8500,W,AGATITE,AVE,60656.0,1118564.42001776,1928620.74131345,36.0,16.0,76.0,41.960603293637796,-87.8394952857472,"(41.9606032936378, -87.8394952857472)",2013-01-20
Vacant/Abandoned Building,13-00077865,01/21/2013,Front,,Open,NEED BOARD UP ALL AROUND,Vacant,False,False,5006,S,SEELEY,AVE,60609.0,1163536.43501436,1871464.39076981,16.0,9.0,61.0,41.802931224680336,-87.67576456463435,"(41.802931224680336, -87.67576456463435)",2013-01-21
Vacant/Abandoned Building,13-00077912,01/21/2013,Front,,Open,ALL OVER,Vacant,False,False,6332,S,EVANS,AVE,60637.0,1182308.25551509,1863187.37672714,20.0,3.0,42.0,41.77980365815212,-87.60717664492313,"(41.77980365815212, -87.60717664492314)",2013-01-21
Vacant/Abandoned Building,13-00078007,01/21/2013,Garage,,Open,,Occupied,False,True,7320,S,PAXTON,AVE,60649.0,1192152.1209961001,1856857.58733152,5.0,3.0,43.0,41.7622004637604,-87.57129391561244,"(41.762200463760394, -87.57129391561246)",2013-01-21
Vacant/Abandoned Building,13-00078197,01/21/2013,Front,,Open,,Vacant,False,True,2930,N,WISNER,AVE,60618.0,1152819.73288326,1919136.48398758,35.0,14.0,21.0,41.933966996695354,-87.71380612786287,"(41.93396699669535, -87.71380612786288)",2013-01-21
Vacant/Abandoned Building,13-00078534,01/21/2013,Front,,Open,SIDE DOOR IS OPEN,Vacant,False,False,12699,S,EGGLESTON,AVE,60628.0,1175617.5798682,1820673.8914816002,9.0,5.0,53.0,41.6632932974377,-87.63297336937107,"(41.663293297437704, -87.63297336937106)",2013-01-21
Vacant/Abandoned Building,13-00078722,01/21/2013,Garage,,Open,,Vacant,True,False,1529,S,TRIPP,AVE,60623.0,1148302.13932585,1892176.24001801,24.0,10.0,29.0,41.86007361985597,-87.73110375344416,"(41.860073619855974, -87.73110375344416)",2013-01-21
Vacant/Abandoned Building,13-00078903,01/21/2013,Rear,,Open,FAST TRACK DEMOLITION,Vacant,True,False,2200,S,WESTERN,AVE,60608.0,1160708.91778424,1889336.01098793,25.0,10.0,31.0,41.85203190617568,-87.6856402639871,"(41.85203190617568, -87.68564026398711)",2013-01-21
