SERVICE REQUEST TYPE,SERVICE REQUEST NUMBER,DATE SERVICE REQUEST WAS RECEIVED,"LOCATION OF BUILDING ON THE LOT (IF GARAGE, CHANGE TYPE CODE TO BGD).",IS THE BUILDING DANGEROUS OR HAZARDOUS?,IS BUILDING OPEN OR BOARDED?,"IF THE BUILDING IS OPEN, WHERE IS THE ENTRY POINT?",IS THE BUILDING CURRENTLY VACANT OR OCCUPIED?,IS THE BUILDING VACANT DUE TO FIRE?,"ANY PEOPLE USING PROPERTY? (HOMELESS, CHILDEN, GANGS)",ADDRESS STREET NUMBER,ADDRESS STREET DIRECTION,ADDRESS STREET NAME,ADDRESS STREET SUFFIX,ZIP CODE,X COORDINATE,Y COORDINATE,Ward,Police District,Community Area,LATITUDE,LONGITUDE,Location,date
Vacant/Abandoned Building,10-00423163,04/01/2010,Front,,Open,FRONT,Vacant,False,False,6818,S,MORGAN,ST,60621.0,1170820.15099024,1859612.47706803,17.0,7.0,68.0,41.7702521971923,-87.64939764190315,"(41.7702521971923, -87.64939764190316)",2010-04-01
Vacant/Abandoned Building,10-00423441,04/01/2010,Front,,Boarded,FRONT,Vacant,False,False,1321,W,71ST,ST,60636.0,1168509.69989069,1857679.13319518,17.0,7.0,67.0,41.7649969583929,-87.65792245738542,"(41.7649969583929, -87.65792245738542)",2010-04-01
Vacant/Abandoned Building,10-00424304,04/01/2010,,,,,,,,5700,S,LA SALLE,ST,60621.0,1176265.52173423,1867192.41989633,3.0,2.0,68.0,41.79093180340015,-87.62920971832749,"(41.79093180340015, -87.62920971832749)",2010-04-01
Vacant/Abandoned Building,10-00424593,04/01/2010,Front,,Open,REAR DOOR 1ST FLOOR AND WINDOWS,Vacant,False,True,7342,S,LANGLEY,AVE,60619.0,1182164.8926209,1856484.39840002,6.0,3.0,69.0,41.76141335065019,-87.60790949692263,"(41.761413350650194, -87.60790949692263)",2010-04-01
Vacant/Abandoned Building,10-00425061,04/01/2010,Front,,Open,FRONT,Vacant,False,False,306,W,118TH,ST,60628.0,1176335.24966876,1826680.38110818,34.0,5.0,53.0,41.679760025121425,-87.63016769677387,"(41.67976002512142, -87.63016769677387)",2010-04-01
Vacant/Abandoned Building,10-00425323,04/01/2010,Front,,Open,FRONT,Vacant,False,True,7826,S,MARSHFIELD,AVE,60620.0,1166702.81851722,1852812.6575264998,17.0,6.0,71.0,41.75168142566702,-87.66468385189474,"(41.75168142566702, -87.66468385189474)",2010-04-01
Vacant/Abandoned Building,10-00425441,04/01/2010,,,,,,,,12251,S,WALLACE,ST,60628.0,1174523.65651387,1823644.53773275,34.0,5.0,53.0,41.671469563848326,-87.63688873168579,"(41.67146956384833, -87.63688873168579)",2010-04-01
Vacant/Abandoned Building,10-00425644,04/01/2010,Rear,,Open,REAR DOOR,Vacant,False,True,9021,S,MORGAN,ST,60620.0,1171229.58606917,1844999.19301296,21.0,22.0,73.0,41.7301424804782,-87.64832328955522,"(41.7301424804782, -87.64832328955524)",2010-04-01
Vacant/Abandoned Building,10-00425660,04/01/2010,Garage,,Boarded,GARAGE,Vacant,False,True,3752,W,69TH,PL,60629.0,1152550.87440281,1858257.51147745,13.0,8.0,65.0,41.76691310379828,-87.71640150537014,"(41.76691310379828, -87.71640150537014)",2010-04-01
Vacant/Abandoned Building,10-00425731,04/01/2010,Front,,Open,WINDOWS AND UPSTAIR DOOR AND CHILDREN ARE RUNNING IN AND OUT DANGEROUS.  SOME HOW THEY ARE GETTING INTO THE FRONT DOOR AS WELL,Vacant,False,True,7948,S,CARPENTER,ST,60620.0,1170694.15842841,1852110.10130772,17.0,6.0,71.0,41.74966746745565,-87.65007790469198,"(41.749667467455644, -87.65007790469198)",2010-04-01
Vacant/Abandoned Building,10-00426136,04/01/2010,Front,,Open,FRONT DOOR IS WIDE OPEN,Vacant,False,False,20,W,114TH,PL,60628.0,1178152.76743438,1829050.43192788,34.0,5.0,49.0,41.68622290116584,-87.6234433230464,"(41.686222901165834, -87.62344332304639)",2010-04-01
Vacant/Abandoned Building,10-00426205,04/01/2010,Front,,Open,FRONT,Vacant,False,False,6731,S,SANGAMON,ST,60621.0,1171136.84642935,1860197.63798892,17.0,7.0,68.0,41.77185103321679,-87.64821968151956,"(41.77185103321679, -87.64821968151956)",2010-04-01
Vacant/Abandoned Building,10-00426270,04/01/2010,Front,,Open,ALL THROUGHOUT THE HOME,Vacant,False,True,6428,S,PARNELL,AVE,60621.0,1173723.1504688999,1862277.99458002,20.0,7.0,68.0,41.77750284221277,-87.63867754728649,"(41.77750284221277, -87.63867754728649)",2010-04-01
Vacant/Abandoned Building,10-00426352,04/01/2010,Front,,Open,BACK,Vacant,False,True,11246,S,EDBROOKE,AVE,60628.0,1179202.9173945,1830424.79582363,9.0,5.0,49.0,41.68997054322981,-87.61955725785255,"(41.689970543229805, -87.61955725785256)",2010-04-01
Vacant/Abandoned Building,10-00426470,04/01/2010,Front,,Boarded,"DEBRIS IN THE YARD, AND DO NOT HAVE A FENCE AROUND IT IN THE REAR",Vacant,False,False,7354,S,CHAMPLAIN,AVE,60619.0,1181836.95701184,1856394.0400307,6.0,3.0,69.0,41.76117298052203,-87.60911418538471,"(41.76117298052203, -87.60911418538471)",2010-04-01
Vacant/Abandoned Building,10-00426592,04/01/2010,Front,,Boarded,SIDE DR,Vacant,False,True,10624,S,INDIANA,AVE,60628.0,1179463.62141747,1834523.48998197,9.0,5.0,49.0,41.70121200306428,-87.61847828361637,"(41.70121200306428, -87.61847828361637)",2010-04-01
Vacant/Abandoned Building,10-00427025,04/01/2010,Front,,Open,FRONT AND REAR,Vacant,False,True,6401,S,MARYLAND,AVE,60637.0,1183004.94210457,1862747.13871633,20.0,3.0,42.0,41.77857943201133,-87.60463620321084,"(41.778579432011334, -87.60463620321084)",2010-04-01
Vacant/Abandoned Building,10-00427249,04/01/2010,Front,,Open,REAR,Vacant,False,True,10848,S,WABASH,AVE,60628.0,1178500.67782786,1833047.5906927,9.0,5.0,49.0,41.69718380723848,-87.62204886711744,"(41.697183807238474, -87.62204886711744)",2010-04-01
Vacant/Abandoned Building,10-00427541,04/01/2010,Front,,Open,FRONT/REAR,Vacant,False,False,9238,S,DREXEL,AVE,60619.0,1184171.99802588,1843806.48993215,8.0,4.0,47.0,41.72657713963742,-87.60094883487068,"(41.72657713963742, -87.60094883487068)",2010-04-01
Vacant/Abandoned Building,10-00428150,04/01/2010,Front,,Open,FRONT,Vacant,False,True,12428,S,EMERALD,AVE,60628.0,1173577.43876658,1822450.7790327,34.0,5.0,53.0,41.66821462558474,-87.64038699047305,"(41.66821462558474, -87.64038699047305)",2010-04-01
Vacant/Abandoned Building,10-00428554,04/01/2010,Front,,Open,REAR,Vacant,False,False,12862,S,NORMAL,AVE,60628.0,1175319.04000114,1819508.11996891,9.0,5.0,53.0,41.660100879236936,-87.63410048614679,"(41.66010087923694, -87.63410048614679)",2010-04-01
Vacant/Abandoned Building,10-00428822,04/01/2010,Front,,Open,FRONT PORCH,Vacant,False,True,7122,S,WOODLAWN,AVE,60619.0,1185447.76957476,1857933.13002022,5.0,3.0,69.0,41.765312206623456,-87.59583209094816,"(41.765312206623456, -87.59583209094815)",2010-04-01
Vacant/Abandoned Building,10-00428843,04/01/2010,Front,,Open,BOARDS HAVE BEEN RMVD FROM FRONT DOOR	,Vacant,False,True,11917,S,EGGLESTON,AVE,60628.0,1175440.74569252,1825883.68500247,34.0,5.0,53.0,41.67759375219646,-87.6334656559444,"(41.677593752196444, -87.6334656559444)",2010-04-01
Vacant/Abandoned Building,10-00429229,04/02/2010,Front,,Open,REAR,Vacant,False,False,9952,S,PARNELL,AVE,60628.0,1174386.35409152,1838895.62809861,9.0,22.0,73.0,41.71332393040419,-87.63693998144406,"(41.713323930404194, -87.63693998144406)",2010-04-02
Vacant/Abandoned Building,10-00429233,04/02/2010,Front,,Open,FRONT,Vacant,False,True,3745,N,OCTAVIA,AVE,60634.0,1126748.91431053,1923958.95586689,36.0,16.0,17.0,41.94767743948274,-87.80950903883722,"(41.94767743948274, -87.80950903883722)",2010-04-02
Vacant/Abandoned Building,10-00431234,04/02/2010,,,,,,,,7668,S,ESSEX,AVE,60649.0,1194193.06770487,1854601.33200882,7.0,4.0,43.0,41.75595926990772,-87.56388769055508,"(41.75595926990772, -87.56388769055508)",2010-04-02
Vacant/Abandoned Building,10-00431403,04/02/2010,Garage,,Open,GARAGE OPEN & BUILDING,Vacant,True,True,6229,S,TALMAN,AVE,60629.0,1159777.95589265,1863246.78640629,15.0,8.0,66.0,41.78045908880266,-87.6897742934557,"(41.78045908880266, -87.68977429345568)",2010-04-02
Vacant/Abandoned Building,10-00431458,04/02/2010,Front,,Open,FRONT AND REAR,Vacant,False,True,1676,W,HOLLYWOOD,AVE,60660.0,1163965.09522631,1937845.72989757,40.0,20.0,77.0,41.98507769956851,-87.67231687951883,"(41.98507769956851, -87.67231687951883)",2010-04-02
Vacant/Abandoned Building,10-00431775,04/02/2010,Front,,Open,FRONT AND  BACK,Vacant,False,True,2125,S,HARDING,AVE,60623.0,1150382.27671495,1889595.66989557,24.0,10.0,29.0,41.852951929555005,-87.72353533236937,"(41.85295192955501, -87.72353533236938)",2010-04-02
Vacant/Abandoned Building,10-00432537,04/02/2010,Front,,Open,BACK AND FRONT,Vacant,False,True,10616,S,WABASH,AVE,60628.0,1178455.52958411,1834563.79183225,9.0,5.0,49.0,41.70134549952037,-87.62216833376519,"(41.70134549952037, -87.62216833376519)",2010-04-02
Vacant/Abandoned Building,10-00432912,04/02/2010,Front,,Boarded,,Vacant,False,False,6128,S,THROOP,ST,60636.0,1168675.55998983,1864128.68093372,16.0,7.0,67.0,41.78269175014147,-87.65712866010139,"(41.78269175014147, -87.65712866010139)",2010-04-02
Vacant/Abandoned Building,10-00433577,04/02/2010,Front,,Open,FRONT DOOR OPEN,Vacant,False,False,11918,S,EGGLESTON,AVE,60628.0,1175440.94569252,1825876.98500247,34.0,5.0,53.0,41.67757536188158,-87.63346512308239,"(41.67757536188158, -87.63346512308239)",2010-04-02
Vacant/Abandoned Building,10-00433596,04/02/2010,Front,,Open,REAR DOORS..,Vacant,False,True,7845,S,INDIANA,AVE,60619.0,1178951.49997063,1853037.4573702,6.0,6.0,69.0,41.752028317869026,-87.61979154337567,"(41.75202831786902, -87.61979154337565)",2010-04-02
Vacant/Abandoned Building,10-00434322,04/02/2010,Rear,,Open,REAR,Vacant,False,True,10725,S,WENTWORTH,AVE,60628.0,1176851.69001532,1833706.0900223998,34.0,5.0,49.0,41.699028035447995,-87.62806675286781,"(41.69902803544799, -87.62806675286782)",2010-04-02
Vacant/Abandoned Building,10-00434426,04/02/2010,Front,,Open,FRONT,Vacant,False,False,526,N,SPRINGFIELD,AVE,60624.0,1150295.43600197,1903230.07849295,27.0,11.0,23.0,41.89036799577574,-87.72349853676624,"(41.89036799577574, -87.72349853676624)",2010-04-02
Vacant/Abandoned Building,10-00434727,04/02/2010,Front,,Open,REAR,Vacant,False,True,1269,W,71ST,ST,60636.0,1169025.75993025,1857693.13310045,17.0,7.0,67.0,41.76502424062033,-87.6560305430131,"(41.76502424062033, -87.6560305430131)",2010-04-02
Vacant/Abandoned Building,10-00435239,04/03/2010,Front,,Open,DOORS AND WINDOWS,Vacant,False,True,5741,S,ARTESIAN,AVE,60629.0,1161016.34842563,1866528.22698768,16.0,8.0,63.0,41.7894382833221,-87.68514341399903,"(41.789438283322085, -87.68514341399901)",2010-04-03
Vacant/Abandoned Building,10-00435309,04/03/2010,Front,,Boarded,,Vacant,False,False,1402,N,CAMPBELL,AVE,60622.0,1159484.85377194,1909241.8951889998,26.0,14.0,24.0,41.906680746754105,-87.6895849142242,"(41.906680746754105, -87.68958491422421)",2010-04-03
Vacant/Abandoned Building,10-00435321,04/03/2010,Front,,Boarded,,Vacant,False,False,1500,N,ARTESIAN,AVE,60622.0,1159801.93607788,1909899.97499678,1.0,14.0,24.0,41.90848003359901,-87.68840196600759,"(41.90848003359901, -87.68840196600759)",2010-04-03
Vacant/Abandoned Building,10-00435359,04/03/2010,Front,,Open,FRONT,Vacant,False,False,5916,S,CALUMET,AVE,60637.0,1179493.6974187999,1865860.3874701,20.0,2.0,40.0,41.787203418290794,-87.61741350764095,"(41.7872034182908, -87.61741350764096)",2010-04-03
Vacant/Abandoned Building,10-00435500,04/03/2010,Front,,Open,FRONT AND SIDE DOOR,Vacant,False,False,1221,W,97TH,PL,60643.0,1169891.30499758,1840195.11081972,21.0,22.0,73.0,41.716988493878205,-87.65336483130972,"(41.7169884938782, -87.65336483130972)",2010-04-03
Vacant/Abandoned Building,10-00436136,04/03/2010,Front,,Open,FRONT DOOR,Vacant,False,False,8512,S,MUSKEGON,AVE,60617.0,1196633.15361683,1849081.1995902,7.0,4.0,46.0,41.740751376234996,-87.55512848141521,"(41.740751376235, -87.55512848141522)",2010-04-03
Vacant/Abandoned Building,10-00436291,04/03/2010,Front,,Open,"FRONT AND REAR DOOR, ALL WINDOWS",Vacant,False,True,1633,W,85TH,ST,60620.0,1166816.98738985,1848343.8009908001,18.0,6.0,71.0,41.73941580928055,-87.66439278475137,"(41.73941580928055, -87.66439278475137)",2010-04-03
Vacant/Abandoned Building,10-00436392,04/03/2010,Front,,Open,FRONT AND REAR,Vacant,False,True,12105,S,HALSTED,ST,60628.0,1173179.34370394,1824567.05059262,34.0,5.0,53.0,41.67403080028638,-87.64178177772301,"(41.67403080028638, -87.641781777723)",2010-04-03
Vacant/Abandoned Building,10-00436913,04/04/2010,Front,,Open,FRONT DOOR AND SIDE WINDOW,Vacant,False,False,9330,S,HARPER,AVE,60619.0,1188077.2418948,1843418.55103113,8.0,4.0,48.0,41.725420526032906,-87.58665604042173,"(41.725420526032906, -87.58665604042173)",2010-04-04
Vacant/Abandoned Building,10-00437601,04/04/2010,Front,,Open,FRONT & UTILITY DOOR ON THE SIDE AS WELL IS OPEN.,Vacant,False,False,4437,S,PRAIRIE,AVE,60653.0,1178782.16623066,1875655.91499958,3.0,2.0,38.0,41.814099463016,-87.61972418154167,"(41.814099463016, -87.61972418154167)",2010-04-04
Vacant/Abandoned Building,10-00437752,04/04/2010,Front,,Open,REAR,Vacant,False,True,9627,S,CHARLES,ST,60643.0,1167133.18287588,1840945.15467285,19.0,22.0,72.0,41.71910606260846,-87.66344525904493,"(41.71910606260846, -87.66344525904493)",2010-04-04
Vacant/Abandoned Building,10-00440551,04/05/2010,Rear,,Open,FRONT & REAR,Vacant,False,True,7039,S,HERMITAGE,AVE,60636.0,1165896.90370655,1858013.51332571,17.0,7.0,67.0,41.76597044250001,-87.66748964508116,"(41.76597044250001, -87.66748964508115)",2010-04-05
Vacant/Abandoned Building,10-00440735,04/05/2010,Rear,,Open,,Vacant,False,False,915,W,87TH,ST,60620.0,1171643.05191119,1847147.32991997,21.0,22.0,71.0,41.73602822689596,-87.64674586491581,"(41.73602822689596, -87.64674586491581)",2010-04-05
Vacant/Abandoned Building,10-00441502,04/05/2010,Front,,Open,,Vacant,False,True,7729,S,MICHIGAN,AVE,60619.0,1178492.50073388,1853794.406805,6.0,6.0,69.0,41.75411590740657,-87.62145060611245,"(41.75411590740657, -87.62145060611243)",2010-04-05
Vacant/Abandoned Building,10-00441547,04/05/2010,Front,,Boarded,,Vacant,False,True,7538,S,WINCHESTER,AVE,60620.0,1164663.49011537,1854649.686971,18.0,6.0,71.0,41.756765745362976,-87.67210532109475,"(41.75676574536298, -87.67210532109475)",2010-04-05
Vacant/Abandoned Building,10-00442535,04/05/2010,Front,,Open,"ALL WINDOWS,DOORS",Vacant,False,False,6342,S,HOYNE,AVE,60636.0,1163452.93691096,1862568.61861535,15.0,7.0,67.0,41.77852184138627,-87.6763201146399,"(41.77852184138627, -87.6763201146399)",2010-04-05
Vacant/Abandoned Building,10-00442968,04/05/2010,Front,,Open,OPEN IN FRONT AND BACK WITH ILLEGAL ACTIVITIES GOING ON.  PROSTITUTES AND DRUGS,Vacant,False,True,7428,S,PEORIA,ST,60621.0,1171595.16246717,1855465.95502053,17.0,7.0,68.0,41.7588566806203,-87.64667810731855,"(41.7588566806203, -87.64667810731856)",2010-04-05
Vacant/Abandoned Building,10-00443065,04/05/2010,Front,,Open,OPEN FRONT AND BACK AND PROSTITUTION IS GOING ON AND ILLEGAL ACTIVITY GOING ON.,Vacant,False,True,7426,S,PEORIA,ST,60621.0,1171594.66246717,1855488.05502053,17.0,7.0,68.0,41.75891733676689,-87.6466792932876,"(41.758917336766885, -87.6466792932876)",2010-04-05
Vacant/Abandoned Building,10-00444109,04/05/2010,Front,,Open,,Vacant,False,True,8731,S,BURLEY,AVE,60617.0,1199185.30987389,1847692.75259746,10.0,4.0,46.0,41.736877663169686,-87.54582438138408,"(41.73687766316969, -87.5458243813841)",2010-04-05
Vacant/Abandoned Building,10-00444315,04/05/2010,Front,,Open,FRONT ENTRANCE,Occupied,False,True,5625,S,PRINCETON,AVE,60621.0,1175246.12878755,1867627.18056735,3.0,7.0,68.0,41.792147681075676,-87.63293458908295,"(41.79214768107567, -87.63293458908296)",2010-04-05
Vacant/Abandoned Building,10-00445193,04/05/2010,Front,,Open,FRONT,Vacant,False,False,6450,S,CLAREMONT,AVE,60636.0,1161841.50018691,1862151.96547306,15.0,8.0,66.0,41.777412121451356,-87.68223933425442,"(41.77741212145136, -87.68223933425442)",2010-04-05
Vacant/Abandoned Building,10-00445293,04/05/2010,Front,,Open,FRONT DOOR,Vacant,True,True,5948,S,SANGAMON,ST,60621.0,1170992.89208595,1865385.58472378,16.0,7.0,68.0,41.786090516744935,-87.64859594042362,"(41.78609051674494, -87.64859594042363)",2010-04-05
Vacant/Abandoned Building,10-00445380,04/05/2010,Front,,Open,WINDOWS ON SIDE,Vacant,False,False,718,E,92ND,ST,60619.0,1182630.20773355,1844129.58050655,6.0,6.0,44.0,41.72749959649104,-87.60658652276415,"(41.72749959649105, -87.60658652276416)",2010-04-05
Vacant/Abandoned Building,10-00446532,04/06/2010,Front,,Open,DOORS ARE WIDE OPEN IN FRONT,Vacant,False,True,5936,S,STEWART,AVE,60621.0,1174530.01921622,1865565.06231574,20.0,7.0,68.0,41.786504990700934,-87.63562179790327,"(41.786504990700934, -87.63562179790327)",2010-04-06
Vacant/Abandoned Building,10-00446826,04/06/2010,Garage,,Boarded,GARAGE,Vacant,False,True,3524,W,DIVERSEY,AVE,60647.0,1152293.05630675,1918389.08273229,35.0,14.0,21.0,41.93192649457927,-87.71576144506844,"(41.931926494579265, -87.71576144506844)",2010-04-06
Vacant/Abandoned Building,10-00447030,04/06/2010,Front,,Boarded,REAR BACK WINDOW,Vacant,False,True,7618,S,BLACKSTONE,AVE,60619.0,1187528.70861137,1854699.04002331,5.0,4.0,43.0,41.7563883569362,-87.58830757955359,"(41.7563883569362, -87.58830757955359)",2010-04-06
Vacant/Abandoned Building,10-00447831,04/06/2010,,,,,,,,10439,S,WABASH,AVE,60628.0,1178419.97521215,1835756.25540643,9.0,5.0,49.0,41.70461859087221,-87.62226246914993,"(41.70461859087221, -87.62226246914994)",2010-04-06
Vacant/Abandoned Building,10-00448054,04/06/2010,Front,,Open,,Vacant,False,True,7002,S,ROCKWELL,ST,60629.0,1160250.38878194,1858127.59029762,18.0,8.0,66.0,41.76640156902384,-87.68818305165358,"(41.76640156902384, -87.68818305165358)",2010-04-06
Vacant/Abandoned Building,10-00448370,04/06/2010,Rear,,Open,REAR,Vacant,False,False,11529,S,YALE,AVE,60628.0,1176674.00052278,1828488.42103293,34.0,5.0,53.0,41.684713969745054,-87.62887360831152,"(41.684713969745054, -87.62887360831152)",2010-04-06
Vacant/Abandoned Building,10-00448417,04/06/2010,Rear,,Open,OPEN,Vacant,False,False,30,W,114TH,ST,60628.0,1178067.22237807,1829369.05151962,34.0,5.0,49.0,41.68709917435545,-87.62374687813542,"(41.68709917435545, -87.6237468781354)",2010-04-06
Vacant/Abandoned Building,10-00448664,04/06/2010,Front,,Open,REAR,Vacant,False,True,7157,S,UNION,AVE,60621.0,1172987.24967698,1857424.76120056,6.0,7.0,68.0,41.764201279389184,-87.64151846802065,"(41.76420127938919, -87.64151846802064)",2010-04-06
Vacant/Abandoned Building,10-00449200,04/06/2010,Front,,Open,ALL OVER,Vacant,False,False,3647,W,ARMITAGE,AVE,60647.0,1151641.75997118,1913041.20112324,26.0,25.0,22.0,41.91726429587832,-87.71829583848086,"(41.91726429587832, -87.71829583848086)",2010-04-06
Vacant/Abandoned Building,10-00450460,04/06/2010,Front,,Boarded,,Vacant,False,True,1348,W,110TH,PL,60643.0,1169308.59367371,1831487.19607543,34.0,22.0,75.0,41.69310521448543,-87.65574998981981,"(41.69310521448543, -87.65574998981982)",2010-04-06
Vacant/Abandoned Building,10-00450576,04/06/2010,Front,,Open,REAR AND FRONT,Vacant,False,False,8045,S,ABERDEEN,ST,60620.0,1170381.82609315,1851457.87857119,21.0,6.0,71.0,41.74788448130955,-87.65124136638707,"(41.74788448130955, -87.65124136638707)",2010-04-06
Vacant/Abandoned Building,10-00450587,04/06/2010,Front,,Open,FRONT AND REAR,Vacant,False,False,7950,S,ABERDEEN,ST,60620.0,1170353.73533354,1852422.57173006,17.0,6.0,71.0,41.75053233940377,-87.65131627991673,"(41.750532339403776, -87.65131627991674)",2010-04-06
Vacant/Abandoned Building,10-00452015,04/06/2010,Front,,Open,HAS BROKEN WINDOWS AND IS ACROSS THE STREET FROM A SCHOOL.,Vacant,False,False,8039,S,WINCHESTER,AVE,60620.0,1164755.8345172,1851349.19121271,18.0,6.0,71.0,41.747706762057256,-87.67185988898217,"(41.747706762057256, -87.67185988898217)",2010-04-06
Vacant/Abandoned Building,10-00452312,04/06/2010,Front,,Open,REAR WINDOWS,Vacant,False,True,4050,S,CALUMET,AVE,60653.0,1179090.74776976,1878557.21586688,3.0,2.0,38.0,41.82205383188309,-87.61850375276161,"(41.822053831883096, -87.61850375276161)",2010-04-06
Vacant/Abandoned Building,10-00452315,04/06/2010,Front,,Open,REAR WINDOWS,Vacant,False,True,4050,S,CALUMET,AVE,60653.0,1179090.74776976,1878557.21586688,3.0,2.0,38.0,41.82205383188309,-87.61850375276161,"(41.822053831883096, -87.61850375276161)",2010-04-06
Vacant/Abandoned Building,10-00452443,04/06/2010,Front,,Open,,Vacant,False,False,8001,S,MAY,ST,60620.0,1170041.86411898,1851743.54419844,21.0,6.0,71.0,41.74867577486523,-87.65247881096235,"(41.74867577486523, -87.65247881096236)",2010-04-06
Vacant/Abandoned Building,10-00452659,04/06/2010,Front,,Open,FRONT DOOR,Vacant,False,True,8322,S,COLFAX,AVE,60617.0,1194950.32483165,1850294.25820045,7.0,4.0,46.0,41.7441217026236,-87.5612542093919,"(41.744121702623595, -87.5612542093919)",2010-04-06
Vacant/Abandoned Building,10-00452751,04/06/2010,Front,,Open,,Vacant,False,False,10601,S,CHAMPLAIN,AVE,60628.0,1182482.40993143,1834804.83401542,9.0,5.0,50.0,41.70191475583693,-87.60741591122543,"(41.701914755836924, -87.60741591122544)",2010-04-06
Vacant/Abandoned Building,10-00452838,04/06/2010,Front,,Open,FRONT,Vacant,False,False,12611,S,LOWE,AVE,60628.0,1174276.84089477,1821254.97351268,9.0,5.0,53.0,41.66491767619421,-87.63786264742109,"(41.6649176761942, -87.63786264742109)",2010-04-06
Vacant/Abandoned Building,10-00453019,04/06/2010,Front,,Open,FRONT AND REAR,Vacant,True,True,6246,S,DAMEN,AVE,60636.0,1164100.06922842,1863223.21177162,15.0,7.0,67.0,41.78030453915858,-87.67392927711893,"(41.78030453915858, -87.67392927711892)",2010-04-06
Vacant/Abandoned Building,10-00454572,04/07/2010,Front,,Open,,Vacant,False,False,3221,N,ASHLAND,AVE,60657.0,1165082.03048849,1921541.41868248,44.0,19.0,6.0,41.94031427204872,-87.66867405847047,"(41.940314272048724, -87.66867405847047)",2010-04-07
Vacant/Abandoned Building,10-00456319,04/07/2010,Rear,,Open,FRONT,Vacant,False,True,2508,W,65TH,ST,60629.0,1160739.55478831,1861474.80742419,15.0,8.0,66.0,41.77557672857851,-87.68629776528665,"(41.775576728578514, -87.68629776528665)",2010-04-07
Vacant/Abandoned Building,10-00456722,04/07/2010,Rear,,Open,"BACK WINDOW, AND SOUTH SIDE OF PROPERTY",Vacant,False,True,7442,S,CHAMPLAIN,AVE,60619.0,1181852.55701184,1855809.6400307,6.0,3.0,69.0,41.7595689660056,-87.60907504380688,"(41.7595689660056, -87.60907504380688)",2010-04-07
Vacant/Abandoned Building,10-00457692,04/07/2010,Rear,,Open,GARAGE,Vacant,False,False,4735,S,INDIANA,AVE,60615.0,1178397.39350649,1873673.32766929,3.0,2.0,38.0,41.80866783155963,-87.62119581450347,"(41.80866783155963, -87.62119581450345)",2010-04-07
Vacant/Abandoned Building,10-00458777,04/07/2010,Front,,Boarded,,Vacant,False,False,2615,N,AVERS,AVE,60647.0,1150273.06457506,1917115.56153373,35.0,25.0,22.0,41.928471529988414,-87.72321797246083,"(41.928471529988414, -87.72321797246083)",2010-04-07
Vacant/Abandoned Building,10-00459531,04/07/2010,Front,,Open,FRONT DOOR,Vacant,False,True,11847,S,LAFAYETTE,AVE,60628.0,1178043.55540593,1826405.89659477,34.0,5.0,53.0,41.678968369238405,-87.62392284153225,"(41.67896836923841, -87.62392284153225)",2010-04-07
Vacant/Abandoned Building,10-00459738,04/07/2010,Front,,Open,FRONT DOOR,Vacant,False,True,4725,W,WABANSIA,AVE,60639.0,1144510.43128716,1910878.07832777,37.0,25.0,25.0,41.911465811494544,-87.74455124428057,"(41.91146581149454, -87.74455124428057)",2010-04-07
Vacant/Abandoned Building,10-00462848,04/08/2010,Rear,,Open,OPEN GARAGE,Vacant,False,False,6836,S,MORGAN,ST,60621.0,1170823.55099024,1859492.07706803,17.0,7.0,68.0,41.76992173063119,-87.64938868850498,"(41.76992173063119, -87.64938868850498)",2010-04-08
Vacant/Abandoned Building,10-00463405,04/08/2010,Front,,Open,REAR,Vacant,False,False,8408,S,GREEN,ST,60620.0,1172100.3100049999,1849095.45457548,21.0,6.0,71.0,41.74136412199381,-87.64501355348764,"(41.741364121993804, -87.64501355348764)",2010-04-08
Vacant/Abandoned Building,10-00463608,04/08/2010,Front,,Open,FRONT & REAR -WINDOWS,Vacant,False,True,736,W,82ND,ST,60620.0,1172709.47831557,1850506.29757916,21.0,6.0,71.0,41.74522226857533,-87.64274011457472,"(41.745222268575326, -87.64274011457472)",2010-04-08
Vacant/Abandoned Building,10-00465395,04/08/2010,Front,,Open,FRONT DOOR AND WINDOWS.,Vacant,False,True,3533,W,LE MOYNE,ST,60651.0,1152531.62610651,1909741.71470123,26.0,14.0,23.0,41.908192649476526,-87.71511381795618,"(41.90819264947652, -87.71511381795618)",2010-04-08
Vacant/Abandoned Building,10-00466717,04/08/2010,Front,,Open,10 OR MORE GUY SIT ON THE  PORCHALL TIME  2 VACANT HOUSES 6221 624 S. WOLCOTT,Vacant,True,True,6221,S,WOLCOTT,AVE,60636.0,1164755.59122365,1863409.77437102,15.0,7.0,67.0,41.780802671927745,-87.67152075501117,"(41.78080267192775, -87.67152075501117)",2010-04-08
Vacant/Abandoned Building,10-00466790,04/08/2010,Front,,Open,FRONT & BASEMENT DOOR (STRUCTURE-BRICK),Vacant,False,False,5944,S,WINCHESTER,AVE,60636.0,1164374.57112889,1865239.63822426,15.0,7.0,67.0,41.78583209405951,-87.67286612168348,"(41.78583209405951, -87.67286612168348)",2010-04-08
Vacant/Abandoned Building,10-00466904,04/08/2010,Front,,Open,REAR (STRUCTURE-FRAME),Vacant,False,False,5941,S,WINCHESTER,AVE,60636.0,1164373.97112889,1865259.83822426,15.0,7.0,67.0,41.785887538098905,-87.6728677526587,"(41.78588753809891, -87.67286775265872)",2010-04-08
Vacant/Abandoned Building,10-00466935,04/08/2010,Front,,Open,,Vacant,False,True,7523,S,PAXTON,AVE,60649.0,1192177.97862798,1855513.68738051,7.0,4.0,43.0,41.75851206619404,-87.5712427815721,"(41.75851206619404, -87.5712427815721)",2010-04-08
Vacant/Abandoned Building,10-00467142,04/08/2010,,,,,,,,3748,W,77TH,PL,60652.0,1152644.49768602,1852883.14988492,18.0,8.0,70.0,41.752163130505465,-87.71619965495313,"(41.75216313050547, -87.71619965495314)",2010-04-08
Vacant/Abandoned Building,10-00467629,04/09/2010,Front,,Open,FRONT DOOR,Vacant,False,False,10507,S,EDBROOKE,AVE,60628.0,1179139.04001557,1835311.65011132,9.0,5.0,49.0,41.703382210023534,-87.61964286702495,"(41.703382210023534, -87.61964286702495)",2010-04-09
Vacant/Abandoned Building,10-00468217,04/09/2010,Front,,Open,ALL AROUND AND BSMT,Vacant,False,True,120,W,105TH,ST,60628.0,1177248.62003441,1835331.27000955,34.0,5.0,49.0,41.703478832065336,-87.62656455160631,"(41.703478832065336, -87.62656455160632)",2010-04-09
Vacant/Abandoned Building,10-00468655,04/09/2010,Front,,Open,,Vacant,False,False,6717,S,EBERHART,AVE,60637.0,1180732.1048077,1860584.65000625,20.0,3.0,42.0,41.772697898878285,-87.61303489112505,"(41.77269789887828, -87.61303489112505)",2010-04-09
Vacant/Abandoned Building,10-00468938,04/09/2010,,,,,,,,2218,W,JACKSON,BLVD,60612.0,1161580.80012382,1898659.4952179,2.0,12.0,28.0,41.8775983479616,-87.68218066275257,"(41.877598347961595, -87.68218066275256)",2010-04-09
Vacant/Abandoned Building,10-00469276,04/09/2010,Front,,Open,3FLAT --- FRONT --- PEOPLE ARE HOLDING PARTIES IN THIS BLDG ON WEEKENDS,Vacant,False,True,9037,S,EXCHANGE,AVE,60617.0,1197337.55779618,1845581.24797981,10.0,4.0,46.0,41.731129721528866,-87.55266398342444,"(41.73112972152887, -87.55266398342444)",2010-04-09
Vacant/Abandoned Building,10-00470691,04/09/2010,Front,,Open,REAR BASEMENT DOOR,Vacant,False,True,1223,S,ST LOUIS,AVE,60623.0,1153229.75200875,1894239.54138759,24.0,10.0,29.0,41.865639280134026,-87.71296094123565,"(41.86563928013402, -87.71296094123565)",2010-04-09
Vacant/Abandoned Building,10-00470700,04/09/2010,Front,,Open,FRONT,Vacant,False,True,7120,S,MICHIGAN,AVE,60619.0,1178395.62741408,1857836.9824261002,6.0,3.0,69.0,41.76521138467554,-87.6216830561353,"(41.76521138467554, -87.6216830561353)",2010-04-09
Vacant/Abandoned Building,10-00470811,04/09/2010,Front,,Open,,Vacant,False,False,11759,S,RACINE,AVE,60643.0,1170442.71086683,1826806.46439862,34.0,5.0,53.0,41.68023596272905,-87.65173334393425,"(41.680235962729064, -87.65173334393425)",2010-04-09
Vacant/Abandoned Building,10-00470849,04/09/2010,Front,,Open,REAR DOOR IS OPEN,Vacant,False,False,8523,S,MORGAN,ST,60620.0,1171135.60560331,1848305.569506,21.0,6.0,71.0,41.739217689661544,-87.64857120112221,"(41.73921768966154, -87.64857120112221)",2010-04-09
Vacant/Abandoned Building,10-00471478,04/09/2010,Rear,,Open,REAR,Vacant,False,True,3719,W,WABANSIA,AVE,60647.0,1151232.53997152,1911039.99097198,26.0,25.0,23.0,41.911780835028296,-87.71985191989965,"(41.911780835028296, -87.71985191989965)",2010-04-09
Vacant/Abandoned Building,10-00471922,04/09/2010,Front,,Open,WINDOWS AND DOORS,Vacant,False,True,2039,W,69TH,ST,60636.0,1163954.54773036,1858894.95210107,17.0,7.0,67.0,41.76843027242312,-87.67458433236601,"(41.76843027242312, -87.67458433236601)",2010-04-09
Vacant/Abandoned Building,10-00472549,04/09/2010,Front,,Open,REAR,Vacant,False,True,1025,N,AVERS,AVE,60651.0,1150531.39373212,1906564.34201112,27.0,11.0,23.0,41.89951295154046,-87.72254481190642,"(41.89951295154046, -87.7225448119064)",2010-04-09
Vacant/Abandoned Building,10-00472555,04/09/2010,Front,,Open,FRONT,Vacant,False,True,1007,N,AVERS,AVE,60651.0,1150535.19373212,1906443.44201112,27.0,11.0,23.0,41.89918111556846,-87.72253401600773,"(41.89918111556846, -87.72253401600773)",2010-04-09
Vacant/Abandoned Building,10-00472574,04/09/2010,Garage,,Open,GANGS TORN DOWN BIG GARAGE DOOR AND KICKED IN THE 3WAY DOOR,Vacant,False,True,7205,S,RHODES,AVE,60619.0,1181153.12039059,1857366.32501025,6.0,3.0,69.0,41.763856802803346,-87.61159057336445,"(41.763856802803346, -87.61159057336445)",2010-04-09
Vacant/Abandoned Building,10-00473013,04/09/2010,Garage,,Open,AT END OF BLOCK ON EAST SIDE OF STREET - GARAGE DOOR IS HANGING GETTING READY TO FALL CANT BE LET DOWN - RMVD INSIDE IS BEING VANADALIZED,Vacant,False,True,9600,S,UNION,AVE,60628.0,1173330.52978996,1841201.6145041,21.0,22.0,73.0,41.7196752561379,-87.64073883341696,"(41.7196752561379, -87.64073883341696)",2010-04-09
Vacant/Abandoned Building,10-00473017,04/09/2010,Garage,,Open,OVERHEAD DOOR ON GARAGE,Vacant,False,False,5700,S,MOODY,AVE,60638.0,1136354.95008758,1866123.22052249,23.0,8.0,56.0,41.788801502058995,-87.77558021652122,"(41.78880150205899, -87.77558021652123)",2010-04-09
Vacant/Abandoned Building,10-00473805,04/10/2010,Front,,Open,,Vacant,False,False,3829,S,WABASH,AVE,60653.0,1177355.32002004,1879625.47003326,3.0,2.0,35.0,41.825024653223046,-87.62483788292464,"(41.825024653223046, -87.62483788292464)",2010-04-10
Vacant/Abandoned Building,10-00473958,04/10/2010,Front,,Open,IN THE REAR DOOR,Vacant,False,False,7043,S,JUSTINE,ST,60636.0,1167222.34407634,1858018.57316862,17.0,7.0,67.0,41.765956068889366,-87.66263129469853,"(41.76595606888937, -87.66263129469851)",2010-04-10
Vacant/Abandoned Building,10-00475741,04/11/2010,Rear,,Open,REAR,Vacant,True,True,3654,W,63RD,PL,60629.0,1153076.41628268,1862250.46631735,13.0,8.0,65.0,41.77786003877587,-87.71436982811291,"(41.77786003877587, -87.71436982811291)",2010-04-11
Vacant/Abandoned Building,10-00475801,04/11/2010,Front,,Open,,Vacant,False,False,5720,S,THROOP,ST,60636.0,1168634.82372938,1866836.73326844,16.0,7.0,67.0,41.79012384781604,-87.657199934791,"(41.79012384781604, -87.657199934791)",2010-04-11
Vacant/Abandoned Building,10-00475972,04/11/2010,Front,,Open,FRONT DOOR AND STORM DOOR IS MISSING,Vacant,False,False,11252,S,ALBANY,AVE,60655.0,1157701.38996902,1829833.77137184,19.0,22.0,74.0,41.688810610486094,-87.69829125040914,"(41.68881061048609, -87.69829125040914)",2010-04-11
Vacant/Abandoned Building,10-00476011,04/11/2010,Front,,Open,BROKEN WINDOW ON THE SIDE,Vacant,False,False,9030,S,NORMAL,AVE,60620.0,1174552.77052726,1844955.61348809,21.0,22.0,71.0,41.72994967305272,-87.63615077354677,"(41.72994967305272, -87.63615077354677)",2010-04-11
Vacant/Abandoned Building,10-00476262,04/11/2010,Rear,,Open,FRONT AND REAR DOORS,Vacant,False,True,5948,S,MAY,ST,60621.0,1169669.04001144,1865348.88517739,16.0,7.0,68.0,41.78601863761005,-87.65345089344461,"(41.78601863761005, -87.65345089344461)",2010-04-11
Vacant/Abandoned Building,10-00476412,04/11/2010,Rear,,Open,REAR,Vacant,False,True,6235,S,BISHOP,ST,60636.0,1167733.99966992,1863396.19982112,16.0,7.0,67.0,41.78070199866093,-87.66060171387691,"(41.78070199866093, -87.66060171387691)",2010-04-11
Vacant/Abandoned Building,10-00476974,04/12/2010,Front,,Open,WINDOWS,Vacant,False,True,8117,S,ST LOUIS,AVE,60652.0,1154461.17000784,1850663.1499709,18.0,8.0,70.0,41.7460351318294,-87.70960125009651,"(41.74603513182941, -87.70960125009651)",2010-04-12
Vacant/Abandoned Building,10-00477392,04/12/2010,Front,,Open,,Vacant,True,False,6600,S,HOYNE,AVE,60636.0,1163499.61378068,1860870.18711894,15.0,7.0,67.0,41.773860137707146,-87.67619657333387,"(41.77386013770714, -87.67619657333388)",2010-04-12
Vacant/Abandoned Building,10-00477574,04/12/2010,Front,,Open,DOORS,Vacant,False,False,1300,W,59TH,ST,60636.0,1168667.50556575,1865644.2263116,16.0,7.0,67.0,41.78685076237634,-87.65711449078371,"(41.78685076237634, -87.65711449078371)",2010-04-12
Vacant/Abandoned Building,10-00477667,04/12/2010,Front,,Open,ALL AROUND,Vacant,False,False,5920,S,JUSTINE,ST,60636.0,1167020.04128109,1865465.89596577,15.0,7.0,67.0,41.786396799334895,-87.6631600799718,"(41.7863967993349, -87.66316007997182)",2010-04-12
Vacant/Abandoned Building,10-00478250,04/12/2010,Rear,,Open,DOOR,Vacant,False,True,333,E,117TH,ST,60628.0,1180366.03993354,1827308.04198168,9.0,5.0,53.0,41.68139119847717,-87.61539415950656,"(41.68139119847717, -87.61539415950658)",2010-04-12
Vacant/Abandoned Building,10-00479666,04/12/2010,Front,,Open,REAR --- ALSO ALOT OF TRASH IN THE BACK YARD...CREATING A RODENT PROBLEM,Vacant,False,True,7135,S,WOOD,ST,60636.0,1165583.36423376,1857370.62940291,17.0,7.0,67.0,41.76421293627595,-87.66865708747982,"(41.76421293627595, -87.66865708747982)",2010-04-12
Vacant/Abandoned Building,10-00480397,04/12/2010,Front,,Open,FRONT,Vacant,False,True,6411,S,WOOD,ST,60636.0,1165441.29139095,1862170.27751589,15.0,7.0,67.0,41.777386822608115,-87.66904194474981,"(41.77738682260812, -87.66904194474982)",2010-04-12
Vacant/Abandoned Building,10-00482087,04/12/2010,Front,,Open,REAR,Vacant,False,False,733,W,54TH,PL,60609.0,1172338.83049261,1868729.7339044,3.0,9.0,61.0,41.79523770828301,-87.64356270542473,"(41.795237708283004, -87.64356270542474)",2010-04-12
Vacant/Abandoned Building,10-00482524,04/12/2010,Front,,Open,REAR---AND ALSO ALOT OF TRASH -- JUNK CREATING A RODENT PROBLEM,Vacant,False,False,3513,W,LEXINGTON,ST,60624.0,1153073.45757024,1896477.18462887,24.0,11.0,27.0,41.87178271809843,-87.71347539357502,"(41.87178271809843, -87.71347539357501)",2010-04-12
Vacant/Abandoned Building,10-00483553,04/12/2010,Rear,,Open,REAR AND WINDOW,Vacant,False,True,6230,S,SACRAMENTO,AVE,60629.0,1157452.54003147,1863176.06522892,15.0,8.0,66.0,41.78031246141554,-87.69830164898654,"(41.78031246141554, -87.69830164898654)",2010-04-12
Vacant/Abandoned Building,10-00485894,04/13/2010,Front,,Open,,Vacant,False,False,7613,S,DANTE,AVE,60619.0,1187193.5503948,1854800.78448197,5.0,4.0,43.0,41.75667551143425,-87.58953262611088,"(41.75667551143425, -87.58953262611087)",2010-04-13
Vacant/Abandoned Building,10-00486946,04/13/2010,,,,,,,,2843,N,WHIPPLE,ST,60618.0,1155552.5863796002,1918747.84861518,35.0,14.0,21.0,41.932845922795494,-87.70377341775068,"(41.93284592279549, -87.70377341775068)",2010-04-13
Vacant/Abandoned Building,10-00487181,04/13/2010,Front,,Open,REAR,Vacant,False,True,4148,W,GLADYS,AVE,60624.0,1148791.5921274999,1898031.72838877,28.0,11.0,26.0,41.87613234011589,-87.72915580770406,"(41.87613234011589, -87.72915580770407)",2010-04-13
Vacant/Abandoned Building,10-00487294,04/13/2010,Rear,,Open,SIDE,Vacant,False,True,6549,S,EBERHART,AVE,60637.0,1180701.35352743,1861696.0968753998,20.0,3.0,42.0,41.77574852619817,-87.61311349562483,"(41.77574852619817, -87.61311349562483)",2010-04-13
Vacant/Abandoned Building,10-00488827,04/13/2010,Front,,Open,"REAR DOOR WIDE OPEN, FRONT DOOR AND WINDOWS ARE NOT BOARDED",Vacant,False,False,8924,S,PAULINA,ST,60620.0,1166575.66819643,1845378.0622338,21.0,22.0,71.0,41.731282526291,-87.6653612733523,"(41.73128252629099, -87.6653612733523)",2010-04-13
Vacant/Abandoned Building,10-00488897,04/13/2010,Front,,Open,,Vacant,False,True,3911,W,DIVISION,ST,60651.0,1150053.38279803,1907718.23619656,27.0,11.0,23.0,41.90268867830938,-87.72427046640652,"(41.90268867830938, -87.72427046640651)",2010-04-13
Vacant/Abandoned Building,10-00489034,04/13/2010,Front,,Open,"FRONT/REAR DOORS WIDE OPEN, ALSO WINDOWS NOT BOARDED",Vacant,False,True,6333,S,LANGLEY,AVE,60637.0,1181982.30289223,1863169.91771651,20.0,3.0,42.0,41.77976329603575,-87.60837215819839,"(41.77976329603575, -87.60837215819839)",2010-04-13
Vacant/Abandoned Building,10-00489066,04/13/2010,,,,,,,,7827,S,RIDGELAND,AVE,60649.0,1189228.31929804,1853425.24619614,8.0,4.0,43.0,41.75285239379724,-87.58211970358525,"(41.75285239379724, -87.58211970358525)",2010-04-13
Vacant/Abandoned Building,10-00489620,04/13/2010,Rear,,Open,REAR IS OPEN PEOPLE GOING IN AND OUT,Vacant,False,True,1116,S,WHIPPLE,ST,60612.0,1156193.81998598,1895109.61108125,28.0,11.0,29.0,41.867967549697326,-87.70205615432327,"(41.867967549697326, -87.70205615432327)",2010-04-13
Vacant/Abandoned Building,10-00490063,04/13/2010,Front,,Open,FRONT /REAR DOOR,Vacant,False,False,6900,S,PARNELL,AVE,60621.0,1173809.45001617,1859156.6813233998,6.0,7.0,68.0,41.76893568687196,-87.6384536292234,"(41.76893568687196, -87.6384536292234)",2010-04-13
Vacant/Abandoned Building,10-00490317,04/13/2010,Front,,Open,GARAGE/SIDE DOOR,Vacant,False,True,1537,E,85TH,ST,60619.0,1188085.54670743,1848929.95833431,8.0,4.0,45.0,41.740544196396286,-87.58645043183405,"(41.740544196396286, -87.58645043183405)",2010-04-13
Vacant/Abandoned Building,10-00490570,04/13/2010,Front,,Open,NOT BOARDED UP AT ALL,Vacant,False,True,3620,W,64TH,PL,60629.0,1153305.38602442,1861597.67992992,13.0,8.0,65.0,41.776064166569746,-87.71354765792809,"(41.77606416656975, -87.7135476579281)",2010-04-13
Vacant/Abandoned Building,10-00490664,04/13/2010,,,,,,,,8450,S,OGLESBY,AVE,60617.0,1193301.68608372,1849735.16846557,8.0,4.0,46.0,41.742627945284674,-87.56731310750436,"(41.742627945284674, -87.56731310750436)",2010-04-13
Vacant/Abandoned Building,10-00491080,04/13/2010,Front,,Boarded,FRONT AND REAR,Vacant,False,True,6436,S,CAMPBELL,AVE,60629.0,1160813.11357335,1861900.09007641,15.0,8.0,66.0,41.77674224474557,-87.686016369761,"(41.77674224474557, -87.68601636976102)",2010-04-13
Vacant/Abandoned Building,10-00491090,04/13/2010,Front,,Boarded,"FRONT , REAR AND GARAGE",Vacant,False,True,6442,S,CAMPBELL,AVE,60629.0,1160814.31357335,1861859.79007641,15.0,8.0,66.0,41.7766316311201,-87.68601308265802,"(41.7766316311201, -87.68601308265801)",2010-04-13
Vacant/Abandoned Building,10-00491157,04/13/2010,Front,,Open,REAR AND BASEMENT,Vacant,False,False,8838,S,WOOD,ST,60620.0,1165890.07547991,1846070.01262763,21.0,22.0,71.0,41.733195915863696,-87.6678532622944,"(41.733195915863696, -87.66785326229441)",2010-04-13
Vacant/Abandoned Building,10-00491339,04/13/2010,Front,,Open,REAR,Vacant,False,True,10505,S,STATE,ST,60628.0,1178109.51090537,1835298.21000346,9.0,5.0,49.0,41.703368679562146,-87.62341316478495,"(41.70336867956215, -87.62341316478496)",2010-04-13
Vacant/Abandoned Building,10-00492150,04/14/2010,Front,,Boarded,,Occupied,False,True,9101,S,EXCHANGE,AVE,60617.0,1197348.20099644,1845183.90052498,10.0,4.0,46.0,41.730039102536786,-87.55263819696931,"(41.73003910253678, -87.55263819696931)",2010-04-14
Vacant/Abandoned Building,10-00493178,04/14/2010,Front,,Open,DOOR,Vacant,False,True,7720,S,MARYLAND,AVE,60619.0,1183240.04621302,1854003.40201963,6.0,6.0,69.0,41.75458029657815,-87.6040460936955,"(41.75458029657815, -87.60404609369552)",2010-04-14
Vacant/Abandoned Building,10-00493634,04/14/2010,Front,,Boarded,,Vacant,False,False,5018,S,KILDARE,AVE,60632.0,1148543.49416968,1871008.01050721,23.0,8.0,57.0,41.80198044576015,-87.73076283401213,"(41.801980445760144, -87.73076283401213)",2010-04-14
Vacant/Abandoned Building,10-00493841,04/14/2010,Garage,,Open,FALLING DOWN,Vacant,False,False,11217,S,VERNON,AVE,60628.0,1181238.76781927,1830679.69988668,9.0,5.0,49.0,41.690623502230395,-87.61209620360655,"(41.6906235022304, -87.61209620360655)",2010-04-14
Vacant/Abandoned Building,10-00494750,04/14/2010,Front,,Open,ALL ENTRIES OPEN,Vacant,False,True,7531,S,COLFAX,AVE,60649.0,1194820.02070806,1855526.15987294,7.0,4.0,43.0,41.758481656983264,-87.56155969009926,"(41.758481656983264, -87.56155969009926)",2010-04-14
Vacant/Abandoned Building,10-00495068,04/14/2010,Garage,,Open,,Vacant,False,False,8154,S,BURNHAM,AVE,60617.0,1196250.0700306,1851440.60827345,7.0,4.0,46.0,41.747235276069155,-87.55645399021469,"(41.747235276069155, -87.55645399021468)",2010-04-14
Vacant/Abandoned Building,10-00495272,04/14/2010,Garage,,Open,,Vacant,False,False,8231,S,SAGINAW,AVE,60617.0,1195268.57588989,1850905.50427756,7.0,4.0,46.0,41.745791169224404,-87.56006800313557,"(41.745791169224404, -87.56006800313557)",2010-04-14
Vacant/Abandoned Building,10-00495273,04/14/2010,Front,,Open,,Vacant,False,False,8318,S,COLFAX,AVE,60617.0,1194949.72483165,1850321.05820045,7.0,4.0,46.0,41.744195258775946,-87.5612555267473,"(41.744195258775946, -87.5612555267473)",2010-04-14
Vacant/Abandoned Building,10-00496630,04/14/2010,Front,,Open,,Vacant,False,False,7528,S,PEORIA,ST,60620.0,1171610.18208568,1854875.07826572,17.0,6.0,71.0,41.757234910863225,-87.64664034720009,"(41.757234910863225, -87.64664034720009)",2010-04-14
Vacant/Abandoned Building,10-00496719,04/14/2010,Garage,,Open,,Vacant,False,False,8619,S,EMERALD,AVE,60620.0,1172774.41646659,1847593.29591802,21.0,6.0,71.0,41.73722717552054,-87.6425878460117,"(41.73722717552054, -87.6425878460117)",2010-04-14
Vacant/Abandoned Building,10-00497020,04/14/2010,Front,,Open,FRONT AND REAR,Vacant,False,False,6154,S,MOZART,ST,60629.0,1158435.24377203,1863706.79811852,15.0,8.0,66.0,41.7817488968721,-87.69468441704262,"(41.7817488968721, -87.69468441704262)",2010-04-14
Vacant/Abandoned Building,10-00497827,04/14/2010,Front,,Boarded,WINDOWS,Vacant,False,False,4945,W,VAN BUREN,ST,60644.0,1143621.1281202,1897559.89262471,24.0,15.0,25.0,41.87493586979966,-87.74815198843935,"(41.87493586979966, -87.74815198843936)",2010-04-14
Vacant/Abandoned Building,10-00499023,04/15/2010,Garage,,Open,,Vacant,False,False,8404,S,INGLESIDE,AVE,60619.0,1184016.96311354,1849446.55851182,8.0,6.0,44.0,41.742057734125574,-87.60134102599888,"(41.74205773412557, -87.60134102599888)",2010-04-15
Vacant/Abandoned Building,10-00499650,04/15/2010,Front,,Boarded,,Vacant,False,True,1200,E,95TH,ST,60619.0,1185865.99876638,1842224.04502396,8.0,4.0,47.0,41.72219501531555,-87.59479334078578,"(41.72219501531555, -87.5947933407858)",2010-04-15
Vacant/Abandoned Building,10-00499741,04/15/2010,Garage,,Open,,Vacant,False,False,8142,S,KIMBARK,AVE,60619.0,1186291.68758746,1851262.34138715,8.0,4.0,45.0,41.74698702731403,-87.5929493338958,"(41.74698702731402, -87.59294933389579)",2010-04-15
Vacant/Abandoned Building,10-00500580,04/15/2010,Rear,,Open,,Vacant,False,True,6600,S,KARLOV,AVE,60629.0,1150176.46620983,1860513.70250476,13.0,8.0,65.0,41.773150865979645,-87.72504628600069,"(41.77315086597965, -87.72504628600069)",2010-04-15
Vacant/Abandoned Building,10-00500604,04/15/2010,Front,,Open,ALL AROUND,Vacant,False,True,11546,S,CHURCH,ST,60643.0,1165533.68260392,1827996.03890178,19.0,22.0,75.0,41.683605530926975,-87.66966921908795,"(41.68360553092698, -87.66966921908795)",2010-04-15
Vacant/Abandoned Building,10-00501776,04/15/2010,Front,,Boarded,,Vacant,False,False,6836,S,PRAIRIE,AVE,60637.0,1179219.73297742,1859747.43193121,20.0,3.0,69.0,41.770435110264295,-87.61860429521113,"(41.7704351102643, -87.61860429521113)",2010-04-15
Vacant/Abandoned Building,10-00501793,04/15/2010,Front,,Boarded,,Vacant,False,False,6831,S,PRAIRIE,AVE,60637.0,1179218.83297742,1859780.83193121,20.0,3.0,69.0,41.77052678387589,-87.61860657680786,"(41.77052678387589, -87.61860657680786)",2010-04-15
Vacant/Abandoned Building,10-00502147,04/15/2010,Front,,Open,DOORS AND WINDOWS,Vacant,False,True,5334,S,PAULINA,ST,60609.0,1165916.65032171,1869329.56642626,16.0,9.0,61.0,41.797022713094655,-87.66709589960873,"(41.797022713094655, -87.66709589960873)",2010-04-15
Vacant/Abandoned Building,10-00503307,04/15/2010,Front,,Open,"FRONT FENCE OPEN, AND BASEMENT",Vacant,False,True,2624,N,CENTRAL PARK,AVE,60647.0,1151936.90502077,1917210.76182272,35.0,25.0,22.0,41.92870011673936,-87.71710137885164,"(41.92870011673936, -87.71710137885164)",2010-04-15
Vacant/Abandoned Building,10-00503673,04/15/2010,Front,,Open,,Vacant,False,False,7555,S,PRAIRIE,AVE,60619.0,1179345.5418184,1854975.64231496,6.0,6.0,69.0,41.75733793739272,-87.61828853623967,"(41.75733793739272, -87.61828853623969)",2010-04-15
Vacant/Abandoned Building,10-00504211,04/15/2010,Front,,Open,REAR,Vacant,False,False,652,E,87TH,PL,60619.0,1182116.6823132,1847107.87428191,6.0,6.0,44.0,41.73568426491167,-87.60837573752814,"(41.73568426491167, -87.60837573752814)",2010-04-15
Vacant/Abandoned Building,10-00504866,04/16/2010,Rear,,Open,REAR ENTRANCE AND WINDOWS,Vacant,False,False,5124,W,64TH,PL,60638.0,1143437.39509177,1861212.09589947,13.0,8.0,64.0,41.7751955225291,-87.74973311124027,"(41.7751955225291, -87.74973311124026)",2010-04-16
Vacant/Abandoned Building,10-00505728,04/16/2010,Front,,Open,,Vacant,False,False,11322,S,EDBROOKE,AVE,60628.0,1179219.15842981,1829914.78958258,9.0,5.0,49.0,41.688570643416256,-87.61951327135361,"(41.68857064341626, -87.61951327135361)",2010-04-16
Vacant/Abandoned Building,10-00506604,04/16/2010,Front,,Boarded,,Vacant,False,False,10634,S,WOOD,ST,60643.0,1166240.72033443,1834025.09002208,19.0,22.0,72.0,41.70013529731732,-87.66691023261275,"(41.70013529731731, -87.66691023261274)",2010-04-16
Vacant/Abandoned Building,10-00507315,04/16/2010,Front,,Open,REAR,Vacant,False,False,3919,W,FLOURNOY,ST,60624.0,1150363.50512576,1896741.61906986,24.0,11.0,26.0,41.8725616259146,-87.72341790009514,"(41.8725616259146, -87.72341790009514)",2010-04-16
Vacant/Abandoned Building,10-00507343,04/16/2010,Front,,Open,DOORS,Vacant,False,True,7303,S,CHAMPLAIN,AVE,60619.0,1181828.02347367,1856736.36231693,6.0,3.0,69.0,41.7621125545056,-87.6091363646273,"(41.7621125545056, -87.60913636462729)",2010-04-16
Vacant/Abandoned Building,10-00507670,04/16/2010,Front,,Open,,Vacant,False,False,6524,S,ROCKWELL,ST,60629.0,1160162.2402918001,1861290.05341935,15.0,8.0,66.0,41.77508163736286,-87.68841923119045,"(41.77508163736286, -87.68841923119045)",2010-04-16
Vacant/Abandoned Building,10-00507741,04/16/2010,Front,,Open,FRONT REAR,Vacant,False,True,8842,S,EXCHANGE,AVE,60617.0,1197300.69871622,1846905.88118262,10.0,4.0,46.0,41.734765539883426,-87.55275499984194,"(41.73476553988343, -87.55275499984194)",2010-04-16
Vacant/Abandoned Building,10-00507943,04/16/2010,,,,,,,,3356,W,66TH,PL,60629.0,1155160.62549279,1860329.68361449,15.0,8.0,66.0,41.772547699204935,-87.70678029155937,"(41.772547699204935, -87.70678029155938)",2010-04-16
Vacant/Abandoned Building,10-00507976,04/16/2010,,,,,,,,7037,S,EBERHART,AVE,60637.0,1180793.90822651,1858468.43518845,6.0,3.0,69.0,41.76688937042207,-87.61287332037939,"(41.76688937042207, -87.61287332037939)",2010-04-16
Vacant/Abandoned Building,10-00508017,04/16/2010,,,,,,,,1653,W,MARQUETTE,RD,60636.0,1166385.69751037,1860276.89200743,15.0,7.0,67.0,41.772171055960705,-87.66563363921497,"(41.7721710559607, -87.66563363921497)",2010-04-16
Vacant/Abandoned Building,10-00508040,04/16/2010,,,,,,,,7240,S,CALUMET,AVE,60619.0,1179731.01587395,1857084.51849601,6.0,3.0,69.0,41.7631161212827,-87.61681146631291,"(41.7631161212827, -87.61681146631291)",2010-04-16
Vacant/Abandoned Building,10-00508472,04/16/2010,Front,,Open,FRONT WINDOWS AND DOORS. THE PROPERTY IS OPEN ALL OVER..,Vacant,False,True,126,W,104TH,ST,60628.0,1177268.96788659,1835996.35280951,34.0,5.0,49.0,41.7053034546292,-87.62647005247034,"(41.7053034546292, -87.62647005247035)",2010-04-16
Vacant/Abandoned Building,10-00508978,04/16/2010,,,,,,,,10601,S,HOMAN,AVE,60655.0,1155557.03752627,1834068.00121024,19.0,22.0,74.0,41.70047325279757,-87.70602882581534,"(41.700473252797565, -87.70602882581535)",2010-04-16
Vacant/Abandoned Building,10-00509108,04/16/2010,Front,,Open,,Vacant,False,True,9025,S,BRANDON,AVE,60617.0,1198892.96591723,1845696.40732651,10.0,4.0,46.0,41.731406874160335,-87.54696223825044,"(41.731406874160335, -87.54696223825043)",2010-04-16
Vacant/Abandoned Building,10-00509302,04/16/2010,Front,,Open,FRONT AND REAR,Vacant,False,True,10124,S,VAN VLISSINGEN,RD,60617.0,1192631.59260955,1838207.29459015,7.0,4.0,51.0,41.711010703935315,-87.5701427809943,"(41.71101070393531, -87.5701427809943)",2010-04-16
Vacant/Abandoned Building,10-00509502,04/16/2010,Rear,,Open,REAR,Vacant,False,True,3212,W,WABANSIA,AVE,60647.0,1154649.60503418,1911120.91671973,26.0,14.0,23.0,41.91193514827236,-87.70729642371073,"(41.91193514827237, -87.70729642371072)",2010-04-16
Vacant/Abandoned Building,10-00509512,04/16/2010,Front,,Boarded,,Vacant,False,False,5857,N,MELVINA,AVE,60646.0,1133922.78282306,1938606.94998113,45.0,16.0,10.0,41.987749617945006,-87.78279315140196,"(41.98774961794501, -87.78279315140196)",2010-04-16
Vacant/Abandoned Building,10-00509804,04/16/2010,Front,,Open,REAR AND GARAGE,Vacant,False,True,10201,S,LOWE,AVE,60628.0,1173771.87519112,1837232.67538967,9.0,22.0,73.0,41.708774162955066,-87.63923950557438,"(41.70877416295506, -87.63923950557438)",2010-04-16
Vacant/Abandoned Building,10-00510217,04/17/2010,Front,,Boarded,,Vacant,False,True,2535,W,50TH,ST,60632.0,1160198.44487533,1871433.2656201,14.0,9.0,63.0,41.802915237525326,-87.68800741055958,"(41.80291523752533, -87.68800741055958)",2010-04-17
Vacant/Abandoned Building,10-00510298,04/17/2010,Front,,Open,FRONT,Vacant,False,True,539,E,80TH,ST,60619.0,1181327.31611632,1852083.25442053,6.0,6.0,44.0,41.74935548172635,-87.61111466966976,"(41.74935548172634, -87.61111466966977)",2010-04-17
Vacant/Abandoned Building,10-00510475,04/17/2010,Front,,Open,,Vacant,False,False,7927,S,LANGLEY,AVE,60619.0,1182269.85942186,1852597.66318803,6.0,6.0,44.0,41.75074531264863,-87.6076449496758,"(41.750745312648625, -87.60764494967582)",2010-04-17
Vacant/Abandoned Building,10-00510989,04/17/2010,Front,,Open,FRONT AND SIDE,Vacant,False,True,6054,S,THROOP,ST,60636.0,1168694.79526707,1864619.82842995,16.0,7.0,67.0,41.784039103008375,-87.6570439749836,"(41.784039103008375, -87.6570439749836)",2010-04-17
Vacant/Abandoned Building,10-00512017,04/18/2010,Front,,Open,FRONT,Vacant,False,True,7015,S,ROCKWELL,ST,60629.0,1160252.68878194,1858040.49029762,18.0,8.0,66.0,41.766162506561095,-87.68817701585715,"(41.76616250656109, -87.68817701585714)",2010-04-18
Vacant/Abandoned Building,10-00512060,04/18/2010,Garage,,Open,GARAGE AND UPSTAIR WINDOWS AND BOARS ARE DOWN,Vacant,True,True,411,W,99TH,ST,60628.0,1175178.80927404,1839259.7339674998,9.0,22.0,73.0,41.71430546334764,-87.63402691279865,"(41.71430546334764, -87.63402691279865)",2010-04-18
Vacant/Abandoned Building,10-00512126,04/18/2010,Front,,Open,FRONT IS OPEN,Vacant,False,False,146,E,116TH,ST,60628.0,1179310.99188289,1827727.87732187,9.0,5.0,53.0,41.68256734933172,-87.61924343900635,"(41.68256734933172, -87.61924343900635)",2010-04-18
Vacant/Abandoned Building,10-00512503,04/18/2010,Front,,Open,BROKEN WINDOWS,Vacant,False,False,4727,S,THROOP,ST,60609.0,1168457.5900092,1873423.4400098,3.0,9.0,61.0,41.808202341593244,-87.65765995851811,"(41.80820234159324, -87.65765995851811)",2010-04-18
Vacant/Abandoned Building,10-00512570,04/18/2010,Front,,Open,FORNT PORCH AND INSIDE PROPERTY,Vacant,False,True,6217,S,CAMPBELL,AVE,60629.0,1160771.08726875,1863355.50212511,15.0,8.0,66.0,41.780736965695645,-87.68613028111771,"(41.78073696569565, -87.6861302811177)",2010-04-18
Vacant/Abandoned Building,10-00512760,04/18/2010,Front,,Open,2 ENTRIES FRONT AND SIDE,Vacant,False,True,11354,S,WENTWORTH,AVE,60628.0,1176969.48940649,1829562.57996746,34.0,5.0,49.0,41.68765498768836,-87.62775970390078,"(41.68765498768836, -87.62775970390078)",2010-04-18
Vacant/Abandoned Building,10-00512817,04/18/2010,Front,,Open,SIDE,Vacant,False,True,4825,N,RIDGEWAY,AVE,60625.0,1150518.72007223,1931802.53697259,39.0,17.0,14.0,41.968768914101844,-87.72193027494019,"(41.96876891410184, -87.72193027494018)",2010-04-18
Vacant/Abandoned Building,10-00514910,04/19/2010,Rear,,Open,ENTERING OUT OF THE REAR,Vacant,False,False,8831,S,ABERDEEN,ST,60620.0,1170533.6704927,1846124.60103367,21.0,22.0,71.0,41.73324592949274,-87.65083994966993,"(41.73324592949274, -87.65083994966993)",2010-04-19
Vacant/Abandoned Building,10-00515043,04/19/2010,Front,,Open,FRONT AND BACK AND THRU THE WINDOWS,Vacant,False,True,8022,S,EMERALD,AVE,60620.0,1172695.69198638,1851676.4341771998,21.0,6.0,71.0,41.74843357911536,-87.6427562193056,"(41.748433579115364, -87.6427562193056)",2010-04-19
Vacant/Abandoned Building,10-00516014,04/19/2010,Front,,Open,FRONT,Vacant,False,False,7644,S,HOYNE,AVE,60620.0,1163690.53986985,1853946.96452533,18.0,6.0,71.0,41.75485783932803,-87.67569071117538,"(41.75485783932803, -87.67569071117538)",2010-04-19
Vacant/Abandoned Building,10-00516023,04/19/2010,Front,,Open,,Vacant,False,False,5638,S,PAULINA,ST,60636.0,1165971.93700342,1867311.12500506,15.0,7.0,67.0,41.7914826896204,-87.66695053317095,"(41.79148268962041, -87.66695053317095)",2010-04-19
Vacant/Abandoned Building,10-00516635,04/19/2010,Front,,Open,FRONT/REAR,Vacant,False,False,6939,S,ABERDEEN,ST,60621.0,1170180.45846884,1858791.95802352,17.0,7.0,68.0,41.76801452597956,-87.6517663240405,"(41.76801452597956, -87.65176632404048)",2010-04-19
Vacant/Abandoned Building,10-00516724,04/19/2010,Front,,Open,,Vacant,False,False,3334,W,84TH,PL,60652.0,1155627.10217692,1848363.70959606,18.0,8.0,70.0,41.73970181317012,-87.70539046781347,"(41.739701813170115, -87.70539046781347)",2010-04-19
Vacant/Abandoned Building,10-00517305,04/19/2010,Front,,Open,REAR,Vacant,False,True,928,W,54TH,ST,60609.0,1171033.7879853002,1868997.11042902,20.0,9.0,61.0,41.79600005406925,-87.64834049182785,"(41.79600005406926, -87.64834049182785)",2010-04-19
Vacant/Abandoned Building,10-00517627,04/19/2010,Front,,Open,FRONT,Vacant,False,False,7615,S,DANTE,AVE,60619.0,1187193.9503948,1854787.38448197,5.0,4.0,43.0,41.75663873109401,-87.58953158478903,"(41.75663873109401, -87.58953158478903)",2010-04-19
Vacant/Abandoned Building,10-00518212,04/19/2010,Front,,Open,REAR,Vacant,False,False,6330,S,DAMEN,AVE,60636.0,1164114.91902696,1862665.11858459,15.0,7.0,67.0,41.77877274534181,-87.67389052582159,"(41.77877274534181, -87.67389052582159)",2010-04-19
Vacant/Abandoned Building,10-00518245,04/19/2010,Front,,Open,REAR,Vacant,False,True,7716,S,BISHOP,ST,60620.0,1167897.71123404,1853574.52291884,17.0,6.0,71.0,41.75374652287722,-87.6602832824165,"(41.753746522877215, -87.6602832824165)",2010-04-19
Vacant/Abandoned Building,10-00519863,04/19/2010,Front,,Open,FRONT DOOR HAVE BEEN REMOVED AND ALL THE WINDOWS ARE OUT,Vacant,False,True,8058,S,PAULINA,ST,60620.0,1166412.67538288,1851263.30430684,21.0,6.0,71.0,41.74743596352434,-87.66579114242576,"(41.74743596352434, -87.66579114242576)",2010-04-19
Vacant/Abandoned Building,10-00520036,04/19/2010,Front,,Open,?,Vacant,False,False,2869,E,77TH,ST,60649.0,1196750.13113034,1854811.59929177,7.0,4.0,43.0,41.756473118496,-87.5545098541678,"(41.75647311849599, -87.55450985416779)",2010-04-19
Vacant/Abandoned Building,10-00521056,04/20/2010,Front,,Open,REAR ENTRANCE,Vacant,False,False,9331,S,KIMBARK,AVE,60619.0,1186497.24100703,1843368.49292656,8.0,4.0,47.0,41.72532062346901,-87.59244514425569,"(41.72532062346901, -87.59244514425568)",2010-04-20
Vacant/Abandoned Building,10-00521063,04/20/2010,Front,,Open,REAR,Vacant,False,False,9355,S,KIMBARK,AVE,60619.0,1186501.39006573,1843209.67620039,8.0,4.0,47.0,41.724884714874406,-87.59243495331356,"(41.724884714874406, -87.59243495331357)",2010-04-20
Vacant/Abandoned Building,10-00521064,04/20/2010,Front,,Open,FRONT AND BACK,Vacant,False,True,6236,S,FRANCISCO,AVE,60629.0,1158118.21710384,1863154.57079318,15.0,8.0,66.0,41.7802399615662,-87.69586173282913,"(41.7802399615662, -87.69586173282913)",2010-04-20
Vacant/Abandoned Building,10-00521601,04/20/2010,Front,,Open,REAR,Vacant,True,False,8132,S,ESCANABA,AVE,60617.0,1196909.66478094,1851605.65061968,7.0,4.0,46.0,41.74767179725707,-87.55403162732443,"(41.74767179725707, -87.55403162732443)",2010-04-20
Vacant/Abandoned Building,10-00522804,04/20/2010,Front,,Open,THE RESTAURANT  DOORS  WIDE OPEN,Vacant,True,True,4527,S,INDIANA,AVE,60653.0,1178358.40869586,1875054.5299922002,3.0,2.0,38.0,41.812458857030464,-87.62129682809801,"(41.81245885703046, -87.62129682809801)",2010-04-20
Vacant/Abandoned Building,10-00523465,04/20/2010,Front,,Open,,Vacant,False,False,3061,N,WASHTENAW,AVE,60618.0,1157861.17012743,1920413.64548753,1.0,14.0,21.0,41.93737015314478,-87.69524400568638,"(41.93737015314478, -87.69524400568638)",2010-04-20
Vacant/Abandoned Building,10-00523692,04/20/2010,Front,,Open,REAR,Vacant,False,True,8541,S,GIVINS,CT,60620.0,1172726.14998663,1848260.93999982,21.0,6.0,71.0,41.73906034335918,-87.64274505183442,"(41.73906034335918, -87.64274505183442)",2010-04-20
Vacant/Abandoned Building,10-00525201,04/20/2010,Front,,Open,FRONT AND REAR DOOR,Vacant,False,True,5319,S,BISHOP,ST,60609.0,1167570.03317367,1869471.03331168,16.0,9.0,61.0,41.797375590659335,-87.66102868891956,"(41.797375590659335, -87.66102868891957)",2010-04-20
Vacant/Abandoned Building,10-00526136,04/20/2010,Front,,Open,BACK DOOR,Vacant,False,True,6027,S,PAULINA,ST,60636.0,1166042.48832443,1864731.52761822,15.0,7.0,67.0,41.78440245383464,-87.66676516828781,"(41.78440245383464, -87.66676516828781)",2010-04-20
Vacant/Abandoned Building,10-00526140,04/20/2010,Rear,,Open,FRONT,Vacant,False,True,6219,S,KOLIN,AVE,60629.0,1148440.16590994,1863008.03947969,13.0,8.0,65.0,41.78002925868097,-87.73134722196066,"(41.78002925868097, -87.73134722196065)",2010-04-20
Vacant/Abandoned Building,10-00526290,04/20/2010,Rear,,Open,BACK DOOR HAS BEEN KICKED IN,Vacant,False,True,1525,S,DRAKE,AVE,60623.0,1152953.30989168,1892311.75859227,24.0,10.0,29.0,41.86035470297107,-87.71402683229083,"(41.86035470297107, -87.71402683229083)",2010-04-20
Vacant/Abandoned Building,10-00526999,04/20/2010,Front,,Open,WINDOWS ARE BUSTED OUT,Vacant,False,True,3049,W,53RD,ST,60632.0,1156855.80987353,1869335.05210303,14.0,9.0,63.0,41.79722566700922,-87.70032312988424,"(41.79722566700923, -87.70032312988425)",2010-04-20
Vacant/Abandoned Building,10-00527204,04/20/2010,Front,,Open,,Vacant,False,True,7230,S,ABERDEEN,ST,60621.0,1170233.6999907,1856863.70752165,17.0,7.0,68.0,41.762722005395055,-87.65162718573359,"(41.762722005395055, -87.65162718573359)",2010-04-20
Vacant/Abandoned Building,10-00527476,04/20/2010,Front,,Open,,Vacant,False,True,6447,S,RICHMOND,ST,60629.0,1157823.51447579,1861743.189419,15.0,8.0,66.0,41.776372916479396,-87.69698045862562,"(41.7763729164794, -87.69698045862563)",2010-04-20
Vacant/Abandoned Building,10-00527618,04/20/2010,Front,,Open,FRONT AND BACK,Vacant,False,True,7110,S,PARNELL,AVE,60621.0,1173853.96382883,1857764.36280568,6.0,7.0,68.0,41.76511401395989,-87.63833170183855,"(41.76511401395988, -87.63833170183854)",2010-04-20
Vacant/Abandoned Building,10-00531003,04/21/2010,Front,,Open,FRONT,Vacant,False,False,11517,S,YALE,AVE,60628.0,1176671.60052278,1828568.72103293,34.0,5.0,53.0,41.684934378970695,-87.6288799903423,"(41.684934378970695, -87.6288799903423)",2010-04-21
Vacant/Abandoned Building,10-00531149,04/21/2010,Front,,Open,BACK DOOR TO ONE OF THE APMTS IS OPEN,Vacant,False,True,8215,S,ELLIS,AVE,60619.0,1184324.58302762,1850730.41239762,8.0,6.0,44.0,41.74557357933692,-87.60017384619263,"(41.74557357933692, -87.60017384619263)",2010-04-21
Vacant/Abandoned Building,10-00532409,04/21/2010,Rear,,Open,REAR,Vacant,False,False,5356,S,ABERDEEN,ST,60609.0,1169892.25418736,1869284.84068776,16.0,9.0,61.0,41.79681450280626,-87.65251820047163,"(41.796814502806264, -87.65251820047163)",2010-04-21
Vacant/Abandoned Building,10-00532538,04/21/2010,Front,,Boarded,,Vacant,False,False,7915,S,TROY,ST,60652.0,1156754.95000154,1851902.69997361,18.0,8.0,70.0,41.7493907237464,-87.70116290403801,"(41.749390723746394, -87.70116290403801)",2010-04-21
Vacant/Abandoned Building,10-00532583,04/21/2010,Front,,Open,REAR WINDOWS,Vacant,False,False,706,E,91ST,PL,60619.0,1182541.86601992,1844459.16508173,6.0,6.0,44.0,41.728406061637,-87.60689994023889,"(41.728406061637, -87.60689994023889)",2010-04-21
Vacant/Abandoned Building,10-00532834,04/21/2010,Garage,,Open,GARAGE DOOR,Vacant,True,True,6435,S,ALBANY,AVE,60629.0,1156827.77360266,1861796.34770002,15.0,8.0,66.0,41.77653895205458,-87.70062938142807,"(41.77653895205458, -87.70062938142806)",2010-04-21
Vacant/Abandoned Building,10-00533427,04/21/2010,Front,,Open,DOORS,Vacant,False,False,1456,E,69TH,PL,60637.0,1187263.98610427,1859203.96877962,5.0,3.0,43.0,41.76875657485599,-87.58913488838832,"(41.768756574855985, -87.58913488838832)",2010-04-21
Vacant/Abandoned Building,10-00533487,04/21/2010,Front,,Open,REAR,Vacant,False,True,6920,S,STEWART,AVE,60621.0,1174820.14999915,1859052.51072098,6.0,7.0,68.0,41.76862736367413,-87.63475201038145,"(41.768627363674135, -87.63475201038145)",2010-04-21
Vacant/Abandoned Building,10-00533496,04/21/2010,Front,,Open,FRONT AND REAR,Vacant,False,True,11521,S,LA SALLE,ST,60628.0,1177322.71000888,1828484.23178436,34.0,5.0,53.0,41.684687892821934,-87.62649899773886,"(41.684687892821934, -87.62649899773886)",2010-04-21
Vacant/Abandoned Building,10-00533647,04/21/2010,Front,,Boarded,,Vacant,False,False,7223,S,HERMITAGE,AVE,60636.0,1165931.31216638,1856795.73460375,17.0,7.0,67.0,41.762627961564434,-87.66739808254093,"(41.76262796156443, -87.66739808254093)",2010-04-21
Vacant/Abandoned Building,10-00533683,04/21/2010,Front,,Open,"REAR DOOR, FRONT DOOR AND WINDOW",Vacant,False,True,1656,S,AVERS,AVE,60623.0,1151005.82267752,1891394.26816831,24.0,10.0,29.0,41.85787532631849,-87.72119963482453,"(41.85787532631849, -87.72119963482452)",2010-04-21
Vacant/Abandoned Building,10-00533836,04/21/2010,Front,,Open,,Vacant,True,True,2708,E,76TH,ST,60649.0,1195805.65960729,1855121.36979956,7.0,4.0,43.0,41.75734656206503,-87.55796085101825,"(41.75734656206503, -87.55796085101827)",2010-04-21
Vacant/Abandoned Building,10-00534340,04/21/2010,Rear,,Open,REAR DOOR,Vacant,False,True,7926,S,ELIZABETH,ST,60620.0,1169366.580114,1852221.3776808998,21.0,6.0,71.0,41.75000165141121,-87.65493948998737,"(41.75000165141121, -87.65493948998738)",2010-04-21
Vacant/Abandoned Building,10-00534505,04/21/2010,Front,,Open,SIDE AND REAR,Vacant,False,False,1850,S,LAWNDALE,AVE,60623.0,1151981.29671736,1891126.32741073,24.0,10.0,29.0,41.857120925433456,-87.71762607877264,"(41.85712092543346, -87.71762607877264)",2010-04-21
Vacant/Abandoned Building,10-00534506,04/21/2010,Front,,Open,REAR,Vacant,False,False,1657,S,KOMENSKY,AVE,60623.0,1149658.20422521,1891356.92057242,24.0,10.0,29.0,41.85779909807293,-87.72614722490192,"(41.85779909807293, -87.72614722490192)",2010-04-21
Vacant/Abandoned Building,10-00534645,04/21/2010,Front,,Open,FRONT & REAR,Vacant,False,True,900,W,54TH,ST,60609.0,1171219.0879853,1869002.01042902,20.0,9.0,61.0,41.79600944639048,-87.64766084405917,"(41.79600944639048, -87.64766084405919)",2010-04-21
Vacant/Abandoned Building,10-00535366,04/22/2010,Rear,,Boarded,REAR SIDE IS OPEN,Vacant,False,True,1448,W,52ND,ST,60609.0,1167476.61537149,1870259.48152919,16.0,9.0,61.0,41.79954118830936,-87.6613486620154,"(41.799541188309355, -87.66134866201541)",2010-04-22
Vacant/Abandoned Building,10-00536517,04/22/2010,Rear,,Open,,Occupied,True,True,1546,S,ST LOUIS,AVE,60623.0,1153288.83186646,1892177.66541902,24.0,10.0,29.0,41.85998008805879,-87.71279876500319,"(41.85998008805879, -87.71279876500319)",2010-04-22
Vacant/Abandoned Building,10-00536696,04/22/2010,Rear,,Open,IN THE REAR OF THE BUILDING.,Vacant,False,False,7232,S,GREEN,ST,60621.0,1171888.09712292,1856896.39917117,17.0,7.0,68.0,41.76277557673849,-87.64556260639506,"(41.76277557673849, -87.64556260639505)",2010-04-22
Vacant/Abandoned Building,10-00536737,04/22/2010,Rear,,Open,THIS BUILDING IS OPEN IN THE REAR.,Vacant,False,False,7230,S,GREEN,ST,60621.0,1171887.69712292,1856909.79917117,17.0,7.0,68.0,41.762812356775704,-87.64556367977255,"(41.7628123567757, -87.64556367977255)",2010-04-22
Vacant/Abandoned Building,10-00537790,04/22/2010,Front,,Open,,Vacant,False,False,1477,W,71ST,PL,60636.0,1167529.04099683,1857320.02068666,17.0,7.0,67.0,41.7640325806147,-87.66152714092054,"(41.7640325806147, -87.66152714092055)",2010-04-22
Vacant/Abandoned Building,10-00537808,04/22/2010,,,,,,,,7424,S,DR MARTIN LUTHER KING JR,DR,60619.0,1180193.27138649,1855876.82279318,6.0,3.0,69.0,41.75979149669606,-87.61515418480694,"(41.75979149669606, -87.61515418480694)",2010-04-22
Vacant/Abandoned Building,10-00537941,04/22/2010,Front,,Open,FRONT,Vacant,False,True,135,N,PARKSIDE,AVE,60644.0,1138577.08258357,1900436.12288365,29.0,15.0,25.0,41.88292149910173,-87.7666021697072,"(41.882921499101734, -87.76660216970721)",2010-04-22
Vacant/Abandoned Building,10-00538400,04/22/2010,Front,,Open,THE WINDOWS AND DOORS.,Vacant,True,False,500,W,116TH,ST,60628.0,1175047.35600943,1827979.07169314,34.0,5.0,53.0,41.68335258218795,-87.63484340495646,"(41.68335258218795, -87.63484340495646)",2010-04-22
Vacant/Abandoned Building,10-00538410,04/22/2010,Rear,,Open,,Vacant,True,True,6025,S,PAULINA,ST,60636.0,1166042.18832443,1864744.92761822,15.0,7.0,67.0,41.784439231499796,-87.66676588734009,"(41.784439231499796, -87.6667658873401)",2010-04-22
Vacant/Abandoned Building,10-00538837,04/22/2010,Front,,Open,NOT SURE WHERE PERSONS ARE ENTERING BUT INSIDE VACANT HOUSE,Vacant,False,True,11345,S,CARPENTER,ST,60643.0,1171356.33132929,1829455.09206712,34.0,22.0,75.0,41.687484347248905,-87.64831197238406,"(41.687484347248905, -87.64831197238408)",2010-04-22
Vacant/Abandoned Building,10-00538855,04/22/2010,Front,,Boarded,,Vacant,False,False,11347,S,CARPENTER,ST,60643.0,1171356.73132929,1829444.49206712,34.0,22.0,75.0,41.687455250407226,-87.6483108166058,"(41.68745525040723, -87.64831081660579)",2010-04-22
Vacant/Abandoned Building,10-00539505,04/22/2010,Front,,Boarded,FRONT AND REAR,Vacant,False,True,11831,S,PERRY,AVE,60628.0,1177706.39497097,1826504.93643429,34.0,5.0,53.0,41.67924776089445,-87.62515399751693,"(41.679247760894455, -87.62515399751693)",2010-04-22
Vacant/Abandoned Building,10-00539813,04/22/2010,Front,,Open,WEST SIDE WINDOW OPEN,Vacant,False,True,2564,W,WASHINGTON,BLVD,60612.0,1159373.16892596,1900599.00139203,2.0,13.0,28.0,41.88296620654969,-87.69023315075104,"(41.88296620654969, -87.69023315075104)",2010-04-22
Vacant/Abandoned Building,10-00539884,04/22/2010,Front,,Open,SIDE DOOR,Vacant,False,True,7031,S,CAMPBELL,AVE,60629.0,1160923.13566721,1857952.83348026,15.0,8.0,66.0,41.765908137671616,-87.6857219925653,"(41.765908137671616, -87.68572199256532)",2010-04-22
Vacant/Abandoned Building,10-00540043,04/22/2010,Rear,,Open,REAR DOOR IS WIDE OPEN,Vacant,False,True,7918,S,GREEN,ST,60620.0,1172010.79051052,1852348.63792141,17.0,6.0,71.0,41.750293250675355,-87.64524623263969,"(41.75029325067536, -87.64524623263969)",2010-04-22
Vacant/Abandoned Building,10-00540254,04/22/2010,Front,,Open,BACK DOOR AND FRONT WINDOW,Vacant,False,True,7921,S,PERRY,AVE,60620.0,1176982.44209771,1852472.81079513,17.0,6.0,44.0,41.75052344613058,-87.62702419911106,"(41.75052344613058, -87.62702419911106)",2010-04-22
Vacant/Abandoned Building,10-00540561,04/22/2010,Front,,Open,FRONT AND BACK DOORS,Vacant,False,True,6110,S,PEORIA,ST,60621.0,1171352.47690824,1864355.59500474,16.0,7.0,68.0,41.78325624118936,-87.64730765881184,"(41.78325624118937, -87.64730765881183)",2010-04-22
Vacant/Abandoned Building,10-00542007,04/23/2010,Front,,Open,,Vacant,False,False,1841,W,71ST,ST,60636.0,1165201.52459415,1857597.66848799,17.0,7.0,67.0,41.76484405086613,-87.67005021082231,"(41.76484405086613, -87.67005021082231)",2010-04-23
Vacant/Abandoned Building,10-00542322,04/23/2010,,,,,,,,520,W,GRAND,AVE,60622.0,,,,,,,,,2010-04-23
Vacant/Abandoned Building,10-00542735,04/23/2010,Front,,Open,,Vacant,False,False,2000,W,69TH,PL,60636.0,1164224.93231873,1858570.10010064,17.0,7.0,67.0,41.76753314691975,-87.67360237116536,"(41.76753314691975, -87.67360237116534)",2010-04-23
Vacant/Abandoned Building,10-00543148,04/23/2010,Front,,Boarded,,Vacant,False,False,2801,S,HOMAN,AVE,60623.0,1154153.62696563,1885187.07997352,22.0,10.0,30.0,41.840779906771324,-87.70981064044761,"(41.84077990677132, -87.70981064044761)",2010-04-23
Vacant/Abandoned Building,10-00543152,04/23/2010,Front,,Open,ALL THROUGHOUT THE BUILDING,Vacant,False,True,7714,S,CARPENTER,ST,60620.0,1170650.88150397,1853665.14478075,17.0,6.0,71.0,41.75393565478113,-87.65019124447937,"(41.75393565478113, -87.65019124447937)",2010-04-23
Vacant/Abandoned Building,10-00543187,04/23/2010,Front,,Open,FRONT UPSTAIRS,Vacant,False,True,7729,S,CARPENTER,ST,60620.0,1170653.68150397,1853564.54478075,17.0,6.0,71.0,41.75365953420065,-87.65018391078812,"(41.75365953420066, -87.65018391078812)",2010-04-23
Vacant/Abandoned Building,10-00543409,04/23/2010,Front,,Open,"REAR, FRONT & WINDOWS BROKEN OUT",Vacant,False,True,8053,S,CHAPPEL,AVE,60617.0,1191261.77691738,1851977.347995,8.0,4.0,46.0,41.748830272408206,-87.57471480733271,"(41.748830272408206, -87.57471480733271)",2010-04-23
Vacant/Abandoned Building,10-00544210,04/23/2010,,,,,,,,6637,S,INGLESIDE,AVE,60637.0,1183698.30037974,1861200.03950691,5.0,3.0,42.0,41.774317899037115,-87.6021425607615,"(41.774317899037115, -87.60214256076148)",2010-04-23
Vacant/Abandoned Building,10-00544871,04/23/2010,Front,,Open,FRONT AND REAR,Vacant,False,True,9339,S,AVALON,AVE,60619.0,1186168.59648251,1843306.72213047,8.0,4.0,47.0,41.72515887317865,-87.59365090855314,"(41.72515887317865, -87.59365090855314)",2010-04-23
Vacant/Abandoned Building,10-00544884,04/23/2010,Front,,Boarded,,Vacant,False,True,5629,S,MENARD,AVE,60638.0,1138664.92280467,1866673.20140288,23.0,8.0,56.0,41.790269311174114,-87.76709689981968,"(41.790269311174114, -87.76709689981968)",2010-04-23
Vacant/Abandoned Building,10-00544889,04/23/2010,Front,,Boarded,,Vacant,False,True,7043,W,63RD,ST,60638.0,1130528.90412917,1861924.65437019,23.0,8.0,64.0,41.7773815610838,-87.79703882207895,"(41.7773815610838, -87.79703882207896)",2010-04-23
Vacant/Abandoned Building,10-00544897,04/23/2010,Front,,Boarded,BUILDING HAD A FIRE OWNER HAD NO INSURANCE RATS HAVE TAKEN OVER THE BUILDING,Vacant,True,False,7645,S,KINGSTON,AVE,60649.0,1194519.97640033,1854763.03256922,7.0,4.0,43.0,41.75639495908766,-87.56268435950147,"(41.75639495908766, -87.56268435950147)",2010-04-23
Vacant/Abandoned Building,10-00544966,04/23/2010,Rear,,Open,UNKNOWN,Vacant,False,True,7411,S,CHAPPEL,AVE,60649.0,1191163.74741738,1856232.72931731,5.0,3.0,43.0,41.76050977209693,-87.57493656058803,"(41.760509772096924, -87.57493656058803)",2010-04-23
Vacant/Abandoned Building,10-00545549,04/23/2010,Front,,Open,BACK DOOR,Vacant,False,True,4100,W,FIFTH,AVE,60624.0,1149159.52261111,1896644.70733145,24.0,11.0,26.0,41.87231907966136,-87.72784080795375,"(41.87231907966136, -87.72784080795377)",2010-04-23
Vacant/Abandoned Building,10-00545615,04/23/2010,Front,,Open,,Vacant,False,False,5142,S,MARSHFIELD,AVE,60609.0,1166211.45242812,1870610.86279659,16.0,9.0,61.0,41.800532466996614,-87.66597834536054,"(41.80053246699662, -87.66597834536054)",2010-04-23
Vacant/Abandoned Building,10-00545917,04/23/2010,Front,,Open,REAR,Vacant,False,False,6919,S,NORMAL,BLVD,60621.0,1174142.85500257,1859038.69721955,6.0,7.0,68.0,41.76860452663315,-87.63723503309454,"(41.76860452663315, -87.63723503309453)",2010-04-23
Vacant/Abandoned Building,10-00546543,04/24/2010,Front,,Open,FRONT,Vacant,False,False,8901,S,WALLACE,ST,60620.0,1173861.65952015,1845902.38631685,21.0,22.0,71.0,41.732563078891424,-87.63865451726225,"(41.732563078891424, -87.63865451726225)",2010-04-24
Vacant/Abandoned Building,10-00546616,04/24/2010,Garage,,Open,GARAGE DOOR FROM THE BACKYARD IS OPEN,Vacant,True,False,834,E,87TH,PL,60619.0,1183411.90560848,1847143.64519296,8.0,6.0,44.0,41.735752387442055,-87.60362946758539,"(41.735752387442055, -87.60362946758539)",2010-04-24
Vacant/Abandoned Building,10-00546698,04/24/2010,Front,,Open,,Vacant,False,False,8445,S,SANGAMON,ST,60620.0,1171448.11502533,1848829.80023343,21.0,6.0,71.0,41.74064942077512,-87.64741091459905,"(41.74064942077512, -87.64741091459904)",2010-04-24
Vacant/Abandoned Building,10-00546738,04/24/2010,Rear,,Open,REAR,Vacant,False,True,6320,S,LAFLIN,ST,60636.0,1167419.02307611,1862824.83590227,16.0,7.0,67.0,41.77914086092441,-87.66177283679139,"(41.77914086092441, -87.66177283679137)",2010-04-24
Vacant/Abandoned Building,10-00546782,04/24/2010,Front,,Open,REAR,Vacant,False,True,6945,S,ABERDEEN,ST,60621.0,1170181.55846884,1858751.75802352,17.0,7.0,68.0,41.76790418823376,-87.65176345968433,"(41.767904188233764, -87.65176345968433)",2010-04-24
Vacant/Abandoned Building,10-00546868,04/24/2010,Front,,Open,REAR DOOR,Vacant,False,False,5522,S,HOYNE,AVE,60636.0,1163305.66990478,1867916.24360658,15.0,7.0,67.0,41.793199508407405,-87.67671028785497,"(41.793199508407405, -87.67671028785499)",2010-04-24
Vacant/Abandoned Building,10-00546878,04/24/2010,Front,,Boarded,,Vacant,False,True,11443,S,ADA,ST,60643.0,1169384.76078939,1828773.98879413,34.0,22.0,75.0,41.68565808199629,-87.65554928511071,"(41.685658081996294, -87.6555492851107)",2010-04-24
Vacant/Abandoned Building,10-00546941,04/24/2010,Front,,Open,FRONT/SIDE AND REAR,Vacant,False,True,5003,S,RACINE,AVE,60609.0,1169168.73797573,1871612.33922545,16.0,9.0,61.0,41.803217112171936,-87.6551040626703,"(41.80321711217194, -87.65510406267032)",2010-04-24
Vacant/Abandoned Building,10-00547260,04/24/2010,Front,,Open,REAR DOOR,Vacant,False,False,8415,S,GREEN,ST,60620.0,1172102.3100049999,1849048.35457548,21.0,6.0,71.0,41.7412348293872,-87.64500760594662,"(41.7412348293872, -87.64500760594663)",2010-04-24
Vacant/Abandoned Building,10-00547406,04/24/2010,Rear,,Open,FRONT,Vacant,False,True,7609,S,CHAPPEL,AVE,60649.0,1191191.77121389,1854920.49067851,8.0,4.0,43.0,41.756908202243146,-87.57487625638694,"(41.756908202243146, -87.57487625638696)",2010-04-24
Vacant/Abandoned Building,10-00547582,04/24/2010,Front,,Open,FRONT,Vacant,False,True,612,N,CHRISTIANA,AVE,60624.0,1153934.68996702,1903879.38892862,27.0,11.0,23.0,41.892078014483815,-87.71011609010903,"(41.89207801448381, -87.71011609010903)",2010-04-24
Vacant/Abandoned Building,10-00547665,04/24/2010,Front,,Open,SIDE DOOR,Vacant,False,True,9657,S,UNION,AVE,60628.0,1173341.35721235,1840820.91546616,21.0,22.0,73.0,41.71863032486334,-87.64071039374917,"(41.71863032486334, -87.64071039374919)",2010-04-24
Vacant/Abandoned Building,10-00548314,04/25/2010,Front,,Open,ALL THE WINDOWS ARE BROKEN /DOORS MISSING FRONT AND REAR,Vacant,False,False,5100,S,CARPENTER,ST,60609.0,1170179.54627064,1870994.84963399,16.0,9.0,61.0,41.80150070667204,-87.65141492486298,"(41.80150070667204, -87.65141492486299)",2010-04-25
Vacant/Abandoned Building,10-00549023,04/25/2010,Front,,Boarded,,Vacant,False,True,522,N,SPRINGFIELD,AVE,60624.0,1150296.13600197,1903203.17849295,27.0,11.0,23.0,41.890294165694925,-87.72349666813109,"(41.89029416569493, -87.7234966681311)",2010-04-25
Vacant/Abandoned Building,10-00549342,04/25/2010,Front,,Open,FRONT DOOR,Vacant,False,False,5527,S,TRUMBULL,AVE,60629.0,1154318.71988144,1867750.18168808,14.0,8.0,63.0,41.792927446062826,-87.70966921913781,"(41.79292744606283, -87.7096692191378)",2010-04-25
Vacant/Abandoned Building,10-00549380,04/25/2010,Front,,Open,REAR DOOR UPPER LEVEL HAS BEEN BROKEN INTO,Vacant,False,True,7562,S,COLES,AVE,60649.0,1195966.22173086,1855582.49142752,7.0,4.0,43.0,41.75860794047549,-87.55735718355886,"(41.75860794047549, -87.55735718355886)",2010-04-25
Vacant/Abandoned Building,10-00551659,04/26/2010,Front,,Open,ALL AROUND,Vacant,False,False,10846,S,WABASH,AVE,60628.0,1178500.27782786,1833060.9906926998,9.0,5.0,49.0,41.697220587800714,-87.62204992650572,"(41.69722058780071, -87.62204992650572)",2010-04-26
Vacant/Abandoned Building,10-00553360,04/26/2010,Front,,Open,,Vacant,False,True,10054,S,AVENUE L,,60617.0,1201814.99628776,1838955.64226929,10.0,4.0,52.0,41.712835949442855,-87.53648657937282,"(41.71283594944285, -87.53648657937283)",2010-04-26
Vacant/Abandoned Building,10-00553763,04/26/2010,Front,,Open,FRONT/REAR DOOR/WINDOWS,Vacant,False,False,6628,S,MORGAN,ST,60621.0,1170785.37516799,1860871.47102312,17.0,7.0,68.0,41.77370778875723,-87.64948842068102,"(41.77370778875723, -87.64948842068101)",2010-04-26
Vacant/Abandoned Building,10-00553971,04/26/2010,Front,,Open,,Vacant,False,True,5423,S,CARPENTER,ST,60609.0,1170234.75718816,1868851.86777639,16.0,9.0,61.0,41.7956189264452,-87.65127480553377,"(41.7956189264452, -87.65127480553376)",2010-04-26
Vacant/Abandoned Building,10-00554799,04/26/2010,Rear,,Open,BACK -3RD FLOOR,Vacant,False,True,1725,N,MAPLEWOOD,AVE,60647.0,1159099.02819076,1911377.55387023,1.0,14.0,22.0,41.91254909939003,-87.69094345450802,"(41.91254909939003, -87.69094345450802)",2010-04-26
Vacant/Abandoned Building,10-00554844,04/26/2010,Front,,Boarded,,Vacant,False,True,6647,W,64TH,ST,60638.0,1133206.26921407,1861351.03847141,23.0,8.0,64.0,41.775761211492735,-87.78723672165516,"(41.775761211492735, -87.78723672165516)",2010-04-26
Vacant/Abandoned Building,10-00555367,04/26/2010,Front,,Open,FRONT ENTRANCE,Vacant,False,False,9344,S,ANTHONY,AVE,60617.0,1197315.40999267,1843579.50998449,10.0,4.0,48.0,41.72563733677847,-87.55281161070913,"(41.72563733677847, -87.55281161070914)",2010-04-26
Vacant/Abandoned Building,10-00555673,04/26/2010,Front,,Open,REAR DOORS. .ARE WIDE OPEN..,Vacant,True,True,2107,W,50TH,PL,60609.0,1163171.83869069,1871162.89779532,16.0,9.0,61.0,41.802111537390815,-87.67711015151397,"(41.80211153739081, -87.67711015151397)",2010-04-26
Vacant/Abandoned Building,10-00556434,04/26/2010,Front,,Open,,Vacant,False,False,10216,S,CHARLES,ST,60643.0,1168267.06929955,1837125.2207133,19.0,22.0,72.0,41.70859928468705,-87.65940170098644,"(41.70859928468705, -87.65940170098644)",2010-04-26
Vacant/Abandoned Building,10-00557279,04/26/2010,Front,,Open,,Vacant,False,True,657,N,DRAKE,AVE,60624.0,1152598.61860427,1904155.79347493,27.0,11.0,23.0,41.89286302086892,-87.7150156154689,"(41.892863020868916, -87.71501561546891)",2010-04-26
Vacant/Abandoned Building,10-00557625,04/26/2010,Front,,Open,,Vacant,False,True,2852,S,HARDING,AVE,60623.0,1150507.39060865,1884737.54839761,22.0,10.0,30.0,41.83961819248698,-87.72320279937982,"(41.839618192486974, -87.72320279937983)",2010-04-26
Vacant/Abandoned Building,10-00557746,04/27/2010,Front,,Open,FRONT DOOR AND BACK DOOR,Vacant,False,True,11939,S,EGGLESTON,AVE,60628.0,1175445.04569252,1825736.28500247,34.0,5.0,53.0,41.677189167484826,-87.63345429906242,"(41.677189167484826, -87.63345429906242)",2010-04-27
Vacant/Abandoned Building,10-00559197,04/27/2010,Front,,Open,FRONT AND REAR. WIDE OPEN,Vacant,False,True,8410,S,KERFOOT,AVE,60620.0,1173429.53321194,1849020.83710965,21.0,6.0,71.0,41.741130083364745,-87.64014556767155,"(41.741130083364745, -87.64014556767155)",2010-04-27
Vacant/Abandoned Building,10-00560069,04/27/2010,Front,,Open,,Vacant,False,False,6657,S,STATE,ST,60637.0,1177425.37003161,1860865.12827099,20.0,3.0,69.0,41.773542919841205,-87.62514793086861,"(41.7735429198412, -87.62514793086861)",2010-04-27
Vacant/Abandoned Building,10-00560313,04/27/2010,Front,,Boarded,,Vacant,False,True,1927,W,RACE,AVE,60622.0,1163455.84359913,1903767.2332106999,26.0,13.0,24.0,41.891575158865535,-87.67515216317261,"(41.89157515886554, -87.67515216317261)",2010-04-27
Vacant/Abandoned Building,10-00560909,04/27/2010,Front,,Open,SIDE WINDOW,Vacant,False,False,5717,S,CALUMET,AVE,60637.0,1179459.18710234,1867183.27057743,20.0,2.0,40.0,41.79083432354353,-87.61749965591429,"(41.79083432354353, -87.61749965591429)",2010-04-27
Vacant/Abandoned Building,10-00561974,04/27/2010,Front,,Open,,Vacant,False,False,6427,S,KIMBARK,AVE,60637.0,1185743.8541326001,1862642.3550029998,20.0,3.0,42.0,41.7782277687611,-87.5945986032023,"(41.778227768761084, -87.5945986032023)",2010-04-27
Vacant/Abandoned Building,10-00562628,04/27/2010,Front,,Open,DOORS AND WINDOWS,Vacant,False,False,8056,S,PAULINA,ST,60620.0,1166412.27538288,1851276.70430684,21.0,6.0,71.0,41.747472743553296,-87.66579222721441,"(41.747472743553296, -87.66579222721442)",2010-04-27
Vacant/Abandoned Building,10-00563502,04/27/2010,Rear,,Open,REAR-DOOR,Vacant,False,False,6812,S,ELIZABETH,ST,60636.0,1169163.89060759,1859608.17746978,17.0,7.0,67.0,41.77027638035237,-87.65546893466696,"(41.770276380352364, -87.65546893466696)",2010-04-27
Vacant/Abandoned Building,10-00563924,04/27/2010,Front,,Open,REAR,Vacant,False,False,6107,S,ROCKWELL,ST,60629.0,1160086.36047857,1864068.35113113,15.0,8.0,66.0,41.78270723719034,-87.68862103881844,"(41.782707237190344, -87.68862103881843)",2010-04-27
Vacant/Abandoned Building,10-00564048,04/27/2010,Front,,Open,REAR,Vacant,False,False,8218,S,EXCHANGE,AVE,60617.0,1197255.87458654,1850972.85008519,7.0,4.0,46.0,41.745926733973754,-87.55278407203447,"(41.745926733973754, -87.55278407203447)",2010-04-27
Vacant/Abandoned Building,10-00564096,04/27/2010,Rear,,Open,SIDE,Vacant,False,True,5522,S,TRUMBULL,AVE,60629.0,1154317.71988144,1867783.58168808,14.0,8.0,63.0,41.793019120403045,-87.70967199756711,"(41.79301912040305, -87.70967199756713)",2010-04-27
Vacant/Abandoned Building,10-00564167,04/27/2010,Front,,Open,CALLER STATES THE DOORS ARE CLOSED BUT UNLOCKED AND PEOPLE KEEP GOING  INTO THIS BUILDING.,Vacant,False,True,6212,S,TALMAN,AVE,60629.0,1159774.65589265,1863360.78640629,15.0,8.0,66.0,41.78077198854304,-87.6897832639834,"(41.780771988543044, -87.6897832639834)",2010-04-27
Vacant/Abandoned Building,10-00564769,04/27/2010,Front,,Open,FRONT AND REAR,Vacant,False,False,11845,S,LA SALLE,ST,60628.0,1177388.67579803,1826403.67020295,34.0,5.0,53.0,41.67897703121479,-87.62632001779299,"(41.678977031214785, -87.62632001779299)",2010-04-27
Vacant/Abandoned Building,10-00565549,04/28/2010,Front,,Open,,Vacant,False,False,7207,S,UNIVERSITY,AVE,60619.0,1185128.38006788,1857458.89076577,5.0,3.0,69.0,41.76401835821044,-87.59701761664873,"(41.764018358210436, -87.59701761664873)",2010-04-28
Vacant/Abandoned Building,10-00565597,04/28/2010,Front,,Open,FRONT AND BASEMENT DOOR,Vacant,False,False,6828,S,ANTHONY,AVE,60637.0,1180231.46471959,1859726.65697442,20.0,3.0,69.0,41.77035497019396,-87.61489635877234,"(41.77035497019395, -87.61489635877233)",2010-04-28
Vacant/Abandoned Building,10-00566098,04/28/2010,Front,,Open,ALL WINDOWS BROKEN FRNT/REAR ENTRANCE OPEN.A,Vacant,False,False,3002,E,81ST,ST,60617.0,1197617.30370853,1851838.75480013,7.0,4.0,46.0,41.74829383578891,-87.55143092037625,"(41.748293835788914, -87.55143092037623)",2010-04-28
Vacant/Abandoned Building,10-00568351,04/28/2010,Rear,,Open,"BACK ENTRANCE, AND GARAGE",Vacant,False,True,12000,S,STEWART,AVE,60628.0,1175785.14978267,1825341.66140247,34.0,5.0,53.0,41.676098670541634,-87.6322211739344,"(41.676098670541634, -87.6322211739344)",2010-04-28
Vacant/Abandoned Building,10-00568818,04/28/2010,Front,,Open,FRONT AND REAR DOORS,Vacant,False,False,6602,S,ABERDEEN,ST,60621.0,1170118.42160733,1861027.50399978,17.0,7.0,68.0,41.77415048932232,-87.65192879576288,"(41.774150489322324, -87.65192879576288)",2010-04-28
Vacant/Abandoned Building,10-00569668,04/28/2010,Rear,,Open,BASEMENT WINDOWS,Vacant,False,True,7819,S,ESSEX,AVE,60649.0,1194216.43766608,1853606.86172378,7.0,4.0,43.0,41.753229792295336,-87.56383464364559,"(41.753229792295336, -87.56383464364559)",2010-04-28
Vacant/Abandoned Building,10-00570284,04/28/2010,Front,,Open,FRONT DOOR,Vacant,False,True,6839,S,TALMAN,AVE,60629.0,1159887.38991247,1859196.28283193,15.0,8.0,66.0,41.769341681143686,-87.68948426338542,"(41.769341681143686, -87.68948426338542)",2010-04-28
Vacant/Abandoned Building,10-00571133,04/28/2010,Front,,Open,REAR-FRONT,Vacant,False,False,5251,S,UNION,AVE,60609.0,1172524.98461947,1870054.11918872,3.0,9.0,61.0,41.79886786100917,-87.64284106733083,"(41.798867861009164, -87.64284106733083)",2010-04-28
Vacant/Abandoned Building,10-00571369,04/28/2010,Front,,Boarded,,Vacant,False,False,5950,S,HERMITAGE,AVE,60636.0,1165689.9499076,1865567.1519159,15.0,7.0,67.0,41.78670300439465,-87.66803401040339,"(41.78670300439465, -87.66803401040339)",2010-04-28
Vacant/Abandoned Building,10-00571637,04/28/2010,Front,,Open,WINDOW,Vacant,False,False,4036,W,MONROE,ST,60624.0,1149497.79601598,1899355.22220854,28.0,11.0,26.0,41.8797504856769,-87.72652849280153,"(41.879750485676894, -87.72652849280153)",2010-04-28
Vacant/Abandoned Building,10-00572620,04/29/2010,Front,,Open,REAR BASEMENT WINDOW,Vacant,False,False,3924,W,81ST,PL,60652.0,1151650.4127108,1850249.32911852,18.0,8.0,70.0,41.744954984434344,-87.71991139477875,"(41.74495498443434, -87.71991139477875)",2010-04-29
Vacant/Abandoned Building,10-00572890,04/29/2010,Front,,Open,FRONT AND REAR,Vacant,False,False,6950,S,ARTESIAN,AVE,60629.0,1161232.75779867,1858832.32527742,15.0,8.0,66.0,41.768315186881814,-87.68456279950358,"(41.768315186881814, -87.68456279950358)",2010-04-29
Vacant/Abandoned Building,10-00573125,04/29/2010,Rear,,Open,,Vacant,False,False,11437,S,INDIANA,AVE,60628.0,1179618.19361286,1829025.02009217,9.0,5.0,49.0,41.68611990493022,-87.61807948067639,"(41.686119904930216, -87.61807948067637)",2010-04-29
Vacant/Abandoned Building,10-00573921,04/29/2010,Front,,Open,FRONT AND REAR,Vacant,False,False,7100,S,EGGLESTON,AVE,60621.0,1174513.81807836,1857851.03822745,6.0,7.0,68.0,41.76533720546256,-87.63591057372389,"(41.76533720546256, -87.63591057372389)",2010-04-29
Vacant/Abandoned Building,10-00573984,04/29/2010,Front,,Open,FRONT/SIDE DOOR,Vacant,False,False,8611,S,JUSTINE,ST,60620.0,1167505.41519817,1847624.10791499,21.0,6.0,71.0,41.73742615505609,-87.66189106744932,"(41.737426155056085, -87.66189106744932)",2010-04-29
Vacant/Abandoned Building,10-00574759,04/29/2010,Rear,,Boarded,BASEMENT DOOR IS OPEN,Vacant,False,True,6502,S,HOYNE,AVE,60636.0,1163481.21871122,1861517.850105,15.0,7.0,67.0,41.77563779839232,-87.67624586580969,"(41.775637798392324, -87.67624586580968)",2010-04-29
Vacant/Abandoned Building,10-00574941,04/29/2010,Front,,Open,DOORS AND WINDOWS,Vacant,False,True,7241,S,WINCHESTER,AVE,60636.0,1164608.89750027,1856646.08489662,17.0,7.0,67.0,41.762245293268,-87.6722491685681,"(41.762245293267995, -87.67224916856809)",2010-04-29
Vacant/Abandoned Building,10-00574995,04/29/2010,Front,,Open,FRONT,Vacant,False,False,10834,S,HOMAN,AVE,60655.0,1155591.83382776,1832563.32308069,19.0,22.0,74.0,41.69634343748303,-87.70594154769266,"(41.69634343748303, -87.70594154769266)",2010-04-29
Vacant/Abandoned Building,10-00575438,04/29/2010,,,,,,,,4335,S,HERMITAGE,AVE,60609.0,1165403.82986658,1875948.79477605,12.0,9.0,61.0,41.81519753735003,-87.66878879193939,"(41.81519753735003, -87.66878879193939)",2010-04-29
Vacant/Abandoned Building,10-00575780,04/29/2010,Rear,,Open,,Vacant,False,True,9326,S,HARPER,AVE,60619.0,1188076.5418948,1843445.45103113,8.0,4.0,48.0,41.72549435915821,-87.58665774981866,"(41.725494359158205, -87.58665774981866)",2010-04-29
Vacant/Abandoned Building,10-00575931,04/29/2010,,,,,,,,3509,W,58TH,PL,60629.0,1153993.82410975,1865601.65012037,14.0,8.0,63.0,41.7870380217524,-87.71091762309662,"(41.7870380217524, -87.71091762309662)",2010-04-29
Vacant/Abandoned Building,10-00576046,04/29/2010,Front,,Open,,Vacant,False,False,8024,S,EMERALD,AVE,60620.0,1172696.09198638,1851663.0341772,21.0,6.0,71.0,41.74839679897417,-87.64275514766018,"(41.74839679897417, -87.64275514766018)",2010-04-29
Vacant/Abandoned Building,10-00576596,04/29/2010,Rear,,Open,REAR DOOR OPEN,Vacant,False,True,11600,S,LOWE,AVE,60628.0,1174019.55767411,1828221.68583354,34.0,5.0,53.0,41.68404115894357,-87.63859864238422,"(41.684041158943565, -87.63859864238422)",2010-04-29
Vacant/Abandoned Building,10-00577451,04/29/2010,Front,,Open,,Vacant,False,True,1226,E,72ND,ST,60619.0,1185757.19462927,1857520.1793028,5.0,3.0,69.0,41.764171745766575,-87.59471096472679,"(41.764171745766575, -87.5947109647268)",2010-04-29
Vacant/Abandoned Building,10-00577678,04/29/2010,Front,,Open,BACK WINDOW,Vacant,False,True,2233,W,RACE,AVE,60612.0,1161417.49022379,1903706.56579584,26.0,13.0,24.0,41.891451344126956,-87.68263977953386,"(41.891451344126956, -87.68263977953386)",2010-04-29
Vacant/Abandoned Building,10-00577838,04/29/2010,Front,,Open,OPEN ON ALL SIDES,Vacant,False,False,1242,W,71ST,PL,60636.0,1169183.12558311,1857366.38987497,17.0,7.0,67.0,41.76412421337268,-87.65546318994406,"(41.764124213372675, -87.65546318994406)",2010-04-29
Vacant/Abandoned Building,10-00578261,04/29/2010,Front,,Open,FRONT,Vacant,False,False,11557,S,YALE,AVE,60628.0,1176679.8040805,1828300.89187315,34.0,5.0,53.0,41.684199231045596,-87.62885797673965,"(41.68419923104559, -87.62885797673965)",2010-04-29
Vacant/Abandoned Building,10-00578378,04/29/2010,Front,,Open,REAR,Vacant,False,True,21,S,ALBANY,AVE,60612.0,1155913.57408099,1899761.39680107,28.0,11.0,27.0,41.88073817572519,-87.7029595718553,"(41.88073817572519, -87.7029595718553)",2010-04-29
Vacant/Abandoned Building,10-00578647,04/29/2010,Rear,,Open,THE DOOR IN THE REAR OF THE BUILDING IS OPEN.,Vacant,False,False,6818,S,ADA,ST,60636.0,1168502.77693252,1859556.49211643,17.0,7.0,67.0,41.77014882208431,-87.65789379566905,"(41.77014882208431, -87.65789379566907)",2010-04-29
Vacant/Abandoned Building,10-00578959,04/29/2010,Front,,Open,?,Vacant,False,False,1350,W,109TH,PL,60643.0,1169610.53592586,1832157.80732458,34.0,22.0,75.0,41.69493895724162,-87.65462517082743,"(41.69493895724162, -87.65462517082742)",2010-04-29
Vacant/Abandoned Building,10-00579113,04/29/2010,Front,,Open,,Vacant,False,False,3205,W,FULLERTON,AVE,60647.0,1154490.18588597,1915776.04890061,35.0,14.0,22.0,41.92471241180914,-87.70775733687279,"(41.92471241180914, -87.7077573368728)",2010-04-29
Vacant/Abandoned Building,10-00579423,04/29/2010,Front,,Open,FRONT AND REAR,Vacant,False,True,8331,S,MARSHFIELD,AVE,60620.0,1166792.15192659,1849462.12831119,18.0,6.0,71.0,41.742485191497494,-87.66445193069744,"(41.742485191497494, -87.66445193069744)",2010-04-29
Vacant/Abandoned Building,10-00579451,04/29/2010,Front,,Open,FRONT AND REAR - BSMT,Vacant,False,True,3009,E,80TH,PL,60617.0,1197688.7869918002,1852174.58461041,7.0,4.0,46.0,41.74921359431497,-87.55115780074368,"(41.74921359431497, -87.55115780074367)",2010-04-29
Vacant/Abandoned Building,10-00579758,04/29/2010,Front,,Open,FRONT,Vacant,False,False,8950,S,UNION,AVE,60620.0,1173197.80307504,1845897.79502217,21.0,22.0,71.0,41.73256515720312,-87.64108664709498,"(41.73256515720312, -87.64108664709497)",2010-04-29
Vacant/Abandoned Building,10-00579884,04/29/2010,Front,,Open,REAR,Vacant,False,False,7237,S,CORNELL,AVE,60649.0,1188487.26407395,1857322.65183176,8.0,3.0,43.0,41.763564947499205,-87.58471104440439,"(41.7635649474992, -87.58471104440439)",2010-04-29
Vacant/Abandoned Building,10-00579924,04/29/2010,Front,,Open,REAR,Vacant,False,True,6451,S,SACRAMENTO,AVE,60629.0,1157492.77008804,1861708.01568815,15.0,8.0,66.0,41.776283104257715,-87.69819390968796,"(41.776283104257715, -87.69819390968796)",2010-04-29
Vacant/Abandoned Building,10-00580409,04/30/2010,Rear,,Open,REAR,Vacant,False,True,11737,S,INDIANA,AVE,60628.0,1179685.46632408,1827006.10976588,9.0,5.0,53.0,41.68057818778922,-87.61789458532087,"(41.68057818778922, -87.61789458532088)",2010-04-30
Vacant/Abandoned Building,10-00581495,04/30/2010,Front,,Open,ACTUALLY ROOF TOP - DEBRIS FALLING FROM TOP OF BUILDING,Vacant,False,False,5727,S,JUSTINE,ST,60636.0,1166987.31007395,1866704.80998098,16.0,7.0,67.0,41.78979723043095,-87.66324468606247,"(41.78979723043095, -87.66324468606247)",2010-04-30
Vacant/Abandoned Building,10-00581616,04/30/2010,Front,,Open,,Vacant,False,True,4832,S,HERMITAGE,AVE,60609.0,1165494.24040878,1872655.81809209,20.0,9.0,61.0,41.806159314836,-87.66855058995506,"(41.806159314835995, -87.66855058995506)",2010-04-30
Vacant/Abandoned Building,10-00582097,04/30/2010,Front,,Open,BEHIND HARPER HIGH SCHOOL,Vacant,True,True,6500,S,HONORE,ST,60636.0,1165130.060275,1861572.96347732,15.0,7.0,67.0,41.77575430620626,-87.67019980565942,"(41.77575430620626, -87.67019980565942)",2010-04-30
Vacant/Abandoned Building,10-00582225,04/30/2010,Front,,Open,FRONT DOOR & WINDOWS,Vacant,True,True,6439,S,WOLCOTT,AVE,60636.0,1164790.86618864,1861981.33197044,15.0,7.0,67.0,41.776882093958775,-87.67143173971222,"(41.776882093958775, -87.67143173971222)",2010-04-30
Vacant/Abandoned Building,10-00582277,04/30/2010,Front,,Open,FRONT,Vacant,False,False,7045,S,SANGAMON,ST,60621.0,1171191.47708467,1858116.98040382,17.0,7.0,68.0,41.766140259725496,-87.64808018950295,"(41.7661402597255, -87.64808018950295)",2010-04-30
Vacant/Abandoned Building,10-00582337,04/30/2010,Front,,Open,FRONT DOOR,Vacant,True,True,6038,S,WOLCOTT,AVE,60636.0,1164722.82539002,1864624.69536897,15.0,7.0,67.0,41.78413726412596,-87.67160660341463,"(41.78413726412596, -87.67160660341462)",2010-04-30
Vacant/Abandoned Building,10-00582582,04/30/2010,Front,,Open,REAR,Vacant,False,True,6351,S,EBERHART,AVE,60637.0,1180670.831311,1863007.03301067,20.0,3.0,42.0,41.77934656455405,-87.61318514110702,"(41.779346564554054, -87.61318514110701)",2010-04-30
Vacant/Abandoned Building,10-00582873,04/30/2010,Front,,Open,FRONT DOOR AND BACK DOOR KICKED IN,Vacant,False,False,352,E,69TH,ST,60637.0,1179734.1443055,1859343.02307116,20.0,3.0,69.0,41.76931362430625,-87.61673103554014,"(41.76931362430625, -87.61673103554014)",2010-04-30
Vacant/Abandoned Building,10-00582985,04/30/2010,Front,,Open,,Vacant,False,True,7147,S,UNIVERSITY,AVE,60619.0,1185118.30001306,1857838.39181587,5.0,3.0,69.0,41.765059981604814,-87.59704265554781,"(41.765059981604814, -87.59704265554782)",2010-04-30
Vacant/Abandoned Building,10-00583367,04/30/2010,Front,,Open,UNSECURED WINDOWS AND DOORS,Vacant,False,True,2506,W,55TH,ST,60632.0,1160548.70123284,1868121.50432525,14.0,9.0,63.0,41.79382011080957,-87.6868142049548,"(41.79382011080957, -87.6868142049548)",2010-04-30
Vacant/Abandoned Building,10-00584176,04/30/2010,Front,,Open,REAR,Vacant,False,False,2561,W,80TH,PL,60652.0,1160613.59996606,1851172.14997264,18.0,8.0,70.0,41.74730731444828,-87.68704326389168,"(41.74730731444828, -87.68704326389167)",2010-04-30
Vacant/Abandoned Building,10-00584299,04/30/2010,Front,,Open,,Vacant,False,True,223,W,104TH,PL,60628.0,1176632.70708052,1835648.25181322,34.0,5.0,49.0,41.70436252403231,-87.62881038968678,"(41.70436252403231, -87.62881038968678)",2010-04-30
Vacant/Abandoned Building,10-00584537,04/30/2010,Rear,,Open,REAR & BASEMENT DOORS -,Vacant,True,True,7914,S,GREEN,ST,60620.0,1172009.99051052,1852375.53792141,17.0,6.0,71.0,41.75036708532178,-87.64524837587948,"(41.750367085321784, -87.64524837587949)",2010-04-30
Vacant/Abandoned Building,10-00585419,04/30/2010,Front,,Open,ALL AROUND,Vacant,False,True,5354,S,HONORE,ST,60609.0,1164925.9703078999,1869184.17972342,16.0,9.0,61.0,41.79664476653904,-87.67073295684244,"(41.79664476653904, -87.67073295684244)",2010-04-30
Vacant/Abandoned Building,10-00586209,04/30/2010,Front,,Open,BACK DOOR,Vacant,False,True,10408,S,CHRISTIANA,AVE,60655.0,1155837.80948544,1835409.30289456,19.0,22.0,74.0,41.704148417098544,-87.70496489939356,"(41.70414841709854, -87.70496489939357)",2010-04-30
Vacant/Abandoned Building,10-00586398,04/30/2010,Front,,Open,FRONT DOOR UNSECURED,Vacant,False,True,10059,S,AVENUE L,,60617.0,1201815.29628776,1838920.34226929,10.0,4.0,52.0,41.712739075797174,-87.53648667711767,"(41.71273907579717, -87.53648667711767)",2010-04-30
Vacant/Abandoned Building,10-00586434,04/30/2010,Rear,,Open,SIDE DOOR TO GLADY'S DRIVE WAY,Vacant,True,True,4531,S,INDIANA,AVE,60653.0,1178359.10869586,1875027.5299922002,3.0,2.0,38.0,41.812384750794564,-87.62129508109682,"(41.812384750794564, -87.62129508109682)",2010-04-30
Vacant/Abandoned Building,10-00586462,04/30/2010,Front,,Open,WINDOWS/DOORS UNSECURED AND GARAGE DOOR HAS BEEN RMVD,Vacant,False,True,7011,S,ROCKWELL,ST,60629.0,1160251.98878194,1858067.29029762,18.0,8.0,66.0,41.766236064084666,-87.68817884482641,"(41.766236064084666, -87.68817884482641)",2010-04-30
Vacant/Abandoned Building,10-00586479,04/30/2010,Front,,Boarded,NONE,Vacant,False,False,4141,S,ARTESIAN,AVE,60632.0,1160708.2741178002,1877130.14941582,12.0,9.0,58.0,41.81853767181009,-87.68598024378453,"(41.81853767181009, -87.68598024378451)",2010-04-30
Vacant/Abandoned Building,10-00586611,04/30/2010,Front,,Open,,Vacant,False,True,10159,S,WENTWORTH,AVE,60628.0,1176734.3793118,1837582.07807672,9.0,5.0,49.0,41.709666932222966,-87.62838011347108,"(41.70966693222297, -87.6283801134711)",2010-04-30
